[{"stationID":"SB-01","stationName":"Durga Badi Girls Inter College Sadar Kabadi Bazar","latitude":"28.9948","longitude":"77.7008","polingCenterPhoto":"../img/mediPanchayat.png","routes":"../img/3.png","collectionPoint":"../img/3.png","population":"Nil","voters":"5076","villageMohalla":"Kabadi Bazaar, Bank Street,  Naya Bazar, Ravinder Puri , Western Road, Teli Mihalla, Gang Bazar, Bangala Area","path":"#/menu/tab/medicalDetails","respectedPpl":[{"Name":"Sunder Singh Azad","so":"Nil","Address":"Ravinder Puri","Phone":"9897800255"},{"Name":"Samparkash","so":"Nil","Address":"Ravinder Puri","Phone":"9756459226"},{"Name":"Prem Thakur","so":"Nil","Address":"Patta Mohalla","Phone":"9319523063"},{"Name":"Neeraj Rathor","so":"Nil","Address":"Patta Mohalla","Phone":"97195050559"},{"Name":"Jagdeesh Sonkar","so":"Nil","Address":"Ravinder Puri","Phone":"8439720098"}],"retiredGovtSer":[{"Name":"Nil","so":"Nil","Address":"Nil","Phone":"Nil"}],"neighbourPolling":[{"Name":"Kamal","so":"Jiya Lala","Address":"330,sadar Kabidi Bazar","Phone":"9897665896"},{"Name":"Ikabal","so":"Sarif Ahamad","Address":"Sadar Kabadi Bazar","Phone":"9917363116"},{"Name":"Rashid","so":"Bashir Ahamad","Address":"329,sadar Kabadi Bazar","Phone":"9634726788"},{"Name":"Firoz","so":"Basuin Dheen","Address":"344, Sadar Kabadi Bazar","Phone":"9557451428"},{"Name":"Raju","so":"Ramsuruf","Address":"Sadar Naya Bazar","Phone":"Nil"}],"armsLicenseHolder":[{"Name":"Gajdish Chand","so":"Asaram","Address":"207, Thali Mohalla","Phone":"9897345574","Weapon":"Dbbl"},{"Name":"Vinod","so":"Tajpal","Address":"314,sadar Kabidi Bazar","Phone":"9761409255","Weapon":"Dbbl/revalvor"},{"Name":"Dinesh Agrawal","so":"Ramji Lal","Address":"32b,gang Bazar","Phone":"9412206777","Weapon":"Revalvor"},{"Name":"Ujagar Singh","so":"Mohan Singh","Address":"New Market Baganpul","Phone":"7079011320","Weapon":"Dbbl"},{"Name":"Sat Parkash","so":"Nathu Ram","Address":"187, Sadar Kabadi Bazar","Phone":"0121-2664449","Weapon":"Dbbl"},{"Name":"Susant","so":"Kalas Chand","Address":"94, Sadar Kabidi Bazar","Phone":"9219614695","Weapon":"Revalvor"},{"Name":"Kapil Agrawal","so":"Mahesh Chand","Address":"32/35,kabidi Bazar","Phone":"9927018190","Weapon":"Revalvor"},{"Name":"Neerja","so":"Amarnath","Address":"404,tali Mohalla","Phone":"9312925237","Weapon":"Sbbl"},{"Name":"Parmod Jasval","so":"Tejpal Singh","Address":"314,sadar Kabidi Bazar","Phone":"8979467888","Weapon":"Revalvor"},{"Name":"Diness Jindal","so":"Ram Avtar Jindal","Address":"232,sadar Kabadi Bazar","Phone":"9837087921","Weapon":"Dbbl"},{"Name":"Neeraj Jain","so":"Chander Jain","Address":"Naya Bazar","Phone":"9927888388","Weapon":"Revalvor"},{"Name":"Isuvar Chand","so":"Bisamer Sahaya","Address":"126 Gang Bazar","Phone":"9319612525","Weapon":"Dbbl"},{"Name":"Kapil Agrawal","so":"Mehas Chand","Address":"32/35,kabidi Bazar","Phone":"9927018190","Weapon":"Dbbl"},{"Name":"Ankit Alan","so":"Jitender Alan","Address":"283,anand Bhavan Kabidi Bazar","Phone":"9319910099","Weapon":"Revalvor"},{"Name":"Mohd.bilal","so":"Islamudeen","Address":"84, Gang Bazar","Phone":"9897331011","Weapon":"Pistal"},{"Name":"Sandeep Kumar","so":"Pavan Mohan","Address":"183,naya Bazar","Phone":"9897060133","Weapon":"Pistal"},{"Name":"Param Jeet Singh","so":"Ujagar Singh","Address":"36a,new Market","Phone":"9897601313","Weapon":"Dbbl"},{"Name":"Amit Agrawal","so":"Satparkash Agarwal","Address":"New Market Baganpul","Phone":"9760009626","Weapon":"Pistal"},{"Name":"Jitander Alan","so":"Vibhuti Parshad","Address":"16/17sadar Bazar","Phone":"9412702899","Weapon":"Dbbl"},{"Name":"Anil Kumar Mittal","so":"Shyam Sunder Mittal","Address":"29,sadar Kabidi Bazar","Phone":"9837392999","Weapon":"Dbbl/pistal"},{"Name":"Rishi  Kumar Jain","so":"Prem Chand Jain","Address":"137 Gang Bazar","Phone":"0121-2663865","Weapon":"Revalvor"},{"Name":"Ram Jeevan Gupta","so":"Khaniya Lal","Address":"115,gang Bazar","Phone":"Nil","Weapon":"Revalvor"},{"Name":"Rajender Alan","so":"Vibhuti Parshad","Address":"8/10,sadar Kabidi Bazar","Phone":"9893478978","Weapon":"Revalvor"},{"Name":"Raminder Kumar Gupta","so":"Shiv Kumar Gupta","Address":"110,gang Bazar","Phone":"9837054176","Weapon":"Pistal"},{"Name":"Neeraj Saxena","so":"D.r. A.p. Saxena","Address":"41 ,naya Bazar","Phone":"9837119190","Weapon":"Revalvor"},{"Name":"Rajeev Kumar","so":"Nand Kishor","Address":"214,gang Bazar","Phone":"9837072222","Weapon":"Pistal/rifal"},{"Name":"Rajeev Bansal","so":"Shiv Kumar Gupta","Address":"12 Gang Bazar","Phone":"9215300474","Weapon":"Sbbl"},{"Name":"Rajeev Kumar Gupta","so":"Nand Kishor Gupta","Address":"214,gang Bazar","Phone":"9837072222","Weapon":"Dbbl"},{"Name":"Sanjeev Kumar","so":"Nand Kishor","Address":"214,gang Bazar","Phone":"9837073333","Weapon":"Pistal"},{"Name":"Jugraj Singh","so":"Mukrar Singh","Address":"234naya Bazar","Phone":"0121-2577963","Weapon":"Rifal"},{"Name":"Koshal Goel","so":"Bhajan Lal","Address":"162,gang Bazar","Phone":"9837019607","Weapon":"Revalvor"},{"Name":"Sanjay Somani","so":"Madan Mohan","Address":"183,naya Bazar","Phone":"Nil","Weapon":"Revalvor"},{"Name":"Lokesh Singal","so":"Bikhari Lal","Address":"24a Gang Bazar","Phone":"9412830276","Weapon":"Revalvor"},{"Name":"Vinay Choudhary","so":"Rajender Pal","Address":"183,naya Bazar","Phone":"Nil","Weapon":"Revalvor"},{"Name":"Sarjender Laln","so":"Vibhuti Parshad","Address":"16/17 Sadar Kabidi Bazar","Phone":"9412203493","Weapon":"Revalvor"},{"Name":"Sarvan Kumar","so":"Jaiparkash","Address":"114,gang Bazar","Phone":"Nil","Weapon":"Rifal"},{"Name":"Gopal Bansal","so":"Sadi Ram","Address":"32/b,gang Bazar","Phone":"9412205935","Weapon":"Revalvor"},{"Name":"Nikhil Gupta","so":"Rajeev Kumar","Address":"214a Gang Bazar","Phone":"9837072222","Weapon":"Revalvor"},{"Name":"Gagan Deep","so":"Rajender Singh","Address":"194/4 Sadar Kabidi Bazar","Phone":"Nil","Weapon":"Pistal"},{"Name":"Pulkit Gupta","so":"Sanjeev Kumar","Address":"24 Ganj Bazar","Phone":"9837073940","Weapon":"Pistal"},{"Name":"Manooj Kuar","so":"Nand Kishor","Address":"214,gang Bazar","Phone":"9837042702","Weapon":"Revalvor"},{"Name":"Pardeep Tnaja","so":"Ashok Kumar Tenaja","Address":"194/2gang Bazar","Phone":"9897022433","Weapon":"Pistal"},{"Name":"Ramji Lala","so":"Gomund Ram","Address":"Gang Bazar","Phone":"Nil","Weapon":"Revalvor"},{"Name":"Kamal Bradwaj","so":"Vishnu Badgo","Address":"101 Naya Bazar","Phone":"Nil","Weapon":"Revalvor"},{"Name":"Ajay Kumardublic","so":"Rajender Pal Dublish","Address":"183 Naya Bazar","Phone":"9412204387","Weapon":"Revalvor"},{"Name":"Vikas Jain","so":"Parmod Kumar Jain","Address":"18 Sadar Kabidibazar","Phone":"8797000066","Weapon":"Rifal"},{"Name":"Birjess Singal","so":"Ramesh Chand","Address":"46, Gang Bazar","Phone":"9837326321","Weapon":"Revalvor"},{"Name":"Tushar Gupta","so":"Sanjeev Gupta","Address":"214a Gang Bazar","Phone":"9837801806","Weapon":"Rifal"},{"Name":"Rajness Salija","so":"Ashok Saluja","Address":"194/3gang Bazar","Phone":"Nil","Weapon":"Pistal"},{"Name":"Mehander Kumar Agrawal","so":"Ram Saran Das","Address":"32a Gang Bazar","Phone":"9412782240","Weapon":"Revalvor"},{"Name":"Pankaj Sirvastav","so":"Ranjeet Kumar","Address":"59 Naya Bazar","Phone":"7500147355","Weapon":"Revalvor"},{"Name":"Sourav Goel","so":"Surash Chand Goel","Address":"194/6 Naya Bazar","Phone":"Nil","Weapon":"Sbbl"},{"Name":"Mohit Alin","so":"Arvind Alan","Address":"16/17sadar Bazar","Phone":"9927729779","Weapon":"Revalvor"},{"Name":"Ankit Alan","so":"Jtander Alan","Address":"283,anand Bhavan Kabidi Bazar","Phone":"9319910099","Weapon":"Revalvor"},{"Name":"Savita Goel","so":"Rajender Kumar Goel","Address":"185,durga Badi","Phone":"9650010792","Weapon":"Pistal"}],"chowkidar":[{"Name":"Nil","so":"Nil","Address":"Nil","Phone":"Nil"}],"councellor":[{"Name":"Nil","so":"Nil","Address":"Nil","Phone":"Nil"}],"historySheeter":[{"Name":"Aklesh Kanshal","so":"Anand Parkash","Address":"Durga Badi","Status":"Present","Phone":"Nil"},{"Name":"Mukesh Agrawal","so":"Nathu Ram","Address":"9,kabidi Bazar","Status":"Present","Phone":"Nil"},{"Name":"Jishan Aka Puya","so":"Kallu","Address":"84 Gang Bazar","Status":"Present","Phone":"Nil"},{"Name":"Buphander Aka Kukku","so":"Narander","Address":"353,sadar Kabidi Bazar","Status":"Dead","Phone":"Nil"},{"Name":"Padam Aka Handa","so":"Uma Shanker","Address":"Tali Mohalla","Status":"Present","Phone":"Nil"},{"Name":"Vishnu Aka Tittu","so":"Mehander Kashap","Address":"Kala Wali Khothi","Status":"Present","Phone":"Nil"}],"convictedCriminals":[{"Name":"Nil","so":"Nil","crimeno" :"Nil","section":"Nil","Address":"Nil"}],"crimes5Yrs":[{"Name":"Inder Jeet Singh","so":"Son Pal","crimeno":"448/15","Section":"395,412,ipc","Address":"Takri,ps. Jani,meerut"},{"Name":"Anil Rathor","so":"Dinesh Rathod","crimeno":"448/15","Section":"395,412,ipc","Address":"Nand Garm,ps.shyani Gate ,gzayabad"},{"Name":"Amit Sharma","so":"Om Sharma","crimeno":"448/15","Section":"395,412,ipc","Address":"Sarpul,pc. Bb Nagar,bsr."},{"Name":"Lalit Aka Shanu Sharma","so":"Ram Kumar","crimeno":"448/15","Section":"395,412,ipc","Address":"Dhera Kuti,ps. Shyana,bsr."},{"Name":"Chand","so":"Kama Ludin","crimeno":"50/15","Section":"392,411,ipc","Address":"185, Hndiya Mohall, Tall Vali Masjid K Pass,ps. Lal Kurti Meerut"},{"Name":"Asif Aka Pati","so":"Jamil","crimeno":"50/15","Section":"392,411,ipc","Address":"2107, Ahamad Nagar Gali No. 1, Ps Lisadi Gate,mrt."},{"Name":"Shadab","so":"Sarafat Ali","crimeno":"446/12","Section":"392,411,ipc","Address":"173,char Divari,east Islama Bad ,ps,lisadi Gate Meerut"},{"Name":"Uvash","so":"Quam Anshari","crimeno":"446/12","Section":"392,411,ipc","Address":"16 Futtasanter Bda Haki Ka Pass Islamabad,ps, Lisadi Gate Meerut"},{"Name":"Akram","so":"Jamil","crimeno":"114/13","Section":"392,411,ipc","Address":"Baraf Vali Gali Purva Hafis Abdul Karim Macharan Ps. Railway Road"},{"Name":"Ankit Tyagi","so":"Bhubnesh Tyagi","crimeno":"606/14","Section":"302,504,506,34,ipc","Address":"Gram Maha Dav Ps, Sardhana Mrt."},{"Name":"Pardeep","so":"Subhas Chand","crimeno":"606/14","Section":"302,504,506,34,ipc","Address":"Gatholo Ps, Balani, Dagpat"}],"electionCrimes":[{"Name":"Nil","so":"Nil","crimeno":"Nil","Section":"Nil","Address":"Nil"}],"politician":[{"Name":"Nil","so":"Nil","Address":"Nil","Phone":"Nil"}],"boundDownUnder":"06","vulnerabilityDetails":"General","warrantedCriminals":[{"Name":"Nil","so":"Nil","Address":"Nil","Phone":"Nil"}],"condition":"Good"},{"stationID":"SB-02","stationName":"Prathmik Vidhayalaya Prangan Durga Badi Girls Inter College Sadar Kabidi Bazar","latitude":"28.9949","longitude":"77.7006","polingCenterPhoto":"../img/mediPanchayat.png","routes":"../img/3.png","collectionPoint":"../img/3.png","population":"Nil","voters":"2123","villageMohalla":"Ransaj Mohalla, Patal Puri, Ravinder Purinaya Bazar, Western Road, Circular Road, Patta Mohalla, Dharam Puri, Durga Badi","path":"#/menu/tab/medicalDetails","respectedPpl":[{"Name":"Sunder Singh Azad","so":"Nil","Address":"Ravinder Puri","Phone":"9897800255"},{"Name":"Samparkash","so":"Nil","Address":"Ravinder Puri","Phone":"9756459226"},{"Name":"Prem Thakur","so":"Nil","Address":"Patta Mohalla","Phone":"9319523063"},{"Name":"Neeraj Rathor","so":"Nil","Address":"Patta Mohalla","Phone":"97195050559"},{"Name":"Jagdeesh Sonkar","so":"Nil","Address":"Ravinder Puri","Phone":"8439720098"}],"retiredGovtSer":[{"Name":"Nil","so":"Nil","Address":"Nil","Phone":"Nil"}],"neighbourPolling":[{"Name":"Kamal","so":"Jiya Lala","Address":"330,sadar Kabidi Bazar","Phone":"9897665896"},{"Name":"Ikabal","so":"Sarif Ahamad","Address":"Sadar Kabadi Bazar","Phone":"9917363116"},{"Name":"Ajay Rathod","so":"Kishori","Address":"291 Tali Mohalla","Phone":"9837254290"},{"Name":"Akbar Ali","so":"Methav Ali","Address":"326a,sadar Kabidi Bazar","Phone":"9837565941"},{"Name":"Ankit","so":"Kishanlal","Address":"96 Sadar Kabidi Bazar","Phone":"9761692045"}],"armsLicenseHolder":[{"Name":"Sunil Mical","so":"Alfred Mical","Address":"16/17 Western Road","Phone":"9760256160","Weapon":"Rifal/sbbl"},{"Name":"Vad Parkash Jain","so":"Hanc Raj","Address":"177a/10bombay Bazar","Phone":"Nil","Weapon":"Revalver"},{"Name":"Suresh","so":"Suraj Parkash","Address":"178,bombay Bazar","Phone":"0121-2664281","Weapon":"Dbbl"},{"Name":"Bharat Bushan","so":"Balvant Rai","Address":"177h,bombay Bazar","Phone":"9837060046","Weapon":"Revalver"},{"Name":"Punit Juneja","so":"Gulsan Junaga","Address":"44,sadar Bazar","Phone":"9219611111","Weapon":"Dbbl"},{"Name":"S.d. Nayear","so":"D.l. Nayar","Address":"274,circular Road","Phone":"Nil","Weapon":"Revalver"},{"Name":"Sanjeev Kumar Bhatiya","so":"C.d. Bhatya","Address":"209,western Road","Phone":"9720077727","Weapon":"Revalver"},{"Name":"Pawan Garg","so":"Partma Saran","Address":"209b,westarn Road","Phone":"9760023610","Weapon":"Revalver"},{"Name":"Sujeet Jesswal","so":"Hari Shanker Jasval","Address":"177,patta Mohalla","Phone":"9837556868","Weapon":"Revalver"},{"Name":"Pardeep Jesval","so":"Hari Shanker Jasval","Address":"144/177,patta Mohalla","Phone":"9410295854","Weapon":"Revalver"},{"Name":"Mukaram Khan","so":"Rahmood Duhalla","Address":"110a, Rang Shah Mohhala","Phone":"9358404667","Weapon":"Revalver"},{"Name":"Suresh Kumar Anand","so":"Suraj Parkash Anad","Address":"178,bombay Bazar","Phone":"9837039159","Weapon":"Dbbl/revalvar"},{"Name":"Ravinder Mohan Garg","so":"Partma Saran Garg","Address":"209b,westarn Road","Phone":"9760322332","Weapon":"Revalver"},{"Name":"Sachin Chopala","so":"Kamal Kumar Chopda","Address":"33/34,rang Shaj Mohalla","Phone":"Nil","Weapon":"Rifal/pistal"},{"Name":"Ashok Kumar Jain","so":"Vad Parkesh","Address":"177a/10bombay Bazar","Phone":"Nil","Weapon":"Revalver"},{"Name":"Sudheer Kumar","so":"Sunder Lal","Address":"346,ravinder Puri","Phone":"Nil","Weapon":"Revalver"},{"Name":"Amit Kumar","so":"Alok Kumar","Address":"209,ravinder Puri","Phone":"Nil","Weapon":"Pistal"},{"Name":"Surander Sharma","so":"Balvant Sharma","Address":"115,ravinder Puri","Phone":"9837028464","Weapon":"Rifal"},{"Name":"Rafeek Ahamad","so":"Abdul Bhav","Address":"182 Abulan","Phone":"0121-2661438","Weapon":"Rifal"},{"Name":"Hamid Hasan","so":"Abdul Hasan","Address":"179,abulan","Phone":"Nil","Weapon":"Sbbl"},{"Name":"Sudheer Kumar","so":"Om Parkash Singal","Address":"184,abulan","Phone":"Nil","Weapon":"Pistal"},{"Name":"Suresh Chand","so":"Ram Sarup","Address":"169,abulan","Phone":"Nil","Weapon":"Pistal"},{"Name":"Sankar Bhagwan","so":"B.b. Bansal","Address":"311,abulan","Phone":"9359955917","Weapon":"Pistal"},{"Name":"Musharat Ali Sha","so":"Rahat Ali","Address":"182 Abulan","Phone":"Nil","Weapon":"Sbbl"},{"Name":"Ramesh Kumar Dhingera","so":"Govind Ram","Address":"187,abulan","Phone":"9837027876","Weapon":"Revalver/rifal"},{"Name":"Aga Shyesd Saha Umar","so":"Shayad Avud Ali","Address":"182 Abulan","Phone":"Nil","Weapon":"Dbbl"},{"Name":"Daya Nand Gupta","so":"Nathu Mall Gupta","Address":"270,abulan","Phone":"0121-2660937","Weapon":"Revalver"},{"Name":"Manooj Kalara","so":"Lakshman Dass","Address":"171/10,abulan","Phone":"9837006699","Weapon":"Pistal"},{"Name":"Atul Kumar Gupta","so":"Om Parkash","Address":"184/7,abulan","Phone":"9358403390","Weapon":"Revalver"},{"Name":"Salamder Kumar Garg","so":"R.d. Garg","Address":"Abulan","Phone":"9319099201","Weapon":"Revalver"},{"Name":"Suresh Bihari","so":"Grig Parshad Mittal","Address":"Abulan","Phone":"Nil","Weapon":"Revalver"},{"Name":"Rajeev Kumar Singhal","so":"Sushil Kumar","Address":"Abulan","Phone":"9411894115","Weapon":"Sbbl/revalver"},{"Name":"Sunbhas Kumar Sharma","so":"Parmatma Saran Sharma","Address":"Abulan","Phone":"9456014407","Weapon":"Dbbl"},{"Name":"Kirshan Gopal","so":"Nanak Chand","Address":"Abulan","Phone":"0121-2660665","Weapon":"Revalver"},{"Name":"Sanjay Waj Pay","so":"Kalesh Chand","Address":"Kala Wali Khoyhi","Phone":"9837401907","Weapon":"Revalver"},{"Name":"Habib Khan","so":"Rehaman Khan","Address":"Abulan","Phone":"Nil","Weapon":"Dbbl"},{"Name":"Shadhan Ghos","so":"D.r.b. Ghos","Address":"Abulan","Phone":"Nil","Weapon":"Rifal"},{"Name":"D.r. Vish Nath","so":"Sadhanath","Address":"Abulan","Phone":"Nil","Weapon":"Nil"},{"Name":"Avaran Singh","so":"Amar Singh","Address":"Abulan","Phone":"Nil","Weapon":"Revalver"},{"Name":"Dheera Lal Jani","so":"Nil","Address":"Abulan","Phone":"Nil","Weapon":"Dbbl"},{"Name":"Bhopander Kumar Jain","so":"Shri Mander Dass","Address":"Abulan","Phone":"Nil","Weapon":"Pistal"},{"Name":"Tara Parshad","so":"Hardev Parshad","Address":"Abulan","Phone":"Nil","Weapon":"Dbbl"},{"Name":"Braj Mohan Bathara","so":"T.r. Badera","Address":"Abulan","Phone":"Nil","Weapon":"Revalver"},{"Name":"Praveen Junaga","so":"Gulsan Junaga","Address":"Abulan","Phone":"9210611111","Weapon":"Pistal"},{"Name":"Manoj Kumar","so":"Lakshman Dass","Address":"Abulan","Phone":"Nil","Weapon":"Pistal"},{"Name":"Girdhari Lal","so":"Idab Das","Address":"Abulan","Phone":"9411958666","Weapon":"Pistal"},{"Name":"Bal Ram Singh","so":"Munsi Lal","Address":"Abulan","Phone":"Nil","Weapon":"Sbbl"},{"Name":"Yes Pal Tyagi","so":"Dalchan Tyagi","Address":"Abulan","Phone":"9837085465","Weapon":"Rifal"},{"Name":"Manoj Kumar","so":"Bal Raj Pawar","Address":"Abulan","Phone":"9927071987","Weapon":"Revalver"},{"Name":"Rishab Jain","so":"Anand Kumar Jain","Address":"Abulan","Phone":"9720077770","Weapon":"Revalver"},{"Name":"Prem Kumar","so":"Gopal Dass","Address":"Abulan","Phone":"9837086713","Weapon":"Revalver"}],"chowkidar":[{"Name":"Nil","so":"Nil","Address":"Nil","Phone":"Nil"}],"councellor":[{"Name":"Nil","so":"Nil","Address":"Nil","Phone":"Nil"}],"historySheeter":[{"Name":"Vishnu","so":"Tika Ram","Address":"Patta Mohalla ,naya Bazar","Status":"Missing","Phone":"Nil"},{"Name":"Imam Aka Imamudin","so":"Rahamat Ahamad","Address":"117a, Naya Bazar","Status":"Present","Phone":"Nil"},{"Name":"Rishi Kumar","so":"Shyam Lal","Address":"Patta Mohalla ,naya Bazar","Status":"Present","Phone":"Nil"},{"Name":"Ganesh Aka Handa","so":"Kishan Singh","Address":"Naya Bazar","Status":"Present","Phone":"Nil"},{"Name":"Nan Singh","so":"Nathu","Address":"258 Sadar Kabidi Bazar","Status":"Dead","Phone":"Nil"},{"Name":"Tashlim","so":"Idrish Tali","Address":"Tali Mohalla","Status":"Dead","Phone":"Nil"},{"Name":"Monu Bansal","so":"Surash Banshal","Address":"235 Westarn Road","Status":"Present","Phone":"Nil"}],"convictedCriminals":[{"Name":"Nil","so":"Nil","crimeno" :"Nil","section":"Nil","Address":"Nil"}],"crimes5Yrs":[{"Name":"Akshay","so":"Rakesh","crimeno":"256/12","Section":"392,411,ipc","Address":"Sentral Marker Sastri Nagarps Nochandi,mrt"},{"Name":"Kapil","so":"Pradeep Rastigi","crimeno":"256/12","Section":"392,411,ipc","Address":"Bakri Mohalla Ps, Lalkurti,mrt"},{"Name":"Farman","so":"Nafis Ahamad","crimeno":"39/15","Section":"392,411,ipc","Address":"307 Badi Masjid, Shapir Gate ,ps Kotwali,mrt"},{"Name":"Abdul Ahamad","so":"Nil","crimeno":"39/15","Section":"392,411,ipc","Address":"609 Badi Masjid, Shapir Gate ,ps Kotwali,mrt"},{"Name":"Amit","so":"Roshan Lal","crimeno":"197/15","Section":"392,452,506,323,411,ipc","Address":"Sopifur,ps Dorala,mrt"},{"Name":"Davinder","so":"Raj Pal","crimeno":"197/15","Section":"392,452,506,323,411,ipc","Address":"Billoj Pur Ps, Singhavali Ahir Bahpat"},{"Name":"Golu","so":"Kumar Pal","crimeno":"197/15","Section":"392,452,506,323,411,ipc","Address":"Fulara Ps, Chndi Nagar Bajpat"},{"Name":"Sagar","so":"Satish","crimeno":"197/15","Section":"392,452,506,323,411,ipc","Address":"Rotha ,psrotha, Meerut"},{"Name":"Rahul","so":"Bhopal","crimeno":"197/15","Section":"392,452,506,323,411,ipc","Address":"Jahawar Nagar Nanuya Ka Ahata Ps, Rotha Mrt"},{"Name":"Rihan","so":"Nabav","crimeno":"266/15","Section":"392,411,ipc","Address":"Purva Ihali Vas,ps Bharam Puri,mrt"}],"electionCrimes":[{"Name":"Nil","so":"Nil","crimeno":"Nil","Section":"Nil","Address":"Nil"}],"politician":[{"Name":"Nil","so":"Nil","Address":"Nil","Phone":"Nil"}],"boundDownUnder":"05","vulnerabilityDetails":"General","warrantedCriminals":[{"Name":"Nil","so":"Nil","Address":"Nil","Phone":"Nil"}],"condition":"Good"},{"stationID":"SB-03","stationName":"C.A.B. Inter College(Agla Bhag) Near Vashali Ground","latitude":"28.9879","longitude":"77.6967","polingCenterPhoto":"../img/mediPanchayat.png","routes":"../img/3.png","collectionPoint":"../img/3.png","population":"Nil","voters":"4471","villageMohalla":"Gang Bazar, Chandergup Puris, A.B. Campus, Chock Bazar, Police Street, Morgang, Naye Tashi, Bangla Arya","path":"#/menu/tab/medicalDetails","respectedPpl":[{"Name":"Akram Shah","so":"Rahamat Alhi","Address":"199,morgang Mecharan,busa Mandi","Phone":"9927857125"},{"Name":"Shanavaz","so":"Abdul Ajeej","Address":"199,morgang Mecharan,busa Mandi","Phone":"9897586348"},{"Name":"Muzayad","so":"Abdul Gani","Address":"199,morgang Mecharan,busa Mandi","Phone":"9927223759"},{"Name":"Shanavaz","so":"Nesebulla","Address":"199,morgang Mecharan,busa Mandi","Phone":"9759440786"},{"Name":"Mehabub","so":"Alharakha","Address":"199,morgang Mecharan,busa Mandi","Phone":"9997741241"},{"Name":"Haji Shaid","so":"Saha Budin","Address":"199,morgang Mecharan,busa Mandi","Phone":"8954636363"},{"Name":"Deepak","so":"Gyaninder","Address":"199,morgang Mecharan,busa Mandi","Phone":"9412701912"}],"retiredGovtSer":[{"Name":"Nil","so":"Nil","Address":"Nil","Phone":"Nil"}],"neighbourPolling":[{"Name":"Akram Shah","so":"Rahamat Alhi","Address":"199, Morgang Mecharan, Busa Mandi","Phone":"9927857125"},{"Name":"Shanavaz","so":"Abdul Ajeej","Address":"199, Morgang Mecharan, Busa Mandi","Phone":"9897586348"},{"Name":"Muzayad","so":"Abdul Gani","Address":"199, Morgang Mecharan, Busa Mandi","Phone":"9927223759"},{"Name":"Shanavaz","so":"Nesebulla","Address":"199, Morgang Mecharan, Busa Mandi","Phone":"9759440786"},{"Name":"Mehabub","so":"Alharakha","Address":"199, Morgang Mecharan, Busa Mandi","Phone":"9997741241"},{"Name":"Haji Shaid","so":"Saha Budin","Address":"199, Morgang Mecharan, Busa Mandi","Phone":"8954636363"},{"Name":"Deepak","so":"Gyaninder","Address":"199, Morgang Mecharan, Busa Mandi","Phone":"9412701912"}],"armsLicenseHolder":[{"Name":"Pawan","so":"Murari Lal","Address":"147,gang Bazar","Phone":"9837094780","Weapon":"Revalvor"},{"Name":"Anil Goel","so":"Om Parkash Goel","Address":"142, Sadar Chock","Phone":"9897022223","Weapon":"Dbbl"},{"Name":"Omparkash","so":"Anba Parshad Jain","Address":"217,police Street","Phone":"Nil","Weapon":"Dbbl"},{"Name":"Rajat Mittal","so":"Satish Kumar","Address":"205, Police Street","Phone":"9627637575","Weapon":"Revalvor"},{"Name":"Sammy Kumar","so":"Parmanand","Address":"63,chock Bazar","Phone":"9837040161","Weapon":"Dbbl"},{"Name":"Sanjay Kumar","so":"Bhagwan Dass","Address":"156,chock Bazar","Phone":"9720074447","Weapon":"Revalvor"},{"Name":"Mukesh Kumar","so":"Gajdish Parshad","Address":"194/28 Chandergupt Puri","Phone":"9837020974","Weapon":"Revalvor"},{"Name":"Gulsan Junaga","so":"Baldev Raj","Address":"44, Sadar Chock","Phone":"9997010000","Weapon":"Revalvor"},{"Name":"Manoj Kumar","so":"Parma Nand","Address":"63 Sadar Chock Bazar","Phone":"9837062143","Weapon":"Pistal"},{"Name":"Anil Bardwaj","so":"Harbanc Lal Bardwaj","Address":"119 Chock Bazar","Phone":"9557444466","Weapon":"Revalvor"},{"Name":"Dinesh Bardwaj","so":"K.l. Bardwaj","Address":"65 Chock Bazar","Phone":"Nil","Weapon":"Revalvor"},{"Name":"Mahesh Chand Jindal","so":"Makar Ban Lal","Address":"195,polic Street","Phone":"9219560994","Weapon":"Sbbl/pistal"},{"Name":"D.r. Umang Verma","so":"Jahawar Lal","Address":"194/5 Police Street","Phone":"9837020234","Weapon":"Revalvor"},{"Name":"Rishav Kumar Jain","so":"Ragnundan Parshad","Address":"216,polic Street","Phone":"9837042767","Weapon":"Dbbl"},{"Name":"Rajesh Agravwal","so":"Santi Parshad","Address":"194, Chander Gupt Puri","Phone":"9258770534","Weapon":"Pistal"},{"Name":"Sunder Lal Jindal","so":"Makar Ban Lal","Address":"195,polic Street","Phone":"Nil","Weapon":"Revalvor"},{"Name":"Meshed Chand","so":"Makar Ban Lal","Address":"195,polic Street","Phone":"9219560994","Weapon":"Revalvor"}],"chowkidar":[{"Name":"Nil","so":"Nil","Address":"Nil","Phone":"Nil"}],"councellor":[{"Name":"Nil","so":"Nil","Address":"Nil","Phone":"Nil"}],"historySheeter":[{"Name":"Sunny Aka Don","so":"Sohan Singh","Address":"Alim Pura","Status":"Jail","Phone":"Nil"},{"Name":"Salim","so":"Hapig Aka Charchi","Address":"272 , Mor Gang","Status":"Present","Phone":"Nil"},{"Name":"Salim Aka Bhura","so":"Mehaboob Ahali","Address":"272 , Mor Gang","Status":"Jail","Phone":"Nil"}],"convictedCriminals":[{"Name":"Nil","so":"Nil","crimeno" :"Nil","section":"Nil","Address":"Nil"}],"crimes5Yrs":[{"Name":"Atul Aka Narander","so":"Gyan Singh","crimeno":"81/13","Section":"392,411,ipc","Address":"Madhav Puram Ambadkar Nagar Ps, Bhrampuri Meerut"},{"Name":"Sushil Aka Banda","so":"Hari Shingh","crimeno":"81/13","Section":"392,411,ipc","Address":"314 Mohalla Buphander Puri Ps Modhi Nagar Gazyabad"},{"Name":"Yamin","so":"Imamudin","crimeno":"126/13","Section":"392,411,ipc","Address":"B 16, Ucha Sadhaik Nagarps,lisadi Gate Mrt"},{"Name":"Washim","so":"Kadhir","crimeno":"126/13","Section":"392,411,ipc","Address":"Peer Wali Gali Rashid Nagar,ps Bharm Puri Meerut"},{"Name":"Rehan Aka Ayan","so":"Navab Mavati","crimeno":"186/14","Section":"392,411,ipc","Address":"Hari Nader,ps Bharm Puri Meerut"},{"Name":"Shadav","so":"Haji Aslam","crimeno":"186/14","Section":"392,411,ipc","Address":"Shar Singh Wali Gali Purva Ilahi Waksh Ps, Bhram Puri Meerut"},{"Name":"Rahul Aka Tuta Futa","so":"Rosan Lal","crimeno":"226/15","Section":"394,302,120b,ipc","Address":"Pnt Colony Ganga Nagar, Mrt"},{"Name":"Sonu","so":"Bisamber","crimeno":"226/15","Section":"394,302,120b,ipc","Address":"Doralla, Ps Dorala ,mrt"},{"Name":"Monu","so":"Kali Charan","crimeno":"226/15","Section":"394,302,120b,ipc","Address":"Achoranda Ps Parta Pur ,mrt"},{"Name":"Rahul Chakki","so":"Pradeep Mittal","crimeno":"226/15","Section":"394,302,120b,ipc","Address":"63, Dal Mandi Ps, Sadar Bazar"}],"electionCrimes":[{"Name":"Nil","so":"Nil","crimeno":"Nil","Section":"Nil","Address":"Nil"}],"politician":[{"Name":"Nil","so":"Nil","Address":"Nil","Phone":"Nil"}],"boundDownUnder":"10","vulnerabilityDetails":"General","warrantedCriminals":[{"Name":"Nil","so":"Nil","Address":"Nil","Phone":"Nil"}],"condition":"Good"},{"stationID":"SB-04","stationName":"Dweean Public School,Westarn Road","latitude":"28.9923","longitude":"77.6947","polingCenterPhoto":"../img/mediPanchayat.png","routes":"../img/3.png","collectionPoint":"../img/3.png","population":"Nil","voters":"3922","villageMohalla":"Nunia Mohalla, Chanakya Pyri, Bangla Area, Tiwari Campus, Alim Pura","path":"#/menu/tab/medicalDetails","respectedPpl":[{"Name":"Akram Shah","so":"Rahamat Alhi","Address":"199, Morgang Mecharan, Busa Mandi","Status":"Nil","Phone":"9927857125"},{"Name":"Shanavaz","so":"Abdul Ajeej","Address":"199, Morgang Mecharan, Busa Mandi","Status":"Nil","Phone":"9897586348"},{"Name":"Muzayad","so":"Abdul Gani","Address":"199, Morgang Mecharan, Busa Mandi","Status":"Nil","Phone":"9927223759"},{"Name":"Shanavaz","so":"Nesebulla","Address":"199, Morgang Mecharan, Busa Mandi","Status":"Nil","Phone":"9759440786"},{"Name":"Mehabub","so":"Alharakha","Address":"199, Morgang Mecharan, Busa Mandi","Status":"Nil","Phone":"9997741241"},{"Name":"Haji Shaid","so":"Saha Budin","Address":"199, Morgang Mecharan, Busa Mandi","Status":"Nil","Phone":"8954636363"},{"Name":"Deepak","so":"Gyaninder","Address":"199, Morgang Mecharan, Busa Mandi","Status":"Nil","Phone":"9412701912"}],"retiredGovtSer":[{"Name":"Nil","so":"Nil","Address":"Nil","Phone":"Nil"}],"neighbourPolling":[{"Name":"Akram Shah","so":"Rahamat Alhi","Address":"199, Morgang Mecharan, Busa Mandi","Phone":"9927857125"},{"Name":"Shanavaz","so":"Abdul Ajeej","Address":"199, Morgang Mecharan, Busa Mandi","Phone":"9897586348"},{"Name":"Muzayad","so":"Abdul Gani","Address":"199, Morgang Mecharan, Busa Mandi","Phone":"9927223759"},{"Name":"Shanavaz","so":"Nesebulla","Address":"199, Morgang Mecharan, Busa Mandi","Phone":"9759440786"},{"Name":"Mehabub","so":"Alharakha","Address":"199, Morgang Mecharan, Busa Mandi","Phone":"9997741241"},{"Name":"Haji Shaid","so":"Saha Budin","Address":"199, Morgang Mecharan, Busa Mandi","Phone":"8954636363"},{"Name":"Deepak","so":"Gyaninder","Address":"199, Morgang Mecharan, Busa Mandi","Phone":"9412701912"}],"armsLicenseHolder":[{"Name":"Mohd. Illayas","so":"Mohd.isak","Address":"64, Ranj Saj Mohalla","Phone":"9411891786","Weapon":"Dbbl"},{"Name":"Sarad Mittal","so":"S.k. Mittal","Address":"Nonia Mohalla","Phone":"9412705962","Weapon":"Dbbl"},{"Name":"Sudhir Kumar","so":"Om Parkash","Address":"Nonia Mohalla","Phone":"0121-2531025","Weapon":"Pistal"},{"Name":"Arunesh Kumar Mittal","so":"Sunder Lal Singal","Address":"311 ,chanakuya Puri","Phone":"Nil","Weapon":"Dbbl"},{"Name":"Mehander Kumar Verma","so":"Ram Bhajan Lal","Address":"Nonia Mohalla","Phone":"9319121483","Weapon":"Revalvor"},{"Name":"Rajeev Jaswal","so":"Ram Kishan Jeswal","Address":"Chanakya Puri","Phone":"9358320444","Weapon":"Dbbl"},{"Name":"Shiv Kumar Gupta","so":"Kelash Chand","Address":"Nonia Mohalla","Phone":"9897212154","Weapon":"Revalvor"},{"Name":"Pardeep Kumar Yadav","so":"Ram Singh Yadav","Address":"Nonia Mohalla","Phone":"9412200175","Weapon":"Revalvor"},{"Name":"Deep Mohan Goel","so":"Mohan Lal","Address":"Chanakya Puri","Phone":"9720317260","Weapon":"Dbbl"},{"Name":"Ravinder Kumar Jain","so":"Jugmindar Dass Jain","Address":"Chanakya Puri","Phone":"9897096660","Weapon":"Pistal"},{"Name":"Sunil Kumar","so":"Rajuveer Dayal","Address":"Chanakya Puri","Phone":"9837100321","Weapon":"Rifal"},{"Name":"Deepak Singal","so":"Anil Kumar Singhal","Address":"Chanakya Puri","Phone":"9927074443","Weapon":"Revalvor"},{"Name":"Sandeep Mehaswari","so":"Mehash Kumar","Address":"Chanakya Puri","Phone":"9412707124","Weapon":"Nil"},{"Name":"Hari Singh","so":"Anad Singh","Address":"Nonia Mohalla","Phone":"9761911911","Weapon":"Revalvor"},{"Name":"Anuj Kumar Gupta","so":"Ashok Kumar Gupta","Address":"Chanakya Puri","Phone":"9411893609","Weapon":"Rifal"}],"chowkidar":[{"Name":"Nil","so":"Nil","Address":"Nil","Phone":"Nil"}],"councellor":[{"Name":"Nil","so":"Nil","Address":"Nil","Phone":"Nil"}],"historySheeter":[{"Name":"Vipin Jaswal","so":"Anand Sharup","Address":"101, Alim Pura","Status":"Missing","Phone":"N/a"},{"Name":"Ibharim Aka Bheema","so":"Yakub","Address":"198, Tiwari Campus","Status":"Dead","Phone":"N/a"}],"convictedCriminals":[{"Name":"Nil","so":"Nil","crimeno" :"Nil","section":"Nil","Address":"Nil"}],"crimes5Yrs":[{"Name":"Nikhil","so":"Pradeep Balmiki","crimeno":"162/15","Section":"392,411,ipc","Address":"101, Alim Pura Ps, Sadar Bazar Mrt"},{"Name":"Mohit","so":"Kishan Pal","crimeno":"162/15","Section":"392,411,ipc","Address":"Madhav Puram ,ps, Phrampuri Meerut"},{"Name":"Vishal","so":"Kishan Pal","crimeno":"162/15","Section":"392,411,ipc","Address":"Madhav Puram ,ps, Phrampuri Meerut"},{"Name":"Ajay Gowsami","so":"Sagar Gowsami","crimeno":"162/15","Section":"392,411,ipc","Address":"Police Lne Awas Ps, Civil Line ,mrt"},{"Name":"Rajvan","so":"Irshad","crimeno":"317/13","Section":"392,411,ipc","Address":"Mihalla Islama Bad Choki Ka Pass Ps, Lisadi Gate,mrt"},{"Name":"Shakib","so":"Irshad","crimeno":"317/13","Section":"392,411,ipc","Address":"Mihalla Islama Bad Choki Ka Pass Ps, Lisadi Gate,mrt"},{"Name":"Yamin","so":"Kallu Kha","crimeno":"125/15","Section":"392,411,ipc","Address":"Ucha Sadkik Nagar,ps Lisadi Gate Mrt"},{"Name":"Ash Mohd","so":"Babu Kha","crimeno":"125/15","Section":"392,411,ipc","Address":"New Sadik Nagar Ps, Lisadi Gate Mrt"}],"electionCrimes":[{"Name":"Nil","so":"Nil","crimeno":"Nil","Section":"Nil","Address":"Nil"}],"politician":[{"Name":"Nil","so":"Nil","Address":"Nil","Phone":"Nil"}],"boundDownUnder":"07","vulnerabilityDetails":"General","warrantedCriminals":[{"Name":"Nil","so":"Nil","Address":"Nil","Phone":"Nil"}],"condition":"Good"},{"stationID":"SB-05","stationName":"Digamber Jain Kaniya Inter College Sadar","latitude":"28.9899","longitude":"77.6983","polingCenterPhoto":"../img/mediPanchayat.png","routes":"../img/3.png","collectionPoint":"../img/3.png","population":"Nil","voters":"2287","villageMohalla":"dal mandi, dholki mohalla","path":"#/menu/tab/medicalDetails","respectedPpl":[{"Name":"Bharat Bhusan Goel","so":"Shri. Omprakesh","Address":"Rait Cement Dukan Vala","Phone":"9286634370"},{"Name":"Anil Gupta","so":"Raja Ram","Address":"Kishan Still Wala","Phone":"9412706998"},{"Name":"Vikas Goel","so":"Kul Bhusan Goel","Address":"Meshars Parsuram Vikas Goel","Phone":"8958241297"},{"Name":"Viney Goel","so":"Shyam Lal Gupta","Address":"Mehnoer Lal Cycle Wala","Phone":"9410031792"},{"Name":"Anil Jain","so":"Alam Parkesh","Address":"Saba Sad","Phone":"9837024735"}],"retiredGovtSer":[{"Name":"Nil","so":"Nil","Address":"Nil","Phone":"Nil"}],"neighbourPolling":[{"Name":"Raju","so":"Jugal Kishor","Address":"Dholki Mohalla","Phone":"Nil"},{"Name":"Rahat","so":"Inayat Kha","Address":"Dholki Mohalla","Phone":"Nil"},{"Name":"Shakil Kha","so":"Yamin Kha","Address":"Dholki Mohalla","Phone":"9761542116"},{"Name":"Nayem","so":"Yashin","Address":"Dholki Mohalla","Phone":"9897880793"},{"Name":"Chand Mohd.","so":"Shar Mohd.","Address":"Dholki Mohalla","Phone":"Nil"}],"armsLicenseHolder":[{"Name":"Mehandir Sing Verma","so":"Ram Kishor","Address":"Dholki Mohalla","Phone":"7409233937","Weapon":"Sbbl"},{"Name":"Vinood Agarwal","so":"Gajdish Parshad","Address":"Shiv Raj Pat","Phone":"9837274782","Weapon":"Revalvor"},{"Name":"Sanjay Jain","so":"Anad Parkash","Address":"Dalmandi","Phone":"9837040150","Weapon":"Revalvor"},{"Name":"Pawan Bansal","so":"Rajinder Bansal","Address":"Dalmandi","Phone":"9837158200","Weapon":"Pistal"},{"Name":"Manhoan","so":"Parma Nand","Address":"Sadar Chock","Phone":"9837180966","Weapon":"Ace/revalvor"},{"Name":"Ankur Bansal","so":"Rajinder Bansal","Address":"Shiv Raj Pat","Phone":"9837080455","Weapon":"Revalvor"},{"Name":"Sourav Goel","so":"Suresh Chand","Address":"194/6 Delhi Road","Phone":"9897079690","Weapon":"Sbbl"},{"Name":"Vijat Kumar Verma","so":"Vidhamber Shah","Address":"Shiv Raj Pat","Phone":"0121-2661059","Weapon":"Revalvor"},{"Name":"Dinesh Goel","so":"Harish Chand Goel","Address":"Dholki Mohalla","Phone":"9412702406","Weapon":"Revalvor"},{"Name":"Amit Jain","so":"Prem Chand Jain","Address":"Dholki Mohalla","Phone":"9837020451","Weapon":"Revalvor"},{"Name":"Ram Avttar Singal","so":"Brahamanad","Address":"Dayanand Path","Phone":"9810429869","Weapon":"Dbbl"},{"Name":"Mardul Jain","so":"Rajesh Jain","Address":"Tilik Park","Phone":"9837085190","Weapon":"Revalvor"},{"Name":"Pawan Bansal","so":"Rajinder Kumar","Address":"Dalmandi","Phone":"9837158200","Weapon":"Rifal"},{"Name":"Anurag Gupta","so":"Hari Mohan Gupta","Address":"Dholki Mohalla","Phone":"9837437103","Weapon":"Revalvor"},{"Name":"Mohit Jain","so":"Rajesh Jain","Address":"Dalmandi","Phone":"9837416490","Weapon":"Revalvor"},{"Name":"Sany Jain","so":"Arvind Kumar","Address":"Dalmandi","Phone":"9897201688","Weapon":"Revalvor"},{"Name":"Sanjay Agrawall","so":"Tara Chand","Address":"Dalmandi","Phone":"9412200622","Weapon":"Revalvor"},{"Name":"Pawan Kumar Gupta","so":"Vinay Kumar Gupta","Address":"Dholki Mohalla","Phone":"Nil","Weapon":"Nil"},{"Name":"Gopal Singhal","so":"Inder Parkas Singhal","Address":"Tilik Park","Phone":"9412629189","Weapon":"Revalvor"},{"Name":"Anil Kumar","so":"Tara Chand","Address":"Dalmandi","Phone":"9837021045","Weapon":"Revalvor"},{"Name":"Gagan Deep Singh","so":"Rajinder Singh Bhatiya","Address":"Dalmandi","Phone":"9837039360","Weapon":"Pistal"},{"Name":"Anuj Jain","so":"Satinder Jain","Address":"Dalmandi","Phone":"9927016903","Weapon":"Revalvor"},{"Name":"Tara Chand","so":"Dhani Ram","Address":"Dalmandi","Phone":"Nil","Weapon":"Sbbl"},{"Name":"Kapil Sharma","so":"Mehander Sharma","Address":"Dalmandi","Phone":"9927066361","Weapon":"Revalvor"},{"Name":"Sanjay Agrawall","so":"Tara Chand","Address":"Dalmandi","Phone":"9412200622","Weapon":"Pistal"}],"chowkidar":[{"Name":"Nil","so":"Nil","Address":"Nil","Phone":"Nil"}],"councellor":[{"Name":"Nil","so":"Nil","Address":"Nil","Phone":"Nil"}],"historySheeter":[{"Name":"Millan","so":"Chidda","Address":"208 Dal Mandi","Status":"Missing","Phone":"Nil"},{"Name":"Anil","so":"Ram Charan","Address":"Dal Mandi","Status":"Missing","Phone":"Nil"},{"Name":"Rajeev Aka Boby","so":"Harish","Address":"282 Tilik Pal","Status":"Dead","Phone":"Nil"}],"convictedCriminals":[{"Name":"Nil","so":"Nil","crimeno" :"Nil","section":"Nil","Address":"Nil"}],"crimes5Yrs":[{"Name":"Mohd. Asif","so":"Sikander","crimeno":"77/13","Section":"392,411,ipc","Address":"Shyam Nagar ,bhopal Ki Khoyi Kapass,ps. Lisadi Gate,mrt"},{"Name":"Amjad","so":"Mansoor","crimeno":"77/13","Section":"392,411,ipc","Address":"Galo No. 4 Hotal Wali Gali Shyam Nager, Ps. Lisadi Gate ,mrt."},{"Name":"Alam Sunar","so":"Yashin","crimeno":"77/13","Section":"392,411,ipc","Address":"Shyam Nagar ,bhopal Ki Khoyi Kapass,ps. Lisadi Gate,mrt"},{"Name":"Chand","so":"Kamludin","crimeno":"638/14","Section":"392,411,ipc","Address":"Handiya Mohalla Tal Wali Masjid Ka Pass ,ps. Lalkurti Meerut"},{"Name":"Shail","so":"Ismile","crimeno":"638/14","Section":"392,411,ipc","Address":"Hariya Lashi Wala Ka Pass ,ps. Lalkurti Mrt"}],"electionCrimes":[{"Name":"Nil","so":"Nil","crimeno":"Nil","Section":"Nil","Address":"Nil"}],"politician":[{"Name":"Nil","so":"Nil","Address":"Nil","Phone":"Nil"}],"boundDownUnder":"06","vulnerabilityDetails":"General","warrantedCriminals":[{"Name":"Nil","so":"Nil","Address":"Nil","Phone":"Nil"}],"condition":"Good"},{"stationID":"SB-06","stationName":"Sanatan Dharam Girls Inter College Bankers Street","latitude":"28.9911","longitude":"77.6965","polingCenterPhoto":"../img/mediPanchayat.png","routes":"../img/3.png","collectionPoint":"../img/3.png","population":"Nil","voters":"2735","villageMohalla":"Durga Badi, Bangla Area, Dharam, Purima Charan, Busha Mandi","path":"#/menu/tab/medicalDetails","respectedPpl":[{"Name":"Kesav Variya","so":"Omparkash","Address":"Ranjeet Puri","Phone":"9219518381"},{"Name":"Vipin Agrawal","so":"Ramesh Chand Agrawal","Address":"Tanki Mohalla","Phone":"9897852095"},{"Name":"Pawan Garg","so":"S.d. Garg","Address":"Nil","Phone":"9837034437"},{"Name":"Pawan Bansal","so":"Johari Mal","Address":"Nil","Phone":"9412472872"},{"Name":"Vijay Goel","so":"Ratan Lal Goel","Address":"Nil","Phone":"9412206769"}],"retiredGovtSer":[{"Name":"Nil","so":"Nil","Address":"Nil","Phone":"Nil"}],"neighbourPolling":[{"Name":"Kesav Variya","so":"Omparkash","Address":"Ranjeet Puri","Phone":"9219518381"},{"Name":"Vipin Agrawal","so":"Ramesh Chand Agrawal","Address":"Tanki Mohalla","Phone":"9897852095"},{"Name":"Pawan Garg","so":"S.d. Garg","Address":"Nil","Phone":"9837034437"},{"Name":"Pawan Bansal","so":"Johari Mal","Address":"Nil","Phone":"9412472872"},{"Name":"Vijay Goel","so":"Ratan Lal Goel","Address":"Nil","Phone":"9412206769"}],"armsLicenseHolder":[{"Name":"Satish Goel","so":"Kelash Chand Goel","Address":"Durga Badi","Phone":"0121-2660686","Weapon":"Dbbl"},{"Name":"Rupandr Singh","so":"Terlo Chand","Address":"Bank Street","Phone":"9837037466","Weapon":"Dbbl"},{"Name":"Anil Mittal","so":"Ved Parkas Mittal","Address":"Durga Badi","Phone":"8954089524","Weapon":"Dbbl"},{"Name":"Sanjay Gupta","so":"Madan Mohan Gupta","Address":"Durga Badi","Phone":"Nil","Weapon":"Revalvor"},{"Name":"Vadpal","so":"Kalu Ram","Address":"Dharampuri","Phone":"9837234100","Weapon":"Dbbl"},{"Name":"Madhu Sudan Gupta","so":"Balvant Ray","Address":"Durga Badi","Phone":"9837021564","Weapon":"Dbbl"},{"Name":"Mukesh Gupta","so":"Khub Chnad Gupta","Address":"Bank Street","Phone":"9358801085","Weapon":"Dbbl/revalver"},{"Name":"Parveen","so":"Parma Nand","Address":"Bank Street","Phone":"9927671487","Weapon":"Pistal"},{"Name":"Parveen","so":"Hari Singh","Address":"Dharampuri","Phone":"9837363612","Weapon":"Pistal"},{"Name":"Rajeev Kumar Sharma","so":"Op Sharma","Address":"Bank Street","Phone":"9837194558","Weapon":"Dbbl"},{"Name":"Sunil Kumar","so":"Bal Keshor","Address":"Durga Badi","Phone":"9837100321","Weapon":"Revalvor"},{"Name":"Mehant Mehnder Dass","so":"Sumat Parshad","Address":"Bank Street","Phone":"0121-2650533","Weapon":"Revalvor"},{"Name":"Vivek Gord","so":"Puspeswar Goad","Address":"Sadar Chock","Phone":"0121-2662145","Weapon":"Pistal"},{"Name":"Rohit Jain","so":"Sunil Jain","Address":"Sadar Chock","Phone":"0121-2661318","Weapon":"Revalvor"},{"Name":"Rajender Verma","so":"Gajnath Verma","Address":"Bank Street","Phone":"9897302599","Weapon":"Revalvor"},{"Name":"Yalish Hasmi","so":"M.a. Hasmi","Address":"Sadar Chock","Phone":"9837004007","Weapon":"Pistal"},{"Name":"Bharat Shri Bushan","so":"Balvant Ray Sastri","Address":"Durga Badi","Phone":"9837060046","Weapon":"Revalvor"},{"Name":"Sanjay Agrawal","so":"Parkash Chand","Address":"Durga Badi","Phone":"9837080977","Weapon":"Revalvor"},{"Name":"Vikas Goel","so":"Kul Bushan Goel","Address":"Sadar Chock","Phone":"9897066698","Weapon":"Revalvor"},{"Name":"Sanjeev Kishor","so":"Kishori Nand","Address":"Bank Street","Phone":"9719493003","Weapon":"Revalvor"},{"Name":"Jitender Singh","so":"Gakveer Singh","Address":"Sadar Chock","Phone":"Nil","Weapon":"Dbbl"},{"Name":"Pankaj Garg","so":"Ravinder Garg","Address":"Dharampuri","Phone":"9358423142","Weapon":"Pistal"},{"Name":"Sanjeet Singh Salwan","so":"Manmohan Singh","Address":"Bank Street","Phone":"9837263496","Weapon":"Revalvor"},{"Name":"Naveen Kumar Jain","so":"Hardaya Narayan Singh","Address":"Sadar Chock","Phone":"9837155722","Weapon":"Revalvor"},{"Name":"Inder San Anad","so":"Bhan San Anand","Address":"Sadar Chock","Phone":"Nil","Weapon":"Dbbl"},{"Name":"Sanjeev Kumar","so":"Mohan Bhadur Saxedna","Address":"Bank Street","Phone":"9897233547","Weapon":"Revalvor"},{"Name":"Bijender Singh","so":"Terlok Chand","Address":"Bank Street","Phone":"9897980566","Weapon":"Revalvor"}],"chowkidar":[{"Name":"Nil","so":"Nil","Address":"Nil","Phone":"Nil"}],"councellor":[{"Name":"Dinesh Goel","so":"Nil","Address":"Dholki Mohalla","Phone":"8439222101"}],"historySheeter":[{"Name":"Habib","so":"Rafik","Address":"Macharan","Status":"Missing","Phone":"Nil"},{"Name":"Altaf","so":"Mayundeen","Address":"241 Sadar Bundala","Status":"Dead","Phone":"Nil"},{"Name":"Raju Verma Aka Kernal","so":"Prathvi Singh","Address":"Dharm Puri","Status":"Present","Phone":"Nil"}],"convictedCriminals":[{"Name":"Nil","so":"Nil","crimeno" :"Nil","section":"Nil","Address":"Nil"}],"crimes5Yrs":[{"Name":"Annu","so":"Niujamudin","crimeno":"259/12","Section":"392,411,ipc","Address":"Jabbu Ka Nala Gali No, 5 Ps, Nagfani, Muradabad"},{"Name":"Alam","so":"Mehandi Hasan","crimeno":"259/12","Section":"392,411,ipc","Address":"Saraya Husani Mohalla  Jabbu Ka Nala Ps Naj Fani,muradabad"},{"Name":"Rijvan","so":"Mohd Irfan","crimeno":"259/12","Section":"392,411,ipc","Address":"Dhasva Ghat Nayi Avadi Ps, Naj Fani, Muradabad"},{"Name":"Rafat","so":"Muzafer","crimeno":"259/12","Section":"392,411,ipc","Address":"Dhasva Ghat Nayi Avadi Ps, Naj Fani, Muradabad"}],"electionCrimes":[{"Name":"Nil","so":"Nil","crimeno":"Nil","Section":"Nil","Address":"Nil"}],"politician":[{"Name":"Nil","so":"Nil","Address":"Nil","Phone":"Nil"}],"boundDownUnder":"06","vulnerabilityDetails":"General","warrantedCriminals":[{"Name":"Nil","so":"Nil","Address":"Nil","Phone":"Nil"}],"condition":"Good"},{"stationID":"SB-07","stationName":"Jain Dharm Sala, Tanki Mohalla","latitude":" 28.9951","longitude":"77.6970","polingCenterPhoto":"../img/mediPanchayat.png","routes":"../img/3.png","collectionPoint":"../img/3.png","population":"Nil","voters":"2008","villageMohalla":"Tanki Mohalla, Arvind Purima, Chali Bazar, Ranjeet Puri, Durga Badi","path":"#/menu/tab/medicalDetails","respectedPpl":[{"Name":"Lokesh Goek","so":"C.l. Goel","Address":"Super Kerana Stor","Phone":"97458752832"},{"Name":"Rarajeev Jain","so":"Sushil Jain","Address":"Ranjeet Puri","Phone":"9837231255"},{"Name":"Deepak Rastogi","so":"Rajuveer Saran","Address":"Dharmsala Ka Pass","Phone":"9837117910"},{"Name":"Surander Agrawal","so":"Madan Mohan","Address":"Tanki Mohalla","Phone":"9358403933"},{"Name":"Rajesh God","so":"Sagar Daat God","Address":"Ranjeet Puri","Phone":"9897727030"}],"retiredGovtSer":[{"Name":"Nil","so":"Nil","Address":"Nil","Phone":"Nil"}],"neighbourPolling":[{"Name":"Sabnjay Jain","so":"Mahavirjain","Address":"Tanki Mohalla","Phone":"9411262459"},{"Name":"Vimla Devi","so":"Madhal Lal","Address":"Tanki Mohalla","Phone":"9758606538"},{"Name":"Rajender Kumar","so":"Hardyal Jain","Address":"Tanki Mohalla","Phone":"0121-2664217"},{"Name":"Muninder Jain","so":"Dharminder Jain","Address":"Tanki Mohalla","Phone":"9219742563"}],"armsLicenseHolder":[{"Name":"Dharam Pall","so":"Sheer Shingh","Address":"Ranjeet Puri","Phone":"9837011975","Weapon":"Dbbl"},{"Name":"Rajeev Goel","so":"Sushul Chand","Address":"Ranjeet Puri","Phone":"9837231255","Weapon":"Dbbl"},{"Name":"P.s. Sholanki","so":"Gyan Shingh","Address":"Ranjeet Puri","Phone":"9837282941","Weapon":"Sbml"},{"Name":"Kumar Pal Singh","so":"Sheer Shingh","Address":"Ranjeet Puri","Phone":"9412709090","Weapon":"Pistal"},{"Name":"Pankaj Singh","so":"P.P. Singh","Address":"Ranjeet Puri","Phone":"9719676767","Weapon":"Dbbl,Rifal,Pistal"},{"Name":"Anil Kansal","so":"Sunder Lal Kanshal","Address":"Ranjeet Puri","Phone":"Nil","Weapon":"Revelvor"},{"Name":"Subhas Chand","so":"Bharat Bushan","Address":"Arvind Puri","Phone":"9837044479","Weapon":"Revelvor"},{"Name":"Punit Jain","so":"Jitander Jain","Address":"Arvind Puri","Phone":"0121-2661934","Weapon":"Revelvor"},{"Name":"Rajinder Jain","so":"Kalash Chand","Address":"Tanki Mohalla","Phone":"9837024778","Weapon":"Revelvor"},{"Name":"Pratimas Devi","so":"Anuj Chorishya","Address":"Tanki Mohalla","Phone":"9837265307","Weapon":"Dbbl"},{"Name":"Rishi Pall Singh","so":"Sheer Shingh","Address":"Ranjeet Puri","Phone":"9837607647","Weapon":"Rifal"},{"Name":"Ram Tiwari","so":"Shiv Kumar","Address":"Ranjeet Puri","Phone":"9917230667","Weapon":"Revelvor"},{"Name":"Sumit Bakshi","so":"Baljeet Singh","Address":"Arvind Puri","Phone":"9837356238","Weapon":"Pistal"},{"Name":"Makyank Kumar","so":"Atul Kumar","Address":"Ranjeet Puri","Phone":"9837894224","Weapon":"Revelvor"},{"Name":"Sumit Kumar Bansal","so":"Om Parkash Bansal","Address":"Arvind Puri","Phone":"9358407616","Weapon":"Revelvor"},{"Name":"Varan Deep","so":"Bal Dev Singh","Address":"Tanki Mohalla","Phone":"9837291208","Weapon":"Revelvor"},{"Name":"Vivek Valin","so":"Arjun Valia","Address":"Tanki Mohalla","Phone":"9258770508","Weapon":"Pistal"},{"Name":"Gajmohan Sakar","so":"Balvant Singh","Address":"Arvind Puri","Phone":"9412702212","Weapon":"Revelvor"},{"Name":"Arpit Gupta","so":"Ashok Kumar Gupta","Address":"Arvind Puri","Phone":"9237688039","Weapon":"Revelvor"},{"Name":"Sourav Goel","so":"Satish Chand Goel","Address":"Ranjeet Puri","Phone":"9897024031","Weapon":"Revelvor"},{"Name":"Sanjay Valiya","so":"Preetam Singh","Address":"Ranjeet Puri","Phone":"96756030303","Weapon":"Revelvor"}],"chowkidar":[{"Name":"Nil","so":"Nil","Address":"Nil","Phone":"Nil"}],"councellor":[{"Name":"Dinesh Goel","so":"Nil","Address":"Dholki Mohalla","Phone":"8439222101"}],"historySheeter":[{"Name":"Nil","so":"Nil","Address":"Nil","Status":"Nil","Phone":"Nil"}],"convictedCriminals":[{"Name":"Nil","so":"Nil","crimeno" :"Nil","section":"Nil","Address":"Nil"}],"crimes5Yrs":[{"Name":"Nil","so":"Nil","crimeno":"Nil","Section":"Nil","Address":"Nil"}],"electionCrimes":[{"Name":"Nil","so":"Nil","crimeno":"Nil","Section":"Nil","Address":"Nil"}],"politician":[{"Name":"Nil","so":"Nil","Address":"Nil","Phone":"Nil"}],"boundDownUnder":"07","vulnerabilityDetails":"General","warrantedCriminals":[{"Name":"Nil","so":"Nil","Address":"Nil","Phone":"Nil"}],"condition":"Good"},{"stationID":"SB-08","stationName":"Cantument Board Office Near Rajban Bazar","latitude":"29.0013","longitude":"77.6991","polingCenterPhoto":"../img/mediPanchayat.png","routes":"../img/3.png","collectionPoint":"../img/3.png","population":"Nil","voters":"5148","villageMohalla":"Jugli Gang, Tandal Mohall, Arajban Chota Bazaar Rajban, Bada Bazar","path":"#/menu/tab/medicalDetails","respectedPpl":[{"Name":"Ajmal Khan","so":"Rahamad Khan","Address":"Kariappa Street","Phone":"9557300006"},{"Name":"Nanu","so":"Kasturi Lal Sharma","Address":"Kariappa Street","Phone":"9997100375"},{"Name":"Mohd. Illas","so":"Babu Mistri","Address":"Khana Ki Khothi","Phone":"7895670786"},{"Name":"Mohd.irshad","so":"Mohd. Illas","Address":"Khana Ki Khothi","Phone":"9997770996"},{"Name":"Haseen","so":"Rashid","Address":"Rajban Chota Bazar","Phone":"9837803786"}],"retiredGovtSer":[{"Name":"Hari Kishan","so":"Nil","Address":"Rajban Chota Bazar","Phone":"Nil"},{"Name":"Rajender Kumar","so":"Nil","Address":"Shivaji Colony","Phone":"Nil"},{"Name":"Jwala Parshad","so":"Shri Ram Narayan","Address":"Rajban Chota Bazar","Phone":"9759628181"},{"Name":"Naresh Kumar Singh","so":"Durga Parshad","Address":"Rajban Chota Bazar","Phone":"Nil"}],"neighbourPolling":[{"Name":"Jwala Parshad","so":"Ram Narayan","Address":"Rajban Chota Bazar","Phone":"9759628181"},{"Name":"Kishan Lal","so":"Chunni Lala","Address":"Rajban Chota Bazar","Phone":"9761676884"},{"Name":"Israr","so":"Samim Ahamad","Address":"Rajban Chota Bazar","Phone":"9720271300"},{"Name":"Sanjay","so":"Moti Lal","Address":"Rajban Chota Bazar","Phone":"9760700647"}],"armsLicenseHolder":[{"Name":"Gyanchand","so":"Durga Parshad","Address":"Rajban Bazar","Phone":"9012033224","Weapon":"Pistal/dbbl"},{"Name":"Ravinder Kumar","so":"Chaman Lal","Address":"Rajban Bazar","Phone":"Nil","Weapon":"Dbbl"},{"Name":"Prem Parkesh Gupta","so":"Chaman Lal","Address":"Kreappa Street","Phone":"Nil","Weapon":"Dbbl"},{"Name":"Yogesh Chan Jain","so":"Mahaveer Parshad","Address":"Chapal Street","Phone":"Nil","Weapon":"Pistal"},{"Name":"Gurmit Singh Gujral","so":"Kulvant Singh","Address":"Mal Road","Phone":"0121-2651123","Weapon":"Dbbl"},{"Name":"Jubeer Khan","so":"Safgi Khan","Address":"Chapal Street","Phone":"9897090144","Weapon":"Rifal"},{"Name":"Satpal Singh","so":"Tula Ram","Address":"Army Head Quarter","Phone":"Nil","Weapon":"Dbbl"},{"Name":"Ravi Kadiyal","so":"Raran Kadiyal","Address":"Circular Road","Phone":"9837378910","Weapon":"Pistal/dbbl"},{"Name":"Randeer Singh","so":"Petamber Singh","Address":"Rajban Bada Bazar","Phone":"9358917045","Weapon":"Rifal"},{"Name":"Sudheer Kumar","so":"Munna Lal Bansal","Address":"Circular Road","Phone":"Nil","Weapon":"Pistal"},{"Name":"Yespal Singh","so":"Petamber Singh","Address":"Rajban Bada Bazar","Phone":"9358917045","Weapon":"Pistal"},{"Name":"Rakesh Singh","so":"Durga Parshad","Address":"Rajban Bada Bazar","Phone":"8449512343","Weapon":"Revalvor"},{"Name":"Asrudeen","so":"Noor Mohambad","Address":"Army Work Shop","Phone":"Nil","Weapon":"Dbbl"}],"chowkidar":[{"Name":"Nil","so":"Nil","Address":"Nil","Phone":"Nil"}],"councellor":[{"Name":"Dharminder Sonker","so":"Omparkesh Sonkar","Address":"Rajban Chota Bazar","Phone":"9837539799"}],"historySheeter":[{"Name":"Mehas","so":"Omparkas","Address":"Tendal Mohalla","Status":"Present","Phone":"Nil"},{"Name":"Vikas","so":"Sohan Lal","Address":"Tendal Mohalla","Status":"Missing","Phone":"Nil"},{"Name":"Hariya Aka Harish Chand","so":"Nathu Gaderya","Address":"Jugliu Gang","Status":"Present","Phone":"Nil"},{"Name":"Irshad Aka Boby","so":"Abdul Hapiz","Address":"Rahban Chota Bazar","Status":"Present","Phone":"Nil"},{"Name":"Jitender","so":"Kallu","Address":"Tendal Mohalla","Status":"Dead","Phone":"Nil"},{"Name":"Rahul","so":"Mehanderpal","Address":"Hill Street","Status":"Missing","Phone":"Nil"},{"Name":"Tushar Yadav","so":"Rajkumar","Address":"Tendal Mohalla","Status":"Missing","Phone":"Nil"},{"Name":"Deepak Verma","so":"Basant Lal","Address":"Rajban Chota Bazar","Status":"Present","Phone":"Nil"},{"Name":"Nitin","so":"Aja Aka Don","Address":"Rajban Chota Bazar","Status":"Present","Phone":"Nil"},{"Name":"Deepak Parcha","so":"Vijay","Address":"Tendal Mohalla","Status":"Missing","Phone":"Nil"},{"Name":"Nanna","so":"Ajeej","Address":"Jugliu Gang","Status":"Missing","Phone":"Nil"},{"Name":"Narayan Dass","so":"Babulal","Address":"Tendal Mohalla","Status":"Dead","Phone":"Nil"},{"Name":"Amar Gupta","so":"Santosh Gupta","Address":"Rajban Chota Bazar","Status":"Present","Phone":"Nil"}],"convictedCriminals":[{"Name":"Nil","so":"Nil","crimeno" :"Nil","section":"Nil","Address":"Nil"}],"crimes5Yrs":[{"Name":"Mohd Asif","so":"Mohd Sikander","crimeno":"252/13","Section":"392,411,ipc","Address":"Gali No 2 Shaym Nagar Bihapl Ki Khoti Ka Pass , Ps Lisadi Gate Mrt"},{"Name":"Amjad","so":"Mansoor","crimeno":"252/13","Section":"392,411,ipc","Address":"Gali No 4 Hotal Wali Gali Shyam Nagar Ps Lisadi Gate Mrt"},{"Name":"Parvaj","so":"Ayub","crimeno":"366/13","Section":"392,411,ipc","Address":"Naval Ps Mansoor Pur Muzafar Nagar"},{"Name":"Sockat Aka Moni","so":"Musthkin","crimeno":"366/13","Section":"392,411,ipc","Address":"Shyam Nagar Ps Khotali Muzafanagar"},{"Name":"Raja","so":"Harish Chand","crimeno":"595/14","Section":"302,ipc","Address":"Chota Raj Ban Bazar"},{"Name":"Jeetu","so":"Harish Chand","crimeno":"595/14","Section":"302,ipc","Address":"Chota Raj Ban Bazar"}],"electionCrimes":[{"Name":"Nil","so":"Nil","crimeno":"Nil","Section":"Nil","Address":"Nil"}],"politician":[{"Name":"Nil","so":"Nil","Address":"Nil","Phone":"Nil"}],"boundDownUnder":"12","vulnerabilityDetails":"General","warrantedCriminals":[{"Name":"Nil","so":"Nil","Address":"Nil","Phone":"Nil"}],"condition":"Good"},{"stationID":"SB-09","stationName":"St. Jons Sce. Secondary School Mohit Path","latitude":"29.0014","longitude":"77.7019","polingCenterPhoto":"../img/mediPanchayat.png","routes":"../img/3.png","collectionPoint":"../img/3.png","population":"Nil","voters":"2968","villageMohalla":"Kriganghars, Purijugli,  Gang, Bcline, Bangla Area  Cannt","path":"#/menu/tab/medicalDetails","respectedPpl":[{"Name":"Asjaf Muza","so":"Mohd. Mussa","Address":"Rang Wali Khoti","Phone":"7409101786"},{"Name":"Asked Mussa","so":"Mohd. Mussa","Address":"Rang Wali Khoti","Phone":"9719913786"},{"Name":"Sarad Chander","so":"Chander Shaker","Address":"Chapel Street","Phone":"9758668833"},{"Name":"H.m. Illas","so":"Nil","Address":"Nil","Phone":"9411891786"},{"Name":"Abdul Harun","so":"Nil","Address":"116 Bank Street","Phone":"9639183216"}],"retiredGovtSer":[{"Name":"Nil","so":"Nil","Address":"Nil","Phone":"Nil"}],"neighbourPolling":[{"Name":"Jwala Parshad","so":"Ram Narayan","Address":"Rajban Chota Bazar","Phone":"9759628181"},{"Name":"Kishan Lal","so":"Chunni Lala","Address":"Rajban Chota Bazar","Phone":"9761676884"},{"Name":"Israr","so":"Samim Ahamad","Address":"Rajban Chota Bazar","Phone":"9720271300"},{"Name":"Sanjay","so":"Moti Lal","Address":"Rajban Chota Bazar","Phone":"9760700647"}],"armsLicenseHolder":[{"Name":"Subadar Durg Vijay Singh","so":"Maharaj Singh","Address":"Kriya Gang","Phone":"9358295873","Weapon":"Rifal"},{"Name":"Kamelsh Kumar Agrawal","so":"S.s. Agrawal","Address":"B.c. Line","Phone":"9412297509","Weapon":"Dbbl"},{"Name":"Ramesh Chand Sharma","so":"Ramoavtar Sharma","Address":"Gubli Gang","Phone":"Nil","Weapon":"Rifal"},{"Name":"Ashok Kumar Agrawal","so":"Kernal Maha Veer Singh","Address":"B.c. Line","Phone":"9412705052","Weapon":"Dbbl/pista"},{"Name":"Pawan Kumar","so":"Gajdesh Parshad","Address":"B.c. Line","Phone":"9412207115","Weapon":"Dbbl"},{"Name":"Ham Chand","so":"Durga Parshad","Address":"B.c. Line","Phone":"0121-2640255","Weapon":"Revalver"},{"Name":"Vijay Pall Singh","so":"Ram Chander Yadav","Address":"B.c. Line","Phone":"9837064923","Weapon":"Pistal"},{"Name":"Sudheer Rastogi","so":"Jayenti Parshad","Address":"Kriya Gang","Phone":"9719016892","Weapon":"Dbbl"},{"Name":"Janar Dhan Gupta","so":"Damoder Savroop Gupta","Address":"81, Rudki Road","Phone":"9358906161","Weapon":"Dbbl"},{"Name":"Keval Krishan Sharma","so":"Lala Mal Sharma","Address":"Jubli Gang","Phone":"9917000052","Weapon":"Rifal"},{"Name":"Ajay Kumar Sehorayo","so":"Braj Raj Singh","Address":"B.c. Line","Phone":"9456230997","Weapon":"Revalver"},{"Name":"Ashok Singh","so":"Durga Parshad","Address":"Kriya Gang","Phone":"9411028333","Weapon":"Dbbl"},{"Name":"Parveen Asad","so":"Dharm Singh","Address":"B.c. Line","Phone":"9412201912","Weapon":"Revalver"},{"Name":"Gulsan","so":"Balram Tandan","Address":"Jubli Gang","Phone":"9412707175","Weapon":"Revalver"},{"Name":"Guru Nara Singh","so":"Sant Singh","Address":"Shivagi Colony","Phone":"9888481208","Weapon":"Rifal"}],"chowkidar":[{"Name":"Nil","so":"Nil","Address":"Nil","Phone":"Nil"}],"councellor":[{"Name":"Dharminder Sonker","so":"Omparkesh Sonkar","Address":"Rajban Chota Bazar","Phone":"9837539799"}],"historySheeter":[{"Name":"mangal","so":"thakur das","Address":"kriya gang","Status":"Dead","Phone":"Nil"}],"convictedCriminals":[{"Name":"Nil","so":"Nil","crimeno" :"Nil","section":"Nil","Address":"Nil"}],"crimes5Yrs":[{"Name":"Jahair Faruki","so":"Washir Ahamad","crimeno":"235/12.","Section":"302,ipc","Address":"Nil"},{"Name":"Irshad Ahamad","so":"Jahar Hasan","crimeno":"235/12.","Section":"302,ipc","Address":"Nil"},{"Name":"Aszar","so":"Maganta","crimeno":"235/12.","Section":"302,ipc","Address":"Nil"},{"Name":"Ashjeem","so":"Marthja","crimeno":"235/12.","Section":"302,ipc","Address":"Gard Kasva & Ps. Pur Kagi , Muzafar Nagar"},{"Name":"Shazad","so":"Noor Hasan","crimeno":"235/12.","Section":"302,ipc","Address":"Jatan Kasva Ps. Poor Kagi,muzafar Nagar"},{"Name":"Annu","so":"Nijamudin","crimeno":"14/12.","Section":"392,411,ipc","Address":"Jhbbu Ka Nala Gali No. 5 Ps. Nag Fani Muradabad"},{"Name":"Rajban","so":"Mohd. Irfan","crimeno":"14/12.","Section":"392,411,ipc","Address":"Dhasva Ghat Naye Avadi Ps. Nagfani, Muradabad"},{"Name":"Rafat","so":"Muj Far","crimeno":"14/12.","Section":"392,411,ipc","Address":"Dhasva Ghat Naye Avadi Ps. Nagfani, Muradabad"},{"Name":"Mohit Aka Monu","so":"Shyam Veer Singh","crimeno":"444/12.","Section":"392,504,395,412,ipc","Address":"Salpur Ps. Tappal, Aligarh"},{"Name":"Rahul Kumar Singh","so":"Naterpal Singh","crimeno":"444/12.","Section":"392,504,395,412,ipc","Address":"Kirra Ps. Kurja,bsr."},{"Name":"Vikas Verma","so":"Jai Singh Verma","crimeno":"444/12.","Section":"392,504,395,412,ipc","Address":"197h Block Sastri Nagar Ps. Kavi Nagar, Gazyabad"},{"Name":"Akash","so":"Om Veer","crimeno":"298/15.","Section":"392,411,ipc","Address":"Khadi Ps. Dorala Mrt."},{"Name":"Jaybad","so":"Hamir","crimeno":"298/15.","Section":"392,411,ipc","Address":"Garm Lala, Mehamud Nagar Ps. Kkr."}],"electionCrimes":[{"Name":"Nil","so":"Nil","crimeno":"Nil","Section":"Nil","Address":"Nil"}],"politician":[{"Name":"Nil","so":"Nil","Address":"Nil","Phone":"Nil"}],"boundDownUnder":"10","vulnerabilityDetails":"General","warrantedCriminals":[{"Name":"Nil","so":"Nil","Address":"Nil","Phone":"Nil"}],"condition":"Good"},{"stationID":"SB-10","stationName":"Jagdish Sharan Rajvanshi Inter College Sotiganj","latitude":"28.9925","longitude":"77.7057","polingCenterPhoto":"../img/mediPanchayat.png","routes":"../img/3.png","collectionPoint":"../img/3.png","population":"Nil","voters":"3375","villageMohalla":"Davshni, Shoti Gangutri,Soti Gang, Lajpat, Ray Market","path":"#/menu/tab/medicalDetails","respectedPpl":[{"Name":"ranjeet singh","so":"manohar singh","Address":"new market soti gang","Phone":"9897013134"},{"Name":"jasveer singh","so":"manohar singh","Address":"new market soti gang","Phone":"Nil"},{"Name":"sidhart","so":"kishor kumar","Address":"711 sotogang","Phone":"Nil"},{"Name":"sunder singh","so":"kallu ram","Address":"new market sotigang","Phone":"9927208787"}],"retiredGovtSer":[{"Name":"Nil","so":"Nil","Address":"Nil","Phone":"Nil"}],"neighbourPolling":[{"Name":"Kulvinder Singh","so":"Shardar Singh","Address":"Sotig Gang","Phone":"9319857636"},{"Name":"Meash","so":"Dayanand","Address":"Sotig Gang","Phone":"8755501513"},{"Name":"Punit Kumar","so":"Parkash Chand Rastogi","Address":"Sotig Gang","Phone":"9556702216"},{"Name":"Haji Chand Mohd.","so":"Neemu Deen","Address":"Sotig Gang","Phone":"9358405979"},{"Name":"Musthakin","so":"Saleem","Address":"Sotig Gang","Phone":"9358808499"}],"armsLicenseHolder":[{"Name":"Satyageet Dhingera","so":"L.p. Dhengar","Address":"Soti Ganj","Phone":"8171072305","Weapon":"SBBL"},{"Name":"Monaher Singh","so":"Sardar Shadu Singh","Address":"Soti Ganj","Phone":"Nil","Weapon":"SBBL"},{"Name":"Vijay Pall Singh","so":"Makhan Singh","Address":"Soti Ganj","Phone":"Nil","Weapon":"PISTAL"},{"Name":"Ajeet Bal Dikshit","so":"Satish Bal Dikasit","Address":"Soti Ganj","Phone":"9837400666","Weapon":"DBBL"},{"Name":"Ashok Kumar","so":"Chand Kishor","Address":"Soti Ganj","Phone":"Nil","Weapon":"REVOLVER"},{"Name":"L.d. Missera","so":"V.s. Missera","Address":"Soti Ganj","Phone":"Nil","Weapon":"RIFAL"},{"Name":"Caption Charam Pal Singh","so":"Basant Singh Sarrin","Address":"Soti Ganj","Phone":"Nil","Weapon":"DBBL"},{"Name":"Anil Kumar Doga","so":"Santa Ram","Address":"Soti Ganj","Phone":"9319575474","Weapon":"PISTAL"},{"Name":"Rajinder Pal Sagal","so":"Jeevan Das","Address":"Soti Ganj","Phone":"9837000092","Weapon":"PISTAL"},{"Name":"Mohd. Javad","so":"Jan Mohd.","Address":"Soti Ganj","Phone":"9837343434","Weapon":"DBBL"},{"Name":"Jay Chand","so":"Bhadur Chand","Address":"Soti Ganj","Phone":"9412206009","Weapon":"DBBL/PISTAL"},{"Name":"Dharm Pal Singh","so":"Har Singh","Address":"Soti Ganj","Phone":"0121-2645164","Weapon":"RIFAL"},{"Name":"Ram Gopal","so":"Bhajwan Singh","Address":"Thapa Nagar","Phone":"9358431901","Weapon":"REVOLVER"},{"Name":"Rajnikhant Anuya","so":"D.r. A.m. Anoya","Address":"Soti Ganj","Phone":"Nil","Weapon":"PISTAL"},{"Name":"Gajender Bal Dikshit","so":"Gajdish Saran Dikshit","Address":"Soti Ganj","Phone":"Nil","Weapon":"RIFAL"},{"Name":"Rajender Kumar Dil Muck","so":"Sami L Dil Muk","Address":"Mission Compound","Phone":"0121-25540259","Weapon":"DBBL"},{"Name":"Partap Singh","so":"Sardul Singh","Address":"Soti Ganj","Phone":"Nil","Weapon":"DBBL/REVOLVER"},{"Name":"Ramesh Chand Gupta","so":"Mana Ram Gupta","Address":"Soti Ganj","Phone":"Nil","Weapon":"DBBL"},{"Name":"Santosh Kumar","so":"Gajdish Saran Gupta","Address":"Soti Ganj","Phone":"9893386845","Weapon":"DBBL"},{"Name":"Ramesh Kumar Kala","so":"J. M Kala","Address":"Soti Ganj","Phone":"0121-2661202","Weapon":"REVOLVER"},{"Name":"Jasveer Singh Khalsa","so":"Sardar Manohar Singh","Address":"Soti Ganj","Phone":"Nil","Weapon":"RIFAL"},{"Name":"Sunil Kumar","so":"Pransnath Duya","Address":"Soti Ganj","Phone":"9837217005","Weapon":"DBBL"},{"Name":"Guru Charan Singh","so":"Harvansingh","Address":"Soti Ganj","Phone":"9837094453","Weapon":"PISTAL"},{"Name":"Ranjeet Singh","so":"Mahohar Singh","Address":"Soti Ganj","Phone":"9897013134","Weapon":"RIFAL"},{"Name":"Jan Mohd.","so":"Mohd. Umar","Address":"Soti Ganj","Phone":"9412709132","Weapon":"REVOLVER"},{"Name":"Mohd. Asif","so":"Mohd. Yahhin","Address":"Soti Ganj","Phone":"Nil","Weapon":"REVOLVER"},{"Name":"Hanif Mohd, Khan","so":"Mohd. Khan","Address":"Soti Ganj","Phone":"9412709132","Weapon":"PISTAL"},{"Name":"Haji Mohd, Akram","so":"Nataj Khan","Address":"Soti Ganj","Phone":"9837046085","Weapon":"REVOLVER"},{"Name":"Prti Pal Singh","so":"Deelap Singh","Address":"Soti Ganj","Phone":"9412204707","Weapon":"REVOLVER"},{"Name":"Naseem Khan","so":"Mahamud Ali","Address":"Soti Ganj","Phone":"9319251331","Weapon":"REVOLVER"},{"Name":"Mohd, Sagar","so":"Haji Mustaq","Address":"Soti Ganj","Phone":"9897241920","Weapon":"PISTAL"},{"Name":"Vijat Choudhary","so":"Gajdish Singh","Address":"Soti Ganj","Phone":"9412705773","Weapon":"PISTAL"},{"Name":"Mohd. Hillal","so":"Islamidin","Address":"Soti Ganj","Phone":"9897331011","Weapon":"RIFAL"},{"Name":"Afjal Ahamad","so":"Ikbal","Address":"Soti Ganj","Phone":"9897067993","Weapon":"PISTAL"},{"Name":"Naseem Khan","so":"Mahumad Ali","Address":"Soti Ganj","Phone":"9319251331","Weapon":"REVOLVER"},{"Name":"Om Parkash Fanthuli","so":"Dhafrm Aland Fnthuli","Address":"Soti Ganj","Phone":"9997225885","Weapon":"REVOLVER"},{"Name":"Rajender Singh Kakar","so":"Omkar Singh","Address":"Soti Ganj","Phone":"9411986987","Weapon":"REVOLVER"},{"Name":"Tahir","so":"Nasurideen","Address":"Soti Ganj","Phone":"9412204313","Weapon":"PISTAL"},{"Name":"Kujinder Pal","so":"Sukver Singh","Address":"Soti Ganj","Phone":"9897601313","Weapon":"DBBL"},{"Name":"Smt. Anju","so":"D.r. Bal Kishan","Address":"Soti Ganj","Phone":"9412707891","Weapon":"REVOLVER"},{"Name":"Ravinder Singh","so":"Amreek Singh","Address":"Soti Ganj","Phone":"9927286190","Weapon":"REVOLVER"},{"Name":"Mohd. Avid Khan","so":"Haji Jan Mohd.","Address":"Soti Ganj","Phone":"9412285088","Weapon":"RIFAL"},{"Name":"Imran","so":"Mohd, Jamal","Address":"Soti Ganj","Phone":"9837052786","Weapon":"REVOLVER"},{"Name":"Sahadat","so":"Kamurudin","Address":"Soti Ganj","Phone":"9837128935","Weapon":"PISTOL"},{"Name":"Naresh Choudhary","so":"Vadpal Singh","Address":"Soti Ganj","Phone":"9412202324","Weapon":"DBBL"},{"Name":"Surander Singh Kakar","so":"Rajender Singh","Address":"Soti Ganj","Phone":"9897818585","Weapon":"DBBL"},{"Name":"Nan Kishor Sharma","so":"Mohanlal Sharma","Address":"Soti Ganj","Phone":"Nil","Weapon":"REVOLVER"},{"Name":"Sandeep Rastogi","so":"Suraesh Chand Rastogi","Address":"Soti Ganj","Phone":"Nil","Weapon":"PISTAL"},{"Name":"Suman Kunmar Daga","so":"Santaram Daga","Address":"Soti Ganj","Phone":"9927255050","Weapon":"PISTAL"},{"Name":"Pravinder Singh","so":"Anrik Singh","Address":"Soti Ganj","Phone":"Nil","Weapon":"DBBL/PISTAL"},{"Name":"Amrik Singh","so":"Avtar Singh","Address":"Soti Ganj","Phone":"9219532871","Weapon":"DBBL"},{"Name":"Tavnit Singh","so":"Raguveer Singh","Address":"Soti Ganj","Phone":"Nil","Weapon":"REVOLVER"},{"Name":"Hagi Bullan","so":"Mohd. Umar","Address":"Soti Ganj","Phone":"9897142300","Weapon":"PISTOL"},{"Name":"As Mohd.","so":"Rafik","Address":"Soti Ganj","Phone":"9219526222","Weapon":"PISTOL"},{"Name":"Avnit Singh","so":"Surjeet Singh","Address":"Soti Ganj","Phone":"9897066666","Weapon":"PISTOL"},{"Name":"Kavnit Singh","so":"Rajuveer Singh","Address":"Soti Ganj","Phone":"9690090096","Weapon":"PISTOL"},{"Name":"Mohd. Nadin Khan","so":"Hagi Nasim","Address":"Soti Ganj","Phone":"9897056007","Weapon":"REVOLVER"},{"Name":"Neerj Tomar","so":"Vad Pal Singh","Address":"Soti Ganj","Phone":"9412662602","Weapon":"DBBL"},{"Name":"Imran","so":"Hagi Mustuq","Address":"Soti Ganj","Phone":"9897451530","Weapon":"REVOLVER"},{"Name":"Dheerj Kala","so":"R.k . Kala","Address":"Soti Ganj","Phone":"9358439593","Weapon":"PISTOL"},{"Name":"Suras Chand Rastogi","so":"Nayadar Mal Rastogi","Address":"Kirshnapuri","Phone":"9927044007","Weapon":"DBBL"},{"Name":"Kulvinder Singh","so":"Pratap Singh","Address":"Soti Ganj","Phone":"9997744840","Weapon":"PISTOL"},{"Name":"Maninder Singh","so":"Pratap Singh","Address":"Soti Ganj","Phone":"9350078505","Weapon":"PISTOL"},{"Name":"Sachin Gupta","so":"Ram Kumar Gupta","Address":"Soti Ganj","Phone":"9359171717","Weapon":"REVOLVER"},{"Name":"Ravi Singal","so":"Om Parkas Singhal","Address":"Khuni Pul","Phone":"9837125543","Weapon":"REVOLVER"},{"Name":"Chander Choudhary","so":"Inder Nath Choudhary","Address":"Khuni Pul","Phone":"Nil","Weapon":"REVOLVER"}],"chowkidar":[{"Name":"Nil","so":"Nil","Address":"Nil","Phone":"Nil"}],"councellor":[{"Name":"Dharminder Sonker","so":"Omparkesh Sonkar","Address":"Rajban Chota Bazar","Phone":"9837539799"}],"historySheeter":[{"Name":"Ajeeg","so":"Rajaak","Address":"Soti Gang","Status":"Present","Phone":"Nil"},{"Name":"Haji Nayem Aka Gulla","so":"Nijam","Address":"Soti Gang","Status":"Present","Phone":"Nil"},{"Name":"Kamran","so":"Afsar","Address":"Soti Gang","Status":"Missing","Phone":"Nil"},{"Name":"Islamudeen Aka Kutaa","so":"Mohd. Umar","Address":"Soti Gang","Status":"Present","Phone":"Nil"},{"Name":"Yunes","so":"Samman","Address":"Soti Gang","Status":"Present","Phone":"Nil"},{"Name":"Prem","so":"Rajender Singh","Address":"Anber Takage Soti Gang","Status":"Missing","Phone":"Nil"},{"Name":"Haji Kallo Aka Sarfaroj","so":"Neejam","Address":"Soti Gang","Status":"Present","Phone":"Nil"},{"Name":"Ikram","so":"Mohd. Umar","Address":"Soti Gang","Status":"Present","Phone":"Nil"}],"convictedCriminals":[{"Name":"Nil","so":"Nil","crimeno" :"Nil","section":"Nil","Address":"Nil"}],"crimes5Yrs":[{"Name":"Chand","so":"Kamalidin","crimeno":"638/14","Section":"356,392,411,ipc","Address":"185, Hadiya Mohalla Tal Wali Masjid K Pass Lal Kurti ,mrt."},{"Name":"Shaid","so":"Ismile","crimeno":"638/14","Section":"356,392,411,ipc","Address":"Hariya Lashai Ka Pas Mahan No. 414, Bakari Mohalla Ps. Lalkurti Mrt."},{"Name":"Yamin","so":"Kallu Khan","crimeno":"125/15","Section":"392,411,ipc","Address":"151,ucha Shadeek Nagar Ps, Lisadi Gate Mrt."},{"Name":"As Mohd.","so":"Babu Khan","crimeno":"125/15","Section":"392,411,ipc","Address":"344/2 New Shadik Nagar Ps. Lisadi Gate Mrt."},{"Name":"Javid","so":"Ahamad Hamid","crimeno":"427/15","Section":"392,411,ipc","Address":"Mahumad Nagar Ps. Kkr."},{"Name":"Danish Mulla","so":"Ikharid","crimeno":"427/15","Section":"392,411,ipc","Address":"I.b. ,884, Sector 3, Madavpuram , Ps. Brahampuri Meerut"}],"electionCrimes":[{"Name":"Nil","so":"Nil","crimeno":"Nil","Section":"Nil","Address":"Nil"}],"politician":[{"Name":"Nil","so":"Nil","Address":"Nil","Phone":"Nil"}],"boundDownUnder":"10","vulnerabilityDetails":"General","warrantedCriminals":[{"Name":"Nil","so":"Nil","Address":"Nil","Phone":"Nil"}],"condition":"Good"},{"stationID":"SB-11","stationName":"Swami Vivakanand Prathmik Vidhayala Thapa Nagar","latitude":"28.9890","longitude":"77.7051","polingCenterPhoto":"../img/mediPanchayat.png","routes":"../img/3.png","collectionPoint":"../img/3.png","population":"Nil","voters":"1035","villageMohalla":"Dev Nager, Mission Compound","path":"#/menu/tab/medicalDetails","respectedPpl":[{"Name":"D.r. Anil Arora","so":"Nil","Address":"Gurdwara Road Thapa Nager","Phone":"Nil"},{"Name":"Rohit Choudhary","so":"Neeraj Choudhary","Address":"Mission Compound Dev Nager","Phone":"Nil"},{"Name":"Sardar Man Singh","so":"Darshan Singh","Address":"Gali.no. 2 Thapa Nager","Phone":"Nil"},{"Name":"Parkash Shani","so":"Yogdhan Shani","Address":"114/2 Thapa Nager","Phone":"Nil"},{"Name":"Kulvinder Singh","so":"Fakir Chand","Address":"117a/2 Thapar Nager","Phone":"9837344060"}],"retiredGovtSer":[{"Name":"Nil","so":"Nil","Address":"Nil","Phone":"Nil"}],"neighbourPolling":[{"Name":"Sanjay Wig","so":"Manohar Lal","Address":"Mission Compound","Phone":"9058055988"},{"Name":"Parkshid Bhatiya","so":"Ganpat Ram Bhatya","Address":"Mission Compound","Phone":"Nil"},{"Name":"Harjeet Singh","so":"Sukbant Singh","Address":"Gurdwara Road","Phone":"9897907917"},{"Name":"Vinay Sharma","so":"Somdat Sharma","Address":"1816, Soham Niwas","Phone":"9359934508"},{"Name":"Amool Vivyas","so":"Prayag Narayan","Address":"Gurdwara Road","Phone":"9837010221"}],"armsLicenseHolder":[{"Name":"Raj Kumar","so":"Nil","Address":"Mission Compound","Phone":"9358417096","Weapon":"Sbbl"},{"Name":"Arayander Kumar Sharma","so":"Upender Parkas Sharma","Address":"Dev Nagar","Phone":"9927019634","Weapon":"Sbbl"},{"Name":"Har Mal Jaon","so":"H.job","Address":"Dev Nagar","Phone":"0121-524776","Weapon":"Dbbl"},{"Name":"Prem Parkas","so":"Malik Lakhmidas","Address":"Mission Compound","Phone":"Nil","Weapon":"Pistal"},{"Name":"Mehander Singh","so":"Mithan Singh","Address":"Dev Nagar","Phone":"0121-2525466","Weapon":"Dbbl"},{"Name":"Arun Adward","so":"Major D.r. Adword","Address":"Mission Compound","Phone":"9837007821","Weapon":"Revalvor"},{"Name":"Shakti Parkas","so":"Maya Parkash","Address":"Mission Compound","Phone":"1212422753","Weapon":"Dbbl"},{"Name":"Ram Parkas Mittal","so":"Hari Shanker","Address":"Mission Compound","Phone":"9837272595","Weapon":"Revalvor"},{"Name":"Rajan Gupta","so":"R. N Gupta","Address":"Mission Compound","Phone":"9359929786","Weapon":"Revalvor"},{"Name":"Prem Parkas","so":"Kirpal Rastogi","Address":"Mission Compound","Phone":"0121-2517304","Weapon":"Dbbl"},{"Name":"Rajeev Kristopal Loyal","so":"Vinas Kistoper Loya","Address":"Cms","Phone":"9897177546","Weapon":"Dbbl"},{"Name":"Harparshad Buthani","so":"Uttam Chand Buthani","Address":"Mission Compound","Phone":"9897573419","Weapon":"Pistal"},{"Name":"D.r. Anil Kumar","so":"Opparkas","Address":"Mission Compound","Phone":"Nil","Weapon":"Pistal"},{"Name":"Sambul David","so":"Raja Ram Chand","Address":"Mission Compound","Phone":"8909111147","Weapon":"Nil"},{"Name":"Sant Machim","so":"Kasi Masi","Address":"Mission Compound","Phone":"9897687777","Weapon":"Sbbl"}],"chowkidar":[{"Name":"Nil","so":"Nil","Address":"Nil","Phone":"Nil"}],"councellor":[{"Name":"Nil","so":"Nil","Address":"Nil","Phone":"Nil"}],"historySheeter":[{"Name":"Anil Kumar Ed Ward","so":"Adward Jassion","Address":"Mission Conpound","Status":"Missing","Phone":"Nil"}],"convictedCriminals":[{"Name":"Nil","so":"Nil","crimeno" :"Nil","section":"Nil","Address":"Nil"}],"crimes5Yrs":[{"Name":"Aklak Aka Tonny","so":"Sockat","crimeno":"196/15","Section":"356,392,411,ipc","Address":"Kolligan ,ps. Sardhena, Mrt"},{"Name":"Chand","so":"Sattar","crimeno":"196/15","Section":"356,392,411,ipc","Address":"Kesharu Kheda Ps . Lalakurti Meerut"}],"electionCrimes":[{"Name":"Nil","so":"Nil","crimeno":"Nil","Section":"Nil","Address":"Nil"}],"politician":[{"Name":"Nil","so":"Nil","Address":"Nil","Phone":"Nil"}],"boundDownUnder":"05","vulnerabilityDetails":"General","warrantedCriminals":[{"Name":"Nil","so":"Nil","Address":"Nil","Phone":"Nil"}],"condition":"Good"},{"stationID":"SB-12","stationName":"Araya Vidya Sadan,Thapa Nagar","latitude":"28.9874","longitude":"77.7023","polingCenterPhoto":"../img/mediPanchayat.png","routes":"../img/3.png","collectionPoint":"../img/3.png","population":"Nil","voters":"3274","villageMohalla":"Thapad Nagar, Utheri Patal Nagar, Dakshni Patal Nagar, Soti Gang, Mission Compound","path":"#/menu/tab/medicalDetails","respectedPpl":[{"Name":"meash chand chabda","so":"desh raj chabda","Address":"thapad nagar","Phone":"9412102492"},{"Name":"somdat sharma","so":"lakshmi narayan","Address":"thapad nagar","Phone":"8171396012"},{"Name":"kabish jain","so":"dev kumar jain","Address":"thapad nagar","Phone":"8171396012"}],"retiredGovtSer":[{"Name":"Nil","so":"Nil","Address":"Nil","Phone":"Nil"}],"neighbourPolling":[{"Name":"Somdat Sharma","so":"Lakshmi Narayan","Address":"Thapad Nadar","Phone":"8171396012"},{"Name":"Satish Sharma","so":"Nil","Address":"Thapad Nadar","Phone":"9358396104"},{"Name":"Alok Gupta","so":"Nil","Address":"Thapad Nadar","Phone":"9412702722"},{"Name":"Rohit Choudhary","so":"Neeraj Kumar Choudhary","Address":"Dev Nagar","Phone":"8755492918"}],"armsLicenseHolder":[{"Name":"Raj Kumar","so":"Nil","Address":"Mission Compound","Phone":"9358417096","Weapon":"Sbbl"},{"Name":"Arayander Kumar Sharma","so":"Upender Parkas Sharma","Address":"Dev Nagar","Phone":"9927019634","Weapon":"Sbbl"},{"Name":"Har Mal Jaon","so":"H.job","Address":"Dev Nagar","Phone":"0121-524776","Weapon":"Dbbl"},{"Name":"Prem Parkas","so":"Malik Lakhmidas","Address":"Mission Compound","Phone":"Nil","Weapon":"Pistal"},{"Name":"Mehander Singh","so":"Mithan Singh","Address":"Dev Nagar","Phone":"0121-2525466","Weapon":"Dbbl"},{"Name":"Arun Adward","so":"Major D.r. Adword","Address":"Mission Compound","Phone":"9837007821","Weapon":"Revalvor"},{"Name":"Shakti Parkas","so":"Maya Parkash","Address":"Mission Compound","Phone":"1212422753","Weapon":"Dbbl"},{"Name":"Ram Parkas Mittal","so":"Hari Shanker","Address":"Mission Compound","Phone":"9837272595","Weapon":"Revalvor"},{"Name":"Rajan Gupta","so":"R. N Gupta","Address":"Mission Compound","Phone":"9359929786","Weapon":"Revalvor"},{"Name":"Prem Parkas","so":"Kirpal Rastogi","Address":"Mission Compound","Phone":"0121-2517304","Weapon":"Dbbl"},{"Name":"Rajeev Kristopal Loyal","so":"Vinas Kistoper Loya","Address":"Cms","Phone":"9897177546","Weapon":"Dbbl"},{"Name":"Harparshad Buthani","so":"Uttam Chand Buthani","Address":"Mission Compound","Phone":"9897573419","Weapon":"Pistal"},{"Name":"D.r. Anil Kumar","so":"Opparkas","Address":"Mission Compound","Phone":"Nil","Weapon":"Pistal"},{"Name":"Sambul David","so":"Raja Ram Chand","Address":"Mission Compound","Phone":"8909111147","Weapon":"Nil"},{"Name":"Sant Machim","so":"Kasi Masi","Address":"Mission Compound","Phone":"9897687777","Weapon":"Sbbl"},{"Name":"Rajender Kumar Dil Muck","so":"Sami L Dil Muk","Address":"Mission Compound","Phone":"0121-25540259","Weapon":"DBBL"},{"Name":"Partap Singh","so":"Sardul Singh","Address":"Soti Ganj","Phone":"Nil","Weapon":"DBBL/REVOLVER"},{"Name":"Ramesh Chand Gupta","so":"Mana Ram Gupta","Address":"Soti Ganj","Phone":"Nil","Weapon":"DBBL"},{"Name":"Santosh Kumar","so":"Gajdish Saran Gupta","Address":"Soti Ganj","Phone":"9893386845","Weapon":"DBBL"},{"Name":"Ramesh Kumar Kala","so":"J. M Kala","Address":"Soti Ganj","Phone":"0121-2661202","Weapon":"REVOLVER"},{"Name":"Jasveer Singh Khalsa","so":"Sardar Manohar Singh","Address":"Soti Ganj","Phone":"Nil","Weapon":"RIFAL"},{"Name":"Sunil Kumar","so":"Pransnath Duya","Address":"Soti Ganj","Phone":"9837217005","Weapon":"DBBL"},{"Name":"Guru Charan Singh","so":"Harvansingh","Address":"Soti Ganj","Phone":"9837094453","Weapon":"PISTAL"},{"Name":"Ranjeet Singh","so":"Mahohar Singh","Address":"Soti Ganj","Phone":"9897013134","Weapon":"RIFAL"},{"Name":"Jan Mohd.","so":"Mohd. Umar","Address":"Soti Ganj","Phone":"9412709132","Weapon":"REVOLVER"},{"Name":"Mohd. Asif","so":"Mohd. Yahhin","Address":"Soti Ganj","Phone":"Nil","Weapon":"REVOLVER"},{"Name":"Hanif Mohd, Khan","so":"Mohd. Khan","Address":"Soti Ganj","Phone":"9412709132","Weapon":"PISTAL"},{"Name":"Haji Mohd, Akram","so":"Nataj Khan","Address":"Soti Ganj","Phone":"9837046085","Weapon":"REVOLVER"},{"Name":"Prti Pal Singh","so":"Deelap Singh","Address":"Soti Ganj","Phone":"9412204707","Weapon":"REVOLVER"},{"Name":"Naseem Khan","so":"Mahamud Ali","Address":"Soti Ganj","Phone":"9319251331","Weapon":"REVOLVER"},{"Name":"Mohd, Sagar","so":"Haji Mustaq","Address":"Soti Ganj","Phone":"9897241920","Weapon":"PISTAL"},{"Name":"Vijat Choudhary","so":"Gajdish Singh","Address":"Soti Ganj","Phone":"9412705773","Weapon":"PISTAL"},{"Name":"Mohd. Hillal","so":"Islamidin","Address":"Soti Ganj","Phone":"9897331011","Weapon":"RIFAL"},{"Name":"Afjal Ahamad","so":"Ikbal","Address":"Soti Ganj","Phone":"9897067993","Weapon":"PISTAL"},{"Name":"Naseem Khan","so":"Mahumad Ali","Address":"Soti Ganj","Phone":"9319251331","Weapon":"REVOLVER"},{"Name":"Om Parkash Fanthuli","so":"Dhafrm Aland Fnthuli","Address":"Soti Ganj","Phone":"9997225885","Weapon":"REVOLVER"},{"Name":"Rajender Singh Kakar","so":"Omkar Singh","Address":"Soti Ganj","Phone":"9411986987","Weapon":"REVOLVER"},{"Name":"Tahir","so":"Nasurideen","Address":"Soti Ganj","Phone":"9412204313","Weapon":"PISTAL"},{"Name":"Kujinder Pal","so":"Sukver Singh","Address":"Soti Ganj","Phone":"9897601313","Weapon":"DBBL"},{"Name":"Smt. Anju","so":"D.r. Bal Kishan","Address":"Soti Ganj","Phone":"9412707891","Weapon":"REVOLVER"},{"Name":"Ravinder Singh","so":"Amreek Singh","Address":"Soti Ganj","Phone":"9927286190","Weapon":"REVOLVER"},{"Name":"Mohd. Avid Khan","so":"Haji Jan Mohd.","Address":"Soti Ganj","Phone":"9412285088","Weapon":"RIFAL"},{"Name":"Imran","so":"Mohd, Jamal","Address":"Soti Ganj","Phone":"9837052786","Weapon":"REVOLVER"},{"Name":"Sahadat","so":"Kamurudin","Address":"Soti Ganj","Phone":"9837128935","Weapon":"PISTOL"},{"Name":"Naresh Choudhary","so":"Vadpal Singh","Address":"Soti Ganj","Phone":"9412202324","Weapon":"DBBL"},{"Name":"Surander Singh Kakar","so":"Rajender Singh","Address":"Soti Ganj","Phone":"9897818585","Weapon":"DBBL"},{"Name":"Nan Kishor Sharma","so":"Mohanlal Sharma","Address":"Soti Ganj","Phone":"Nil","Weapon":"REVOLVER"},{"Name":"Sandeep Rastogi","so":"Suraesh Chand Rastogi","Address":"Soti Ganj","Phone":"Nil","Weapon":"PISTAL"},{"Name":"Suman Kunmar Daga","so":"Santaram Daga","Address":"Soti Ganj","Phone":"9927255050","Weapon":"PISTAL"},{"Name":"Pravinder Singh","so":"Anrik Singh","Address":"Soti Ganj","Phone":"Nil","Weapon":"DBBL/PISTAL"},{"Name":"Amrik Singh","so":"Avtar Singh","Address":"Soti Ganj","Phone":"9219532871","Weapon":"DBBL"},{"Name":"Tavnit Singh","so":"Raguveer Singh","Address":"Soti Ganj","Phone":"Nil","Weapon":"REVOLVER"},{"Name":"Hagi Bullan","so":"Mohd. Umar","Address":"Soti Ganj","Phone":"9897142300","Weapon":"PISTOL"},{"Name":"As Mohd.","so":"Rafik","Address":"Soti Ganj","Phone":"9219526222","Weapon":"PISTOL"},{"Name":"Avnit Singh","so":"Surjeet Singh","Address":"Soti Ganj","Phone":"9897066666","Weapon":"PISTOL"},{"Name":"Kavnit Singh","so":"Rajuveer Singh","Address":"Soti Ganj","Phone":"9690090096","Weapon":"PISTOL"},{"Name":"Mohd. Nadin Khan","so":"Hagi Nasim","Address":"Soti Ganj","Phone":"9897056007","Weapon":"REVOLVER"},{"Name":"Neerj Tomar","so":"Vad Pal Singh","Address":"Soti Ganj","Phone":"9412662602","Weapon":"DBBL"},{"Name":"Imran","so":"Hagi Mustuq","Address":"Soti Ganj","Phone":"9897451530","Weapon":"REVOLVER"},{"Name":"Dheerj Kala","so":"R.k . Kala","Address":"Soti Ganj","Phone":"9358439593","Weapon":"PISTOL"},{"Name":"Suras Chand Rastogi","so":"Nayadar Mal Rastogi","Address":"Kirshnapuri","Phone":"9927044007","Weapon":"DBBL"},{"Name":"Kulvinder Singh","so":"Pratap Singh","Address":"Soti Ganj","Phone":"9997744840","Weapon":"PISTOL"},{"Name":"Maninder Singh","so":"Pratap Singh","Address":"Soti Ganj","Phone":"9350078505","Weapon":"PISTOL"},{"Name":"Sachin Gupta","so":"Ram Kumar Gupta","Address":"Soti Ganj","Phone":"9359171717","Weapon":"REVOLVER"}],"chowkidar":[{"Name":"Nil","so":"Nil","Address":"Nil","Phone":"Nil"}],"councellor":[{"Name":"Nil","so":"Nil","Address":"Nil","Phone":"Nil"}],"historySheeter":[{"Name":"Amit Aka Jugunu","so":"Daya Parshad","Address":"Sothi Gang","Status":"Missing","Phone":"Nil"},{"Name":"Amit Verma","so":"Hari Kishan","Address":"Thapad Nagar","Status":"Present","Phone":"Nil"}],"convictedCriminals":[{"Name":"Nil","so":"Nil","crimeno" :"Nil","section":"Nil","Address":"Nil"}],"crimes5Yrs":[{"Name":"Gulfam","so":"Nasridin","crimeno":"60/15","Section":"356,312,411,ipc","Address":"Mahanathan Asazad Dairy K Pass Ps. Kot Wali Mrt."},{"Name":"Sahil","so":"Ismile","crimeno":"60/15","Section":"356,312,411,ipc","Address":"Hariya Lashi Wali Ka Pass Bara Bar Vali Galips. Lal Kurti Mrt."},{"Name":"Yamin","so":"Kallu Khan","crimeno":"60/15","Section":"356,312,411,ipc","Address":"151, Ucha Sadik Nagr Ps. Lisadi Meerut"},{"Name":"Ass Mohd.","so":"Babu Khan","crimeno":"60/15","Section":"356,312,411,ipc","Address":"344/2 New Sadik Nagar Ps. Lisadi Gate Mrt."},{"Name":"Javid","so":"Hamid","crimeno":"407/15","Section":"392/411,ipc","Address":"Lalmahamud Nager Ps. Kkr. Meerut"},{"Name":"Danish","so":"Ikharil","crimeno":"407/15","Section":"392/411,ipc","Address":"I.b. 884, Sector 3. Madhav Puram Ps. Bhrampuri Meerut"},{"Name":"Shajad","so":"Ikbal","crimeno":"552/15","Section":"392/411,ipc","Address":"Bahadapur 2207rajo Bala Bag Mohalla Kalyan Singh,ps. Mawana Mrt."},{"Name":"Purkan","so":"Hafis Sal Mani","crimeno":"552/15","Section":"392/411,ipc","Address":"Kalayan Singh Ashora Gate Kesba Ps. Mawana Mrt."},{"Name":"Mohit","so":"Sushil","crimeno":"27/14","Section":"302,ipc.","Address":"Nil"},{"Name":"Vishal","so":"Madan Mohan Sharma","crimeno":"27/14","Section":"302,ipc.","Address":"Nil"},{"Name":"Kapil","so":"Rajinder Parshad","crimeno":"27/14","Section":"302,ipc.","Address":"Gad Thaper Nager Ps. Sader Bazaer Mrt."}],"electionCrimes":[{"Name":"Nil","so":"Nil","crimeno":"Nil","Section":"Nil","Address":"Nil"}],"politician":[{"Name":"Nil","so":"Nil","Address":"Nil","Phone":"Nil"}],"boundDownUnder":"05","vulnerabilityDetails":"General","warrantedCriminals":[{"Name":"Nil","so":"Nil","Address":"Nil","Phone":"Nil"}],"condition":"Good"},{"stationID":"SB-13","stationName":"Cannt Board Prathmik Vidhayalaya B.C. Bazar","latitude":"29.0014","longitude":"77.6946","polingCenterPhoto":"../img/mediPanchayat.png","routes":"../img/3.png","collectionPoint":"../img/3.png","population":"Nil","voters":"5707","villageMohalla":"Tendal Mohalla, Grass, Mandi, Shivajy  Colony, Juggi Basti, Punjab Line, Lal Quarter, Servant  Quarter, P.O.W Campus Station  Road, M.C Hospital","path":"#/menu/tab/medicalDetails","respectedPpl":[{"Name":"Aman Gupta","so":"Jay Bhagwan Gupta","Address":"Tendal Mohalla","Phone":"9412104405"},{"Name":"Gyan Chand","so":"Durga Parshad Thakadar","Address":"Tendal Mohalla","Phone":"9627366464"},{"Name":"Prahalad Singh","so":"Ganga Ram","Address":"Raj Ban Chota Bazar","Phone":"9219518842"},{"Name":"Raj Kumar Sonkar","so":"Chota Lal","Address":"Raj Ban Chota Bazar","Phone":"Nil"},{"Name":"Shar Singh","so":"Santosh Gupta","Address":"Raj Ban Chota Bazar","Phone":"9568853606"}],"retiredGovtSer":[{"Name":"Nil","so":"Nil","Address":"Nil","Phone":"Nil"}],"neighbourPolling":[{"Name":"Aman Gupta","so":"Jay Bhagwan Gupta","Address":"Tendal Mohalla","Phone":"9412104405"},{"Name":"Gyan Chand","so":"Durga Parshad Thakadar","Address":"Tendal Mohalla","Phone":"9627366464"},{"Name":"Prahalad Singh","so":"Ganga Ram","Address":"Raj Ban Chota Bazar","Phone":"9219518842"},{"Name":"Shar Singh","so":"Santosh Gupta","Address":"Raj Ban Chota Bazar","Phone":"9568853606"}],"armsLicenseHolder":[{"Name":"Manoj Kunar","so":"Ram Saran","Address":"Sivagi Colony","Phone":"9837120225","Weapon":"Pistal"},{"Name":"Ajeet Singh","so":"Jai Parkas","Address":"Sivagi Colony","Phone":"Nil","Weapon":"DBBL"},{"Name":"Amarnath Thaper","so":"Chander Bahan Tahper","Address":"Sivagi Colony","Phone":"9837235738","Weapon":"DBBL"},{"Name":"Vishal Shati","so":"Nand Gopal Sathi","Address":"Tandil Mohalla","Phone":"9720047476","Weapon":"DBBL"}],"chowkidar":[{"Name":"Nil","so":"Nil","Address":"Nil","Phone":"Nil"}],"councellor":[{"Name":"Dharminder Sonkar","so":"Nil","Address":"Rajban Chota Bazar","Phone":"9837539799"}],"historySheeter":[{"Name":"Rajan Ishai","so":"Bokim Ishai","Address":"Sevant Quarter","Status":"Dead","Phone":"Nil"},{"Name":"Raj Kumar","so":"Praya Lal","Address":"Grass Farm","Status":"Present","Phone":"Nil"}],"convictedCriminals":[{"Name":"Nil","so":"Nil","crimeno" :"Nil","section":"Nil","Address":"Nil"}],"crimes5Yrs":[{"Name":"Rakesh","so":"Veer Shan Kashyap","crimeno":"346/13.","Section":"302,201,120b.ipc","Address":"Tanda Majra Ps .budhana Muzafarnagar"},{"Name":"Meega","so":"W/o Rakesh","crimeno":"346/13.","Section":"302,201,120b.ipc","Address":"Tanda Majra Ps .budhana Muzafarnagar"},{"Name":"Mohd. Asif","so":"Mohd. Sikender","crimeno":"243/13.","Section":"392,411,ipc","Address":"Gali No. 2 Shyam Nagar Bophal Ki Khoti Ka Pass Ps. Lisadi Gate Meerut"},{"Name":"Amjed","so":"Mansoor","crimeno":"243/13.","Section":"392,411,ipc","Address":"Gali No. 4 Hotal Wali Gali Shyam Nagr Ps. Lisadi Gate Meerut"},{"Name":"Dinkae Sharma Aka Nannu","so":"Ashok Sharma","crimeno":"292/13","Section":"394,504,411,ipc","Address":"Sharadha Puri Face 1 Plote 2b Ps. Kkr. Mrt."},{"Name":"Satyadev Sharma","so":"Grish Sharma","crimeno":"292/13","Section":"394,504,411,ipc","Address":"Kasam Pur Ps. Kkr. Meerut"},{"Name":"Mahaveer","so":"Lakshman","crimeno":"364/14","Section":"392,411,ipc","Address":"Lisadi Ps. Lisadi Gate Mrt."}],"electionCrimes":[{"Name":"Nil","so":"Nil","crimeno":"Nil","Section":"Nil","Address":"Nil"}],"politician":[{"Name":"Nil","so":"Nil","Address":"Nil","Phone":"Nil"}],"boundDownUnder":"12","vulnerabilityDetails":"General","warrantedCriminals":[{"Name":"Nil","so":"Nil","Address":"Nil","Phone":"Nil"}],"condition":"Good"}]