[{"stationID":"PP-01","stationName":"Palavpuram","latitude":" 29.0413","longitude":"77.7048","polingCenterPhoto":"../img/mediPanchayat.png","routes":"../img/3.png","collectionPoint":"../img/3.png","population":"Nil","voters":"7800","villageMohalla":"Roshanpur dorli, golden evenu, konark conly, sun city, ekta apartment, gangotri, akshya puram, majar harish chand apartment,akansha hights, ram kamal resedensy","path":"#/menu/tab/medicalDetails","respectedPpl":[{"Name":"Suresh Kumar","so":"Lekhraj Shastri","Address":"Roshanpur Dorli P.s. Palawpuram","Phone":"Nil"},{"Name":"Dharam Pal","so":"Kundan Singh","Address":"Roshanpur Dorli P.s. Palawpuram","Phone":"Nil"},{"Name":"Jay Prakash","so":"Ram Singh","Address":"Roshanpur Dorli P.s. Palawpuram","Phone":"9897054529"},{"Name":"Randheer","so":"Ram Singh","Address":"Roshanpur Dorli P.s. Palawpuram","Phone":"Nil"},{"Name":"Dhani Ram","so":"Harish Chand","Address":"Roshanpur Dorli P.s. Palawpuram","Phone":"9219514445"}],"retiredGovtSer":[{"Name":"Vedpal Shastri","so":"Harsaran","Address":"Roshan Pur Dorli","Phone":"Nil"},{"Name":"Ramdev","so":"Lekhram","Address":"Roshan Pur Dorli","Phone":"9761114747"},{"Name":"Krishanpal","so":"Yash Pal","Address":"Roshan Pur Dorli","Phone":"Nil"},{"Name":"Rajveer Singh","so":"Aatar Singh","Address":"Roshan Pur Dorli","Phone":"Nil"}],"neighbourPolling":[{"Name":"Giri Raj Singh","so":"Raghu Veer Singh","Address":"191/1 Roshan Pur Dorli","Phone":"9927235050"},{"Name":"Mahender Singh","so":"Jagpal","Address":"37 Roshan Pur Dorli","Phone":"9690094198"},{"Name":"Bhupesh","so":"Jai Prakash","Address":"190 Roshan Pur Dorli","Phone":"9897054529"},{"Name":"Neeraj","so":"Sohan Singh","Address":"35 Roshan Pur Dorli","Phone":"9027822313"},{"Name":"Gaurav","so":"Rajveer","Address":"36 Roshan Pur Dorli","Phone":"8923610976"}],"armsLicenseHolder":[{"Name":"Vijander","so":"Pitam Singh","Address":"Konarak Colony,roshan Pur Dorli","Phone":"9837072638","Weapon":"DBBL"},{"Name":"Anil Kumar","so":"Harander Singh","Address":"Konarak Colony,roshan Pur Dorli","Phone":"N/a","Weapon":"PISTOL"},{"Name":"Sarad Kumar","so":"Suraj Singh","Address":"Golden Avenu, Roshan Pur Dorli","Phone":"9917211011","Weapon":"PISTOL"},{"Name":"Subash Tyagi","so":"Bhram Pal","Address":"Golden Avenu, Roshan Pur Dorli","Phone":"9359927540","Weapon":"PISTOL"},{"Name":"Deshpal","so":"Ved Singh","Address":"Golden Avenu, Roshan Pur Dorli","Phone":"9412587174","Weapon":"DBBL"},{"Name":"Ranjeet","so":"Basant","Address":"Golden Avenu, Roshan Pur Dorli","Phone":"8393885951","Weapon":"SBBL"},{"Name":"Kiranpal","so":"Charan Singh","Address":"Golden Avenu, Roshan Pur Dorli","Phone":"9568221688","Weapon":"RIEFAL"}],"chowkidar":[{"Name":"Nil","so":"Nil","Address":"Nil","Phone":"Nil"}],"councellor":[{"Name":"Ajay Chaudary","so":"Nil","Address":"Lalsana","Phone":"9412802176"}],"historySheeter":[{"Name":"Nil ","so":"Nil","Address":"Nil","Status":"Nil","Phone":"Nil"}],"convictedCriminals":[{"Name":"Nil","so":"Nil","Address":"Nil","crimeno":"Nil","section":"Nil"}],"crimes5Yrs":[{"Name":"Punit","so":"Mahender Singh","crimeno":"727/12","Section":"307,452Ipc","Address":"Bhavashi P.s Shambal"},{"Name":"Vishvander Kumar","so":"Shatish","crimeno":"525/14","Section":"354 Ipc","Address":"226 Balwant Enclave Palwapuram"}],"electionCrimes":[{"Name":"Nil","so":"Nil","crimeno":"Nil","Section":"Nil","Address":"Nil"}],"politician":[{"Name":"Shubash Chand","so":"Dher Singh","Address":"Roshan Pur Dorli","Phone":"Nil"},{"Name":"Sanjeev Kumar","so":"Samay Singh","Address":"Roshan Pur Dorli","Phone":"Nil"}],"boundDownUnder":"Nil","vulnerabilityDetails":"V. Critical","warrantedCriminals":[{"Name":"Nil","so":"Nil","Address":"Nil","Phone":"Nil"}],"condition":"Good"},{"stationID":"PP-02","stationName":"Kuber Prathmik School Rurkee Road Roshanpur Dorli","latitude":" 29.0422","longitude":"77.7070","polingCenterPhoto":"../img/mediPanchayat.png","routes":"../img/3.png","collectionPoint":"../img/3.png","population":"Nil","voters":"1167","villageMohalla":"roshanpur dorli, anand loak, balwant enclave, gurukul puram, santi nikaten, koshliya nagar, privahn puran, nayi basti, hanuman enclave, indraprasht estate, ekta nagar","path":"#/menu/tab/medicalDetails","respectedPpl":[{"Name":"Mukesh Mohan","so":"N/a","Address":"Roshanpur Dorli","Phone":"9411893819"},{"Name":"Krishan Sagar","so":"Bhopal Singh","Address":"Santi Nikatin, Roshanpur Dorli","Phone":"9286949197"},{"Name":"Ravinder","so":"Tilakram","Address":"Santi Nikatin, Roshanpur Dorli","Phone":"9410033121"},{"Name":"Om Prakash (prof.)","so":"N/a","Address":"Santi Nikatin, Roshanpur Dorli","Phone":"9410285915"},{"Name":"Rajander Singh","so":"N/a","Address":"Santi Nikatin, Roshanpur Dorli","Phone":"9411618993"}],"retiredGovtSer":[{"Name":"Rajander Singh","so":"Nil","Address":"Santi Nikaten, Roshanpur Dorli","Phone":"9411618993"},{"Name":"Denish Pal","so":"Nil","Address":"Kaushaliya Nagar, Roshanpur Dorli","Phone":"9412676242"}],"neighbourPolling":[{"Name":"Mohit","so":"Ravinder Kumar","Address":"Santi Nikaten, Roshanpur Dorli","Phone":"9045674634"},{"Name":"Ajay","so":"Jai Prakash","Address":"Santi Nikaten, Roshanpur Dorli","Phone":"9410033121"},{"Name":"Praveen","so":"Riyaz Kumar","Address":"Santi Nikaten, Roshanpur Dorli","Phone":"9927018125"},{"Name":"Jitander","so":"Amar Pal","Address":"Santi Nikaten, Roshanpur Dorli","Phone":"7520966844"},{"Name":"Dinesh","so":"Nil","Address":"Kaushaliya Nagar, Rurkee Road, Roshanpur Dorli","Phone":"9412676242"}],"armsLicenseHolder":[{"Name":"Chuunu Lal","so":"Ramnath","Address":"Ekta Nagar, Roshanpur Dorli","Phone":"9456449517","Weapon":"Dbbl"},{"Name":"Chiddi","so":"Divan Singh","Address":"Ekta Nagar, Roshanpur Dorli","Phone":"9897574957","Weapon":"Dbbl"},{"Name":"Kuldeep","so":"Omveer","Address":"Santi Nikaten, Roshanpur Dorli","Phone":"8937010153","Weapon":"Riefal"},{"Name":"Ranjeet","so":"Basant Singh","Address":"Santi Nikaten, Roshanpur Dorli","Phone":"8393885951","Weapon":"Sbbl"}],"chowkidar":[{"Name":"Nil","so":"Nil","Address":"Nil","Phone":"Nil"}],"councellor":[{"Name":"Ajay Chaudary","so":"Nil","Address":"Lalsana","Phone":"9412802176"}],"historySheeter":[{"Name":"Nil ","so":"Nil","Address":"Nil","Status":"Nil","Phone":"Nil"}],"convictedCriminals":[{"Name":"Nil","so":"Nil","Address":"Nil","crimeno":"Nil","section":"Nil"}],"crimes5Yrs":[{"Name":"Akashay Yadav","so":"Rakesh","crimeno":"557/12","Section":"392,411Ipc","Address":"577/12, Centeral Market , P.s. Nauchandi Mrt"},{"Name":"Kapil Rastogi","so":"Pradeep","crimeno":"557/12","Section":"392,411Ipc","Address":"Bakrri, Lalkurti Meerut"},{"Name":"Amit","so":"N/a","crimeno":"557/12","Section":"392,411Ipc","Address":"Chuurrrrâ€¦. P.s. Sardhana"},{"Name":"Happy Aka Harish","so":"Khem Chand","crimeno":"557/12","Section":"392,411ipc","Address":"Nagla Tashi, Khankerkhera, Mrt"},{"Name":"Neeraj","so":"Kishan Lal","crimeno":"713/14","Section":"302,201Ipc","Address":"Roshanpur, Dorli P.s. Palawpuram Mrt"},{"Name":"Surajpal","so":"Babu","crimeno":"713/14","Section":"302,201Ipc","Address":"Rajpur, P.s Parikshit Ghar, Mrt"},{"Name":"Sandeep","so":"Surajpal","crimeno":"713/14","Section":"302,201Ipc","Address":"Rajpur, P.s Parikshit Ghar, Mrt"},{"Name":"Neeraj","so":"Rajpal","crimeno":"59/16","Section":"307 Ipc","Address":"Nil"}],"electionCrimes":[{"Name":"Nil","so":"Nil","crimeno":"Nil","Section":"Nil","Address":"Nil"}],"politician":[{"Name":"Nil","so":"Nil","Address":"Nil","Phone":"Nil"}],"boundDownUnder":"Nil","vulnerabilityDetails":"V. Critical","warrantedCriminals":[{"Name":"Nil","so":"Nil","Address":"Nil","Phone":"Nil"}],"condition":"Good"},{"stationID":"PP-03","stationName":"Prathmik Vidhyaliya Roshanpur Dorli","latitude":" 29.0384","longitude":"77.7044","polingCenterPhoto":"../img/mediPanchayat.png","routes":"../img/3.png","collectionPoint":"../img/3.png","population":"Nil","voters":"1198","villageMohalla":"roshanpur dorli-3, roshanpur dorli-4","path":"#/menu/tab/medicalDetails","respectedPpl":[{"Name":"Jagpal","so":"Hariya","Address":"Roshanpur Dorli","Phone":"9548197111"},{"Name":"Sakil","so":"Minu","Address":"Roshanpur Dorli","Phone":"9258774831"},{"Name":"Ravinder","so":"Shwaraj","Address":"Roshanpur Dorli","Phone":"9639877288"},{"Name":"Amit","so":"Chandarpal","Address":"Roshanpur Dorli","Phone":"9319984222"},{"Name":"Ranjeet","so":"Kishan Das","Address":"Roshanpur Dorli","Phone":"9897132591"}],"retiredGovtSer":[{"Name":"Bhopal Singh","so":"Ram Kishan","Address":"Roshanpur Dorli","Phone":"9837694322"}],"neighbourPolling":[{"Name":"Jitander","so":"Om Parakash","Address":"Roshanpur Dorli","Phone":"9837503670"},{"Name":"Ramveer","so":"Kashab","Address":"Roshanpur Dorli","Phone":"9412632460"},{"Name":"Ramkumar","so":"Kashab","Address":"Roshanpur Dorli","Phone":"8439442508"},{"Name":"Fathe Singh","so":"Vishanmber","Address":"Roshanpur Dorli","Phone":"9997241429"},{"Name":"Deepchand","so":"Maha Veer","Address":"Roshanpur Dorli","Phone":"8171117934"}],"armsLicenseHolder":[{"Name":"Khurveer","so":"Ramdev","Address":"Roshanpur Dorli","Phone":"9012355556","Weapon":"DBBL"},{"Name":"Kuldeep","so":"Omveer","Address":"Roshanpur Dorli","Phone":"8937010153","Weapon":"RIEFAL"},{"Name":"Virander","so":"Panjab Singh","Address":"Roshanpur Dorli","Phone":"9410033099","Weapon":"RIEFAL"},{"Name":"Shyam Sunder","so":"Nater Pal","Address":"Roshanpur Dorli","Phone":"9719010122","Weapon":"REVOLVER"},{"Name":"Kiran Singh","so":"Charan Singh","Address":"Roshanpur Dorli","Phone":"9568221688","Weapon":"RIEFAL"}],"chowkidar":[{"Name":"Nil","so":"Nil","Address":"Nil","Phone":"Nil"}],"councellor":[{"Name":"Ajay Chaudary","so":"Nil","Address":"Lalsana","Phone":"9412802176"}],"historySheeter":[{"Name":"Nil ","so":"Nil","Address":"Nil","Status":"Nil","Phone":"Nil"}],"convictedCriminals":[{"Name":"Nil","so":"Nil","Address":"Nil","crimeno":"Nil","section":"Nil"}],"crimes5Yrs":[{"Name":"Matin","so":"Rafeek","crimeno":"84/14","Section":"363,366Ipc","Address":"Roshanpur, Dorli, Ps Palwavpuram Mrt"}],"electionCrimes":[{"Name":"Nil","so":"Nil","crimeno":"Nil","Section":"Nil","Address":"Nil"}],"politician":[{"Name":"Sakil Ahmed","so":"Meenu","Address":"Roshan Pur Dorli","Phone":"9258774831"},{"Name":"Ravinder","so":"Shwaraj","Address":"Roshan Pur Dorli","Phone":"9639877288"}],"boundDownUnder":"Nil","vulnerabilityDetails":"V. Critical","warrantedCriminals":[{"Name":"Nil","so":"Nil","Address":"Nil","Phone":"Nil"}],"condition":"Good"},{"stationID":"PP-04","stationName":"Saheed Bhagat sSingh Inter College Roshanpur Dorli","latitude":"  29.0368","longitude":"77.7094","polingCenterPhoto":"../img/mediPanchayat.png","routes":"../img/3.png","collectionPoint":"../img/3.png","population":"Nil","voters":"431","villageMohalla":"roshanpur dorli, ektanagar, rajkamal prark","path":"#/menu/tab/medicalDetails","respectedPpl":[{"Name":"Sher Singh","so":"Vicky Singh","Address":"755/3 Ektanagar, Roshanpur Dorli","Phone":"9319915634"},{"Name":"Ved Veer","so":"Jasveer","Address":"755/3 Ektanagar, Roshanpur Dorli","Phone":"9756628983"},{"Name":"C.l. Sharma","so":"Ramnath","Address":"Rajkamal, Roshanpur Dorli","Phone":"9456449517"},{"Name":"Murari Lal","so":"Genda Lal","Address":"Ektanagar, Roshanpur Dorli","Phone":"7409491382"}],"retiredGovtSer":[{"Name":"Mahipal","so":"Thirat Raj","Address":"Ektanagar, Roshanpur Dorli","Phone":"9368166157"},{"Name":"Murari Lal","so":"Genda Lal","Address":"Ektanagar, Roshanpur Dorli","Phone":"7409491382"},{"Name":"Cl Sharma","so":"Ram Nath Sharma","Address":"Ektanagar, Roshanpur Dorli","Phone":"9456449517"}],"neighbourPolling":[{"Name":"Ronak Kumar","so":"Jaipal","Address":"Ektanagar, Roshanpur Dorli","Phone":"9548007820"},{"Name":"Ramesh Chandd","so":"Khub Chand","Address":"Ektanagar, Roshanpur Dorli","Phone":"9897176432"},{"Name":"Shubhas","so":"Jaipal","Address":"Ektanagar, Roshanpur Dorli","Phone":"9837209638"},{"Name":"Deshraj","so":"Khub Chand","Address":"Ektanagar, Roshanpur Dorli","Phone":"8791690228"},{"Name":"Mahesh Kumar","so":"Shiv Charan","Address":"Ektanagar, Roshanpur Dorli","Phone":"9837387094"}],"armsLicenseHolder":[{"Name":"Chiddi Singh","so":"Devan Singh","Address":"Ektanagar, Roshanpur Dorli","Phone":"9897574957","Weapon":"DBBL"},{"Name":"Ranjeet","so":"Basant Singh","Address":"Ektanagar, Roshanpur Dorli","Phone":"8393885957","Weapon":"SBBL"},{"Name":"Kiranpal","so":"Charan Singh","Address":"Ektanagar, Roshanpur Dorli","Phone":"9568221688","Weapon":"Riefal"},{"Name":"Navab","so":"Charan Singh","Address":"Ektanagar, Roshanpur Dorli","Phone":"9411961067","Weapon":"DBBL"},{"Name":"Saleem","so":"Mhod. Bachen","Address":"Ektanagar, Roshanpur Dorli","Phone":"7500872333","Weapon":"DBBL"}],"chowkidar":[{"Name":"Nil","so":"Nil","Address":"Nil","Phone":"Nil"}],"councellor":[{"Name":"Smt. Om Veri  ","2Wo":"Nil","Address":"Roshanpur Dorli","Phone":"9412082561"}],"historySheeter":[{"Name":"Nil ","so":"Nil","Address":"Nil","Status":"Nil","Phone":"Nil"}],"convictedCriminals":[{"Name":"Nil","so":"Nil","Address":"Nil","crimeno":"Nil","section":"Nil"}],"crimes5Yrs":[{"Name":"Krishan Pal","so":"Ram Singh","crimeno":"636/12","Section":"279,337,338Ipc","Address":"salava, p.s sardhana mrt"}],"electionCrimes":[{"Name":"Nil","so":"Nil","crimeno":"Nil","Section":"Nil","Address":"Nil"}],"politician":[{"Name":"Om Prakash ","so":"Murarilal","Address":"Ektanagar","Phone":"7409491382"}],"boundDownUnder":"Nil","vulnerabilityDetails":"V. Critical","warrantedCriminals":[{"Name":"Nil","so":"Nil","Address":"Nil","Phone":"Nil"}],"condition":"Good"},{"stationID":"PP-05","stationName":"Prathmik Vidhyaliya P.A.C. Roshanpur Dorli","latitude":"  29.0411","longitude":"77.7006","polingCenterPhoto":"../img/mediPanchayat.png","routes":"../img/3.png","collectionPoint":"../img/3.png","population":"Nil","voters":"3000","villageMohalla":"krishna nagar-1, krishna nagar-2","path":"#/menu/tab/medicalDetails","respectedPpl":[{"Name":"Sanjeev Dhama","so":"N/a","Address":"Ektanagar, Roshanpur Dorli","Phone":"9412082561"},{"Name":"Mohit","so":"Shubash","Address":"Ektanagar, Roshanpur Dorli","Phone":"9897066628"},{"Name":"Vivek","so":"Deshpal","Address":"Ektanagar, Roshanpur Dorli","Phone":"9897066628"},{"Name":"Shubham","so":"Brajpal","Address":"Ektanagar, Roshanpur Dorli","Phone":"8755812606"},{"Name":"Shiv Kumar","so":"Bhula Ram","Address":"Ektanagar, Roshanpur Dorli","Phone":"9897621618"}],"retiredGovtSer":[{"Name":"Nil","so":"Nil","Address":"Nil","Phone":"Nil"}],"neighbourPolling":[{"Name":"Sahab Singh","so":"Inderpal","Address":"Pac Compaund, Roshanpur Dorli","Phone":"9457248032"},{"Name":"Jetander Kumar","so":"Surender Singh","Address":"Pac Compaund, Roshanpur Dorli","Phone":"9411620003"},{"Name":"Rakam Singh","so":"Raghuraj","Address":"Pac Compaund, Roshanpur Dorli","Phone":"9411683612"},{"Name":"Harander Pal","so":"Mahender Pal","Address":"Pac Compaund, Roshanpur Dorli","Phone":"9058049309"}],"armsLicenseHolder":[{"Name":"Yogander Pal","so":"Rhotash","Address":"Krishna Nagar, Roshanpur Dorli","Phone":"9837465235","Weapon":"REVOLVER"},{"Name":"Jogander Singh","so":"P.c. Kataoch","Address":"Krishna Nagar, Roshanpur Dorli","Phone":"9412150169","Weapon":"REVOLVER"},{"Name":"Raj Kumar","so":"Kiran","Address":"Krishna Nagar, Roshanpur Dorli","Phone":"Nil","Weapon":"DBBL"},{"Name":"Deshpal","so":"Bhiki","Address":"Krishna Nagar, Roshanpur Dorli","Phone":"Nil","Weapon":"DBBL"},{"Name":"Chaman Lal","so":"Kiran","Address":"Krishna Nagar, Roshanpur Dorli","Phone":"Nil","Weapon":"DBBL"}],"chowkidar":[{"Name":"Nil","so":"Nil","Address":"Nil","Phone":"Nil"}],"councellor":[{"Name":"Smt. Om Veri  ","2Wo":"Nil","Address":"Roshanpur Dorli","Phone":"9412082561"}],"historySheeter":[{"Name":"Vikas Tyagi","so":"Dev Dutt","Address":"Krishna Nagar, Roshanpur Dorli","Status":"Nil","Phone":"Nil"}],"convictedCriminals":[{"Name":"Nil","so":"Nil","Address":"Nil","crimeno":"Nil","section":"Nil"}],"crimes5Yrs":[{"Name":"Harish","so":"Tej Ram","crimeno":"314/13","Section":"354Ipc","Address":"Roshanpur Dorli"},{"Name":"Sanjeev","so":"Jogander","crimeno":"191/15","Section":"307,452 Ipc","Address":"Janghatai ,meerut"},{"Name":"Shara Bashla","so":"Sant Pal","crimeno":"191/15","Section":"307,452 Ipc","Address":"Gadina, Meerut"},{"Name":"Dharmander","so":"Jai Prakash","crimeno":"191/15","Section":"307,452 Ipc","Address":"Tamreha, Hapur"}],"electionCrimes":[{"Name":"Nil","so":"Nil","crimeno":"Nil","Section":"Nil","Address":"Nil"}],"politician":[{"Name":"Nil ","so":"Nil","Address":"Nil","Phone":"Nil"}],"boundDownUnder":"Nil","vulnerabilityDetails":"V. Critical","warrantedCriminals":[{"Name":"Nil","so":"Nil","Address":"Nil","Phone":"Nil"}],"condition":"Good"},{"stationID":"PP-06","stationName":"Ucch Prathmik Vidhyaliya P.A.C. Roshanpur Dorli","latitude":" 29.0347","longitude":"77.7039","polingCenterPhoto":"../img/mediPanchayat.png","routes":"../img/3.png","collectionPoint":"../img/3.png","population":"Nil","voters":"3400","villageMohalla":"indralok, PAC parisar, trupati heights, rajan kunj, vevik vihar, gangotri, vrandavan garden, krishna nagar, Roshanpur Dorli","path":"#/menu/tab/medicalDetails","respectedPpl":[{"Name":"Shiv Kumar","so":"Bhula Ram","Address":"Indralok, Roshanpur Dorli","Phone":"9897621618"},{"Name":"Laxman","so":"Chatar Sean","Address":"Indralok, Roshanpur Dorli","Phone":"9837709680"},{"Name":"Amit","so":"Kushal Pal","Address":"Indralok, Roshanpur Dorli","Phone":"9997513580"},{"Name":"Shusila","so":"W/o Pratipal","Address":"Indralok, Roshanpur Dorli","Phone":"9837405749"},{"Name":"Rajneesh","so":"Shadu Ram","Address":"Indralok, Roshanpur Dorli","Phone":"9412639283"}],"retiredGovtSer":[{"Name":"Hans Raj Girowar","so":"Nil","Address":"Roshanpur Dorli","Phone":"Nil"},{"Name":"Kd Sharin","so":"Nil","Address":"Roshanpur Dorli","Phone":"Nil"}],"neighbourPolling":[{"Name":"Sahab Singh","so":"Inderpal","Address":"Pac Compaund, Roshanpur Dorli","Phone":"9457248032"},{"Name":"Jetander Kumar","so":"Surender Singh","Address":"Pac Compaund, Roshanpur Dorli","Phone":"9411620003"},{"Name":"Rakam Singh","so":"Raghuraj","Address":"Pac Compaund, Roshanpur Dorli","Phone":"9411683612"},{"Name":"Harander Pal","so":"Mahender Pal","Address":"Pac Compaund, Roshanpur Dorli","Phone":"9058049309"}],"armsLicenseHolder":[{"Name":"Arjun Singh","so":"Mohar Singh","Address":"Vivek Vihar, Roshan Pur Dorli","Phone":"8864956837","Weapon":"SBBL"},{"Name":"Amit Singh","so":"Kushal Pal","Address":"Inder Lok, Roshan Pur Dorli","Phone":"9997513580","Weapon":"DBBL"},{"Name":"Desh Pal","so":"Bhicky","Address":"Krishna Nagar, Roshan Pur Dorli","Phone":"Nil","Weapon":"DBBL"},{"Name":"Chamanlal","so":"Kiran Singh","Address":"Krishna Nagar, Roshan Pur Dorli","Phone":"Nil","Weapon":"DBBL"},{"Name":"Raj Kumar","so":"Kiran Singh","Address":"Krishna Nagar, Roshan Pur Dorli","Phone":"Nil","Weapon":"DBBL"}],"chowkidar":[{"Name":"Nil","so":"Nil","Address":"Nil","Phone":"Nil"}],"councellor":[{"Name":"Smt. Om Veri  ","so":"Nil","Address":"Roshanpur Dorli","Phone":"9412082561"}],"historySheeter":[{"Name":"Nil","so":"Nil","Address":"Nil","Status":"Nil","Phone":"Nil"}],"convictedCriminals":[{"Name":"Nil","so":"Nil","Address":"Nil","crimeno":"Nil","section":"Nil"}],"crimes5Yrs":[{"Name":"Navab Singh","so":"Suraj Pal","crimeno":"843/13","Section":"420,467,468,471Ipc","Address":"Jawah, Jahgirabad, Blundshar"},{"Name":"Surbhi","so":"D/o Mamu Rana","crimeno":"73/16","Section":"366Ipc","Address":"N/a"},{"Name":"Sashi","so":"W/o Mamu Rana","crimeno":"73/16","Section":"366Ipc","Address":"N/a"},{"Name":"Jyoti","so":"D/o Mamu Rana","crimeno":"73/16","Section":"366Ipc","Address":"N/a"}],"electionCrimes":[{"Name":"Nil","so":"Nil","crimeno":"Nil","Section":"Nil","Address":"Nil"}],"politician":[{"Name":"Nil ","so":"Nil","Address":"Nil","Phone":"Nil"}],"boundDownUnder":"Nil","vulnerabilityDetails":"V. Critical","warrantedCriminals":[{"Name":"Nil","so":"Nil","Address":"Nil","Phone":"Nil"}],"condition":"Good"},{"stationID":"PP-07","stationName":"Dayawati Modi Internation School Modipuram","latitude":" 29.0492","longitude":"77.7073","polingCenterPhoto":"../img/mediPanchayat.png","routes":"../img/3.png","collectionPoint":"../img/3.png","population":"Nil","voters":"2939","villageMohalla":"lalit park, b- poket, c- type, NB colony, V type colony, durga colony, janta colony, shiv vihar, shil kunj, push vihar, modipuram","path":"#/menu/tab/medicalDetails","respectedPpl":[{"Name":"Virander","so":"Aman Singh","Address":"Dev Nagar, Palawpuram Meerut","Phone":"9410685620"},{"Name":"Anurag","so":"Mahesh","Address":"Dev Nagar, Palawpuram Meerut","Phone":"9412204339"},{"Name":"Ajeet","so":"Rajander","Address":"Bharat Vihar, Palawpuram Meerut","Phone":"9412802176"},{"Name":"Keshar","so":"Sohan","Address":"Bharat Vihar, Palawpuram Meerut","Phone":"9358400233"},{"Name":"Om Prakash","so":"Giri Raj","Address":"Bharat Vihar, Palawpuram Meerut","Phone":"9219727396"}],"retiredGovtSer":[{"Name":"Kesar","so":"Sohan","Address":"Bharat Vihar, Palawpuram Meerut","Phone":"9358400233"},{"Name":"Omveer","so":"Amilal","Address":"Bharat Vihar, Palawpuram Meerut","Phone":"9675707826"},{"Name":"Babu Ram","so":"Sher Singh","Address":"Shiv Nagar , Palawpuram Meerut","Phone":"9756606823"},{"Name":"Tej Pal","so":"Jag Mal","Address":"Pushp Vihar, Palaw Puram Meerut","Phone":"8869022365"}],"neighbourPolling":[{"Name":"Vinod Kumar","so":"Ram Saran","Address":"Dev Nagar, Palawpuram Meerut","Phone":"9997671424"},{"Name":"Kuwar Pal","so":"Dharam Singh","Address":"Dev Nagar, Palawpuram Meerut","Phone":"8439245099"},{"Name":"Vipin Kumar","so":"Ram Kumar","Address":"Dev Nagar, Palawpuram Meerut","Phone":"9760430828"},{"Name":"Sonu","so":"Madan Giri","Address":"Dev Nagar, Palawpuram Meerut","Phone":"8171117641"},{"Name":"Yash Pal","so":"Prakash Chand","Address":"Dev Nagar, Palawpuram Meerut","Phone":"9412454034"}],"armsLicenseHolder":[{"Name":"Sunil","so":"Gulveer","Address":"Shiv Nagar, Palawpuram Meerut","Phone":"9412209997","Weapon":"PISTOL"},{"Name":"Arun","so":"Suresh","Address":"Shiv Nagar, Palawpuram Meerut","Phone":"9837344224","Weapon":"PISTOL"},{"Name":"Anuj","so":"Suresh","Address":"Shiv Nagar, Palawpuram Meerut","Phone":"9719864279","Weapon":"PISTOL"},{"Name":"Navneet","so":"Rajander","Address":"Shiv Nagar, Palawpuram Meerut","Phone":"9720004920","Weapon":"PISTOL"},{"Name":"Yogesh","so":"Omdutt","Address":"Shiv Nagar, Palawpuram Meerut","Phone":"9897458459","Weapon":"DBBL"}],"chowkidar":[{"Name":"Nil","so":"Nil","Address":"Nil","Phone":"Nil"}],"councellor":[{"Name":"Smt. Om Veri  ","2Wo":"Nil","Address":"Roshanpur Dorli","Phone":"9412082561"}],"historySheeter":[{"Name":"Nil","so":"Nil","Address":"Nil","Status":"Nil","Phone":"Nil"}],"convictedCriminals":[{"Name":"Nil","so":"Nil","Address":"Nil","crimeno":"Nil","section":"Nil"}],"crimes5Yrs":[{"Name":"Roshan Lal","so":"Nil","crimeno":"681/12","Section":"452,307,506,504Ipc","Address":"Nil"},{"Name":"Sunny","so":"Roshan Lal","crimeno":"681/12","Section":"452,307,506,504Ipc","Address":"Nil"},{"Name":"Kr. Arti","2Do":"Roshan Lal","crimeno":"681/12","Section":"452,307,506,504Ipc","Address":"Nil"},{"Name":"Sakuntala","2Wo":"Roshan Lal","crimeno":"681/12","Section":"452,307,506,504Ipc","Address":"Nil"},{"Name":"Amit","so":"Jai Prakash","crimeno":"46/13","Section":"354,452,504,506Ipc","Address":"Pushp Vihar P.s. P. Puram Mrt"},{"Name":"Amar Deep","so":"Jai Prakash","crimeno":"46/13","Section":"354,452,504,506Iipc","Address":"Pushp Vihar P.s. P. Puram Mrt"}],"electionCrimes":[{"Name":"Nil","so":"Nil","crimeno":"Nil","Section":"Nil","Address":"Nil"}],"politician":[{"Name":"Nil ","so":"Nil","Address":"Nil","Phone":"Nil"}],"boundDownUnder":"Nil","vulnerabilityDetails":"Critical","warrantedCriminals":[{"Name":"Nil","so":"Nil","Address":"Nil","Phone":"Nil"}],"condition":"Good"},{"stationID":"PP-08","stationName":"DMA Pratham Modipuram","latitude":" 29.0642","longitude":" 77.7084","polingCenterPhoto":"../img/mediPanchayat.png","routes":"../img/3.png","collectionPoint":"../img/3.png","population":"Nil","voters":"1470","villageMohalla":"shiv nagar, NC colony, dev nagar, green park, laxmi vihar, bharat vihar, modi teacher's camp, B- pocket","path":"#/menu/tab/medicalDetails","respectedPpl":[{"Name":"Rita","2WO":"Agjeet","Address":"Bharat Vihar, P.puram Mrt","Phone":"9412802176"},{"Name":"Agjeet","so":"Rajander","Address":"Bharat Vihar, P.puram Mrt","Phone":"9412802176"},{"Name":"Dhanpal","so":"Parta Ram","Address":"Bharat Vihar, P.puram Mrt","Phone":"8439807640"},{"Name":"Satypal","so":"Bharat Singh","Address":"Dev Nagar, P.puram Mrt","Phone":"8650976714"},{"Name":"Tej Pal","so":"Jagmal Singh","Address":"Pushp Vihar, P.puram Mrt","Phone":"8869022065"}],"retiredGovtSer":[{"Name":"Rajander","so":"Ramrik","Address":"Bharat Vihar , P.puram Mrt","Phone":"7895781007"},{"Name":"Om Veer","so":"Ami Lal","Address":"Bharat Vihar , P.puram Mrt","Phone":"9675707826"},{"Name":"Om Prakash","so":"Giri Raj","Address":"Bharat Vihar , P.puram Mrt","Phone":"9219727396"},{"Name":"Keshar","so":"Sohan","Address":"Bharat Vihar , P.puram Mrt","Phone":"9358400233"}],"neighbourPolling":[{"Name":"Ajeet","so":"Rajander","Address":"Bharat Vihar,P.puram Mrt","Phone":"9412802176"},{"Name":"Omveer","so":"Ami Lal","Address":"Bharat Vihar,P.puram Mrt","Phone":"9675707826"},{"Name":"Babu Ram","so":"Sher Singh","Address":"Shiv Nagar, P. Puram Mrt","Phone":"9756606823"},{"Name":"Keshar Singh","so":"Sohan Singh","Address":"Bharat Vihar,p.puram Mrt","Phone":"9358400233"},{"Name":"Om Prakash","so":"Giri Raj","Address":"Bharat Vihar,p.puram Mrt","Phone":"9219727396"}],"armsLicenseHolder":[{"Name":"Sunil","so":"Gulveer","Address":"Shiv Nagar, P.puram Mrt","Phone":"9412209977","Weapon":"PISTOL"},{"Name":"Arun","so":"Suresh Chand","Address":"Shiv Nagar, P.puram Mrt","Phone":"9837344224","Weapon":"PISTOL"},{"Name":"Anuj","so":"Suresh Chand","Address":"Shiv Nagar, P.puram Mrt","Phone":"9719864277","Weapon":"PISTOL"},{"Name":"Navneet","so":"Rajander","Address":"Shiv Nagar, P.puram Mrt","Phone":"9720004920","Weapon":"PISTOL"}],"chowkidar":[{"Name":"Nil","so":"Nil","Address":"Nil","Phone":"Nil"}],"councellor":[{"Name":"Rita","2Wo":"Nil","Address":"Bharat Vihar P.puram Mrt","Phone":"9412802176"}],"historySheeter":[{"Name":"Nil","so":"Nil","Address":"Nil","Status":"Nil","Phone":"Nil"}],"convictedCriminals":[{"Name":"Nil","so":"Nil","Address":"Nil","crimeno":"Nil","section":"Nil"}],"crimes5Yrs":[{"Name":"Vinay Gautam","so":"Nil","crimeno":"635/13","Section":"354,504,506Ipc","Address":"Susant City, P. Puram Mrt"},{"Name":"Vijay Aka Manga","so":"Ganga Saran","crimeno":"298/14","Section":"354,452,323,504,506 Ipc","Address":"Janta Colony P.puram Mrt"},{"Name":"Sumit Aka Kalu","so":"Vijay","crimeno":"298/14","Section":"354,452,323,504,506 Ipc","Address":"Janta Colony P.puram Mrt"},{"Name":"Kusum","2Wo":"Vijay","crimeno":"298/14","Section":"354,452,323,504,506 Ipc","Address":"Janta Colony P.puram Mrt"}],"electionCrimes":[{"Name":"Nil","so":"Nil","crimeno":"Nil","Section":"Nil","Address":"Nil"}],"politician":[{"Name":"Nil ","so":"Nil","Address":"Nil","Phone":"Nil"}],"boundDownUnder":"Nil","vulnerabilityDetails":"Critical","warrantedCriminals":[{"Name":"Nil","so":"Nil","Address":"Nil","Phone":"Nil"}],"condition":"Good"},{"stationID":"PP-09","stationName":"Comunity Hall Palawpuram Phase- 2 North Side","latitude":" 29.0517","longitude":" 77.7131","polingCenterPhoto":"../img/mediPanchayat.png","routes":"../img/3.png","collectionPoint":"../img/3.png","population":"Nil","voters":"808","villageMohalla":"B- pocket, BH- pocket, bharat vihar","path":"#/menu/tab/medicalDetails","respectedPpl":[{"Name":"Ajay Kumar","so":"Sundar Lal","Address":"Bh-pocket ,P.puram Mrt","Phone":"9997332734"},{"Name":"Kr. Ruchi","so":"D/o Yogander","Address":"Bh-pocket ,P.puram Mrt","Phone":"9837688741"},{"Name":"Kk Sharma","so":"Ram Prakash","Address":"Bh-pocket ,P.puram Mrt","Phone":"9897896589"},{"Name":"Maha Veer","so":"Malkhan","Address":"Bh-pocket ,P.puram Mrt","Phone":"9410266685"},{"Name":"Savtantr Singh","so":"Zila Singh","Address":"B-pocket ,P.puram Mrt","Phone":"9412205161"}],"retiredGovtSer":[{"Name":"Kk Sharma","so":"Ram Prakash","Address":"Bh- Pocket, P.Puram Mrt","Phone":"9897896589"},{"Name":"Vikram Jeet","so":"Madan Mohan","Address":"Bh- Pocket, P.Puram Mrt","Phone":"9759515763"}],"neighbourPolling":[{"Name":"Shyam","so":"Kundan","Address":"C P.Puram Mrt","Phone":"9927464395"},{"Name":"Davender","so":"Mahveer","Address":"C P.Puram Mrt","Phone":"9557080515"},{"Name":"Jagveer","so":"Malkhan","Address":"C P.Puram Mrt","Phone":"8006904208"},{"Name":"Krishan Kant","so":"An Gupta","Address":"C P.Puram Mrt","Phone":"983784019"},{"Name":"Nirmal Jain","so":"Kailash Jain","Address":"C P.Puram Mrt","Phone":"9837992570"}],"armsLicenseHolder":[{"Name":"Ahmed Khan","so":"Siraj","Address":"Palawpuram Mrt","Phone":"Nil","Weapon":"DBBL"},{"Name":"Jagpal","so":"Bhagmal","Address":"Palawpuram Mrt","Phone":"Nil","Weapon":"DBBL"},{"Name":"Salimudin","so":"Bundu","Address":"Palawpuram Mrt","Phone":"Nil","Weapon":"SBBL"},{"Name":"Ramveer","so":"Har Goving","Address":"Palawpuram Mrt","Phone":"Nil","Weapon":"DBBL"}],"chowkidar":[{"Name":"Nil","so":"Nil","Address":"Nil","Phone":"Nil"}],"councellor":[{"Name":"Pooja","2Wo":"Pradeep","Address":"Bharat Vihar P.Puram Mrt","Phone":"9410230732"}],"historySheeter":[{"Name":"Nil","so":"Nil","Address":"Nil","Status":"Nil","Phone":"Nil"}],"convictedCriminals":[{"Name":"Nil","so":"Nil","Address":"Nil","crimeno":"Nil","section":"Nil"}],"crimes5Yrs":[{"Name":"Nikhil","so":"Ram Veer","crimeno":"390/13","Section":"392Ipc","Address":"Sofipur, P.puram Mrt"},{"Name":"Vishu","so":"Shubhas","crimeno":"390/13","Section":"392Ipc","Address":"Phase-2 P.puram Mrt"},{"Name":"Manauwar","so":"Ahasan","crimeno":"390/13","Section":"392Ipc","Address":"Murlipur Mrt"},{"Name":"Kailash","so":"Nil","crimeno":"242/15","Section":"395 Ipc","Address":"Nagar Nigam Mrt"},{"Name":"Mahesh","so":"Nil","crimeno":"242/15","Section":"395 Ipc","Address":"Nagar Nigam Mrt"},{"Name":"Naveen","so":"Nil","crimeno":"242/15","Section":"395 Ipc","Address":"Nagar Nigam Mrt"},{"Name":"Vinash","so":"Nil","crimeno":"242/15","Section":"395 Ipc","Address":"Nagar Nigam Mrt"},{"Name":"Moni Chandoliya","so":"Dal Chand","crimeno":"242/15","Section":"395 Ipc","Address":"Nagar Nigam Mrt"},{"Name":"Susil","so":"Nil","crimeno":"242/15","Section":"395 Ipc","Address":"Double Story P.puram Phase 2"}],"electionCrimes":[{"Name":"Nil","so":"Nil","crimeno":"Nil","Section":"Nil","Address":"Nil"}],"politician":[{"Name":"Nil ","so":"Nil","Address":"Nil","Phone":"Nil"}],"boundDownUnder":"Nil","vulnerabilityDetails":"Critical","warrantedCriminals":[{"Name":"Nil","so":"Nil","Address":"Nil","Phone":"Nil"}],"condition":"Good"},{"stationID":"PP-10","stationName":"Comunity Hall Palawpuram Phase- 2 South Side","latitude":"  29.0517","longitude":"  77.7131","polingCenterPhoto":"../img/mediPanchayat.png","routes":"../img/3.png","collectionPoint":"../img/3.png","population":"Nil","voters":"2000","villageMohalla":"Pocket-C, CH- Pocket P.Puram,Phase-1","path":"#/menu/tab/medicalDetails","respectedPpl":[{"Name":"Mukesh Jain","so":"Jaiprakash Jain","Address":"P.Puram Phase 1","Phone":"9759734794"},{"Name":"Jasveer","so":"Babu Singh","Address":"P.Puram Phase 2","Phone":"9458403894"},{"Name":"Virander","so":"Ram Singh","Address":"P.Puram Phase 3","Phone":"8791090984"},{"Name":"Rajesh","so":"Nirmal","Address":"P.Puram Phase 4","Phone":"9837392570"},{"Name":"Narander","so":"Jagdesh","Address":"P.Puram Phase 5","Phone":"8006904189"}],"retiredGovtSer":[{"Name":"Ravi Prakash","so":"Laxmi Chand","Address":"Ch P.Puram","Phone":"8979018414"}],"neighbourPolling":[{"Name":"Shyam","so":"Kundan","Address":"C P.Puram Mrt","Phone":"9927464395"},{"Name":"Davender","so":"Mahveer","Address":"C P.Puram Mrt","Phone":"9557080515"},{"Name":"Jagveer","so":"Malkhan","Address":"C P.Puram Mrt","Phone":"8006904208"},{"Name":"Krishan Kant","so":"An Gupta","Address":"C P.Puram Mrt","Phone":"983784019"},{"Name":"Nirmal Jain","so":"Kailash Jain","Address":"C P.Puram Mrt","Phone":"9837992570"}],"armsLicenseHolder":[{"Name":"Smt. Rakesh","2wo":"Harander Singh","Address":"P.puram Mrt","Phone":"Nil","Weapon":"RIVOLVER"},{"Name":"Puhpender","so":"Uday Veer","Address":"P.puram Mrt","Phone":"Nil","Weapon":"RIVOLVER"},{"Name":"Ompal","so":"Jahan Singh","Address":"P.puram Mrt","Phone":"Nil","Weapon":"RIEFAL"},{"Name":"Naveen","so":"Jugander","Address":"P.puram Mrt","Phone":"Nil","Weapon":"PISTOL"},{"Name":"Prem Pal","so":"Bhihari","Address":"P.puram Mrt","Phone":"Nil","Weapon":"RIVOLVER"}],"chowkidar":[{"Name":"Nil","so":"Nil","Address":"Nil","Phone":"Nil"}],"councellor":[{"Name":"Pooja","2Wo":"Pradeep","Address":"Bharat Vihar,P.Puram Mrt","Phone":"9410230732"}],"historySheeter":[{"Name":"Nil","so":"Nil","Address":"Nil","Status":"Nil","Phone":"Nil"}],"convictedCriminals":[{"Name":"Nil","so":"Nil","Address":"Nil","crimeno":"Nil","section":"Nil"}],"crimes5Yrs":[{"Name":"Rahul","so":"Sumar Pal","crimeno":"870/13","Section":"379,411Ipc","Address":"Bheem Nagar Hapur"},{"Name":"Sunil","so":"Naresh Chand","crimeno":"870/13","Section":"379,411Ipc","Address":"Bheem Nagar Hapur"}],"electionCrimes":[{"Name":"Nil","so":"Nil","crimeno":"Nil","Section":"Nil","Address":"Nil"}],"politician":[{"Name":"Nil ","so":"Nil","Address":"Nil","Phone":"Nil"}],"boundDownUnder":"Nil","vulnerabilityDetails":"Critical","warrantedCriminals":[{"Name":"Nil","so":"Nil","Address":"Nil","Phone":"Nil"}],"condition":"Good"},{"stationID":"PP-11","stationName":"Ka0 Aa0 Abhi0 Chatriya Nigam Jal Sansthan Phase 1  Palavpuram","latitude":"  29.0556","longitude":" 77.7106","polingCenterPhoto":"../img/mediPanchayat.png","routes":"../img/3.png","collectionPoint":"../img/3.png","population":"Nil","voters":"3700","villageMohalla":"Pocket ME,MH Phase-2,Pocket- DH,DD Phase-1","path":"#/menu/tab/medicalDetails","respectedPpl":[{"Name":"Shukveer Rastogi","so":"Jai Prakash","Address":"Palavpuram Mrt","Phone":"9997953248"},{"Name":"Dr. Koshal Sharma","so":"Nil","Address":"Palavpuram Mrt","Phone":"0121-2577724"},{"Name":"Dr. Navneet Bansal","so":"Nil","Address":"Palavpuram Mrt","Phone":"9759695566"},{"Name":"Dr. Niranjan Lal","so":"Nil","Address":"Palavpuram Mrt","Phone":"9759650475"},{"Name":"Subash Chand","so":"Nil","Address":"Palavpuram Mrt","Phone":"9837051863"}],"retiredGovtSer":[{"Name":"Jai Chand","so":"Harish Chand","Address":"Palavpuram Mrt","Phone":"9412206853"},{"Name":"Daya Ram","so":"Pugnashvar","Address":"Palavpuram Mrt","Phone":"9411445324"},{"Name":"Braj Mohan","so":"Tika Ram","Address":"Palavpuram Mrt","Phone":"9368309179"}],"neighbourPolling":[{"Name":"Shyam","so":"Kundan","Address":"C P.Puram Mrt","Phone":"9927464395"},{"Name":"Davender","so":"Mahveer","Address":"C P.Puram Mrt","Phone":"9557080515"},{"Name":"Jagveer","so":"Malkhan","Address":"C P.Puram Mrt","Phone":"8006904208"},{"Name":"Krishan Kant","so":"An Gupta","Address":"C P.Puram Mrt","Phone":"983784019"},{"Name":"Nirmal Jain","so":"Kailash Jain","Address":"C P.Puram Mrt","Phone":"9837992570"}],"armsLicenseHolder":[{"Name":"Kuwar Pal","so":"Charan Singh","Address":"Phase-2 Palavpuram, Mrt","Phone":"Nil","Weapon":"RIVOLVER"},{"Name":"Ram Kumar","so":"Mohan","Address":"Phase-2 Palavpuram, Mrt","Phone":"Nil","Weapon":"RIVOLVER"},{"Name":"Virander","so":"Om Prakash","Address":"Phase-2 Palavpuram, Mrt","Phone":"Nil","Weapon":"DBBL"},{"Name":"Manoj","so":"Prem Singh","Address":"Phase-2 Palavpuram, Mrt","Phone":"9410228484","Weapon":"RIVOLVER"},{"Name":"Yash Pal","so":"Devi Singh","Address":"Phase-2 Palavpuram, Mrt","Phone":"9927800726","Weapon":"RIVOLVER"}],"chowkidar":[{"Name":"Nil","so":"Nil","Address":"Nil","Phone":"Nil"}],"councellor":[{"Name":"Pooja","2Wo":"Pradeep","Address":"Bharat Vihar,P.Puram Mrt","Phone":"9410230732"}],"historySheeter":[{"Name":"Nil","so":"Nil","Address":"Nil","Status":"Nil","Phone":"Nil"}],"convictedCriminals":[{"Name":"Nil","so":"Nil","Address":"Nil","crimeno":"Nil","section":"Nil"}],"crimes5Yrs":[{"Name":"Nausad","so":"Safeek","crimeno":"402/15","Section":"376,323,506 Ipc","Address":"Phase-2 P.Puram Mrt"},{"Name":"Alim","so":"Nausad","crimeno":"402/15","Section":"376,323,506 Ipc","Address":"Phase-2 P.Puram Mrt"},{"Name":"Shingh","so":"W/o Nausad","crimeno":"402/15","Section":"376,323,506 Ipc","Address":"Phase-2 P.Puram Mrt"},{"Name":"Muskan","so":"D/o Nausad","crimeno":"402/15","Section":"376,323,506 Ipc","Address":"Phase-2 P.Puram Mrt"},{"Name":"Shanaj","so":"D/o Nausad","crimeno":"402/15","Section":"376,323,506 Ipc","Address":"Phase-2 P.Puram Mrt"},{"Name":"Pramod","so":"Nil","crimeno":"213/16","Section":"354,323,506 Ipc","Address":"Double Storie P.Puram Mrt"}],"electionCrimes":[{"Name":"Nil","so":"Nil","crimeno":"Nil","Section":"Nil","Address":"Nil"}],"politician":[{"Name":"Nil ","so":"Nil","Address":"Nil","Phone":"Nil"}],"boundDownUnder":"Nil","vulnerabilityDetails":"Critical","warrantedCriminals":[{"Name":"Nil","so":"Nil","Address":"Nil","Phone":"Nil"}],"condition":"Good"},{"stationID":"PP-12","stationName":"JS Acadmey Palavpuram Phase-1","latitude":"  29.0517","longitude":" 77.7131","polingCenterPhoto":"../img/mediPanchayat.png","routes":"../img/3.png","collectionPoint":"../img/3.png","population":"Nil","voters":"3700","villageMohalla":"pocket ME, MH phase-2, Pocket- DH,DD phase-1 ","path":"#/menu/tab/medicalDetails","respectedPpl":[{"Name":"Mukesh Jain","so":"Jai Prakash","Address":"Palavpuram Mrt","Phone":"9759734794"},{"Name":"Archan","2wO":"Dharmander","Address":"Palavpuram Mrt","Phone":"8006159408"},{"Name":"Rajesh Kumar","so":"Nirmal Jain","Address":"Palavpuram Mrt","Phone":"9837392570"},{"Name":"Davinder Singh","so":"Chatar Singh","Address":"Palavpuram Mrt","Phone":"9536990854"},{"Name":"Jasveer","so":"Babulal","Address":"Palavpuram Mrt","Phone":"9458403894"}],"retiredGovtSer":[{"Name":"Somveer Vikram Singh","so":"Babu Singh","Address":"Palavpuram Mrt","Phone":"9458403936"},{"Name":"Nirmal Kant","so":"Kailesh Jain","Address":"Palavpuram Mrt","Phone":"9837392570"},{"Name":"Rajander","so":"Phool Singh","Address":"Palavpuram Mrt","Phone":"8979187620"}],"neighbourPolling":[{"Name":"Shyam","so":"Kundan","Address":"C P.Puram Mrt","Phone":"9927464395"},{"Name":"Davender","so":"Mahveer","Address":"C P.Puram Mrt","Phone":"9557080515"},{"Name":"Jagveer","so":"Malkhan","Address":"C P.Puram Mrt","Phone":"8006904208"},{"Name":"Krishan Kant","so":"An Gupta","Address":"C P.Puram Mrt","Phone":"983784019"},{"Name":"Nirmal Jain","so":"Kailash Jain","Address":"C P.Puram Mrt","Phone":"9837992570"}],"armsLicenseHolder":[{"Name":"Manoj Kuamr","so":"Jagveer","Address":"Palavpuram Mrt","Phone":"9412267934","Weapon":"PISTOL"},{"Name":"Pushpander","so":"Jayveer","Address":"Palavpuram Mrt","Phone":"Nil","Weapon":"RIEFAL"},{"Name":"Virander","so":"Rati Ram","Address":"Palavpuram Mrt","Phone":"Nil","Weapon":"PISTOL"},{"Name":"Palav","so":"Tejpal","Address":"Palavpuram Mrt","Phone":"9368989600","Weapon":"SBBL"},{"Name":"Aanand","so":"Dp Moeil","Address":"Palavpuram Mrt","Phone":"Nil","Weapon":"SBBL"}],"chowkidar":[{"Name":"Nil","so":"Nil","Address":"Nil","Phone":"Nil"}],"councellor":[{"Name":"Pooja","2Wo":"Pradeep","Address":"Bharat Vihar,P.Puram Mrt","Phone":"9410230732"}],"historySheeter":[{"Name":"Nil","so":"Nil","Address":"Nil","Status":"Nil","Phone":"Nil"}],"convictedCriminals":[{"Name":"Nil","so":"Nil","Address":"Nil","crimeno":"Nil","section":"Nil"}],"crimes5Yrs":[{"Name":"Singh Raj","so":"Bhopal","crimeno":"271/12","Section":"420,406,504,506 Ipc","Address":"Phase-1 P. Puram"},{"Name":"Muzamil Aka Bhura","so":"Ayub","crimeno":"615/13","Section":"392 Ipc","Address":"Sofipur  P.puram Mrt"},{"Name":"Shumsher","so":"Yahid","crimeno":"615/13","Section":"392 Ipc","Address":"Sahapur P.S. Jaani Mrt"},{"Name":"Manish Aka Bunty","so":"Maha Kar","crimeno":"418/14","Section":"392 Ipc","Address":"Pawarsha P.S. Daurala Mrt"},{"Name":"Yogesh","so":"Jaipal","crimeno":"114/16","Section":"354,452,506 Ipc","Address":"Double Story Phase-2 P.Ppuram Mrt"}],"electionCrimes":[{"Name":"Nil","so":"Nil","crimeno":"Nil","Section":"Nil","Address":"Nil"}],"politician":[{"Name":"Nil ","so":"Nil","Address":"Nil","Phone":"Nil"}],"boundDownUnder":"Nil","vulnerabilityDetails":"Critical","warrantedCriminals":[{"Name":"Nil","so":"Nil","Address":"Nil","Phone":"Nil"}],"condition":"Good"},{"stationID":"PP-13","stationName":"Sahakari Prabhand Prashiksan Kander F- Pocket Palavpuram Phase-1","latitude":"  29.0558","longitude":" 77.7137","polingCenterPhoto":"../img/mediPanchayat.png","routes":"../img/3.png","collectionPoint":"../img/3.png","population":"Nil","voters":"3506","villageMohalla":"pocket-DH,H,I,G,E,F p.puram, pocket- A,F,E, sichayi vibhag colony, pocket- FA,J,FB,FC,FD,FE p. puram hase-1 ","path":"#/menu/tab/medicalDetails","respectedPpl":[{"Name":"Veer Kumar","so":"Jagdesh","Address":"Double Story, P.Puram, Mrt","Phone":"9456229026"},{"Name":"Saleem","so":"Jamaludin","Address":"Double Story, P.Puram, Mrt","Phone":"8307259366"},{"Name":"Nirutam","so":"Gazram","Address":"Double Story, P.Puram, Mrt","Phone":"9634240734"},{"Name":"Islamudin","so":"Nazimudin","Address":"Double Story, P.Puram, Mrt","Phone":"9634867766"},{"Name":"Data Ram","so":"Rati Ram","Address":"Double Story, P.Puram, Mrt","Phone":"9837746990"}],"retiredGovtSer":[{"Name":"Raj Bala","2Wo":"Udesh","Address":"P.Puram Mrt","Phone":"7895694486"},{"Name":"Sher Singh","so":"Gopal","Address":"P.Puram Mrt","Phone":"9027066687"},{"Name":"Vimla","2Eo":"Harkishan","Address":"P.Puram Mrt","Phone":"9895564874"},{"Name":"Subash Chand","so":"Kanchi Mal","Address":"P.Puram Mrt","Phone":"9758074345"}],"neighbourPolling":[{"Name":"Veer Kumar","so":"Jagdesh","Address":"Palavpuram Mrt","Phone":"9456229026"},{"Name":"Kapil","so":"Mahaveer","Address":"Palavpuram Mrt","Phone":"9411600000"},{"Name":"Nirotam","so":"Gazram","Address":"Palavpuram Mrt","Phone":"9634240734"},{"Name":"Pinku","so":"Shes Pal","Address":"Palavpuram Mrt","Phone":"9012358660"}],"armsLicenseHolder":[{"Name":"Soum Dutt","so":"Tara Chand","Address":"Palavpuram , Mrt","Phone":"9259869946","Weapon":"DBBL"},{"Name":"Vikrant","so":"Rakesh","Address":"Palavpuram , Mrt","Phone":"Nil","Weapon":"PISTOL"},{"Name":"Dinesh","so":"Govardhan","Address":"Palavpuram , Mrt","Phone":"Nil","Weapon":"RIVOLVER"},{"Name":"Satesh","so":"Shivnath","Address":"Palavpuram , Mrt","Phone":"Nil","Weapon":"RIVOLVER"},{"Name":"Opander","so":"Veerpal","Address":"Palavpuram , Mrt","Phone":"Nil","Weapon":"RIVOLVER"}],"chowkidar":[{"Name":"Nil","so":"Nil","Address":"Nil","Phone":"Nil"}],"councellor":[{"Name":"Pooja","2Wo":"Pradeep","Address":"Bharat Vihar,P.Puram Mrt","Phone":"9410230732"}],"historySheeter":[{"Name":"Nil","so":"Nil","Address":"Nil","Status":"Nil","Phone":"Nil"}],"convictedCriminals":[{"Name":"Nil","so":"Nil","Address":"Nil","crimeno":"Nil","section":"Nil"}],"crimes5Yrs":[{"Name":"Jitander","so":"Chandu","crimeno":"405/13","Section":"307Ipc","Address":"Palavpuram Mrt"},{"Name":"Gaurav","so":"Bhusan","crimeno":"112/15","Section":"354,323,504,506Ipc","Address":"Phase-1 Palavpuram Mrt"},{"Name":"Saurabh","so":"Bhusan","crimeno":"112/15","Section":"354,323,504,506Ipc","Address":"Phase-1 Palavpuram Mrt"},{"Name":"Bhusan","so":"Nil","crimeno":"112/15","Section":"354,323,504,506Ipc","Address":"Phase-1 Palavpuram Mrt"},{"Name":"Sandeep","so":"Rajpal","crimeno":"272/15","Section":"304b Ipc","Address":"Madhavpuram P.S Bhrampuri Mrt"},{"Name":"Omwati","2Wo":"Rajpal","crimeno":"272/15","Section":"304b Ipc","Address":"Madhavpuram P.S Bhrampuri Mrt"},{"Name":"Krishan","so":"Rajpal","crimeno":"272/15","Section":"304b Ipc","Address":"Madhavpuram P.S Bhrampuri Mrt"},{"Name":"Rajnish","so":"Rajpal","crimeno":"272/15","Section":"304b Ipc","Address":"Madhavpuram P.S Bhrampuri Mrt"},{"Name":"Rito","2Wo":"Krishan","crimeno":"272/15","Section":"304b Ipc","Address":"Madhavpuram P.S Bhrampuri Mrt"},{"Name":"Radha","2Wo":"Rajnish","crimeno":"272/15","Section":"304b Ipc","Address":"Madhavpuram P.S Bhrampuri Mrt"},{"Name":"Poonam","2SDo":"Rajpal","crimeno":"272/15","Section":"304b Ipc","Address":"Madhavpuram P.S Bhrampuri Mrt"}],"electionCrimes":[{"Name":"Nil","so":"Nil","crimeno":"Nil","Section":"Nil","Address":"Nil"}],"politician":[{"Name":"Nil ","so":"Nil","Address":"Nil","Phone":"Nil"}],"boundDownUnder":"Nil","vulnerabilityDetails":"Critical","warrantedCriminals":[{"Name":"Nil","so":"Nil","Address":"Nil","Phone":"Nil"}],"condition":"Critical"},{"stationID":"PP-14","stationName":"Heritage Public School Palavpuram Phase-2","latitude":"  29.0643","longitude":" 77.7167","polingCenterPhoto":"../img/mediPanchayat.png","routes":"../img/3.png","collectionPoint":"../img/3.png","population":"Nil","voters":"2900","villageMohalla":"pocket-o,OH,N,NH,OH,P","path":"#/menu/tab/medicalDetails","respectedPpl":[{"Name":"Ramanand","so":"Mahu Nanadan","Address":"Palavpuram Phase-2","Phone":"9808171710"},{"Name":"Satander Bharala","so":"Nil","Address":"Palavpuram Phase-3","Phone":"Nil"},{"Name":"Papu Pramhuk","so":"Nil","Address":"Palavpuram Phase-4","Phone":"Nil"},{"Name":"Mira Singh","so":"Nil","Address":"Palavpuram Phase-5","Phone":"9219769617"}],"retiredGovtSer":[{"Name":"Manoj Kumar","so":"Subadar","Address":"Palavpuram,mrt","Phone":"9456638558"},{"Name":"Sanjeev","so":"Nil","Address":"Palavpuram,mrt","Phone":"9457181232"}],"neighbourPolling":[{"Name":"Vinesh Kumar","so":"Bharat Singh","Address":"Palavpuram Phase-2 Mrt","Phone":"9927230368"},{"Name":"Manoj Kumar","so":"Subadar","Address":"Palavpuram Phase-2 Mrt","Phone":"9456638558"},{"Name":"Sanjeev Kumar","so":"Subadar","Address":"Palavpuram Phase-2 Mrt","Phone":"9457181232"},{"Name":"Vipin","so":"Shubash","Address":"Palavpuram Phase-2 Mrt","Phone":"7417508803"},{"Name":"Raj Kumar","so":"Siya Ram","Address":"Palavpuram Phase-2 Mrt","Phone":"8126815012"}],"armsLicenseHolder":[{"Name":"Sarad ","so":"Chandar Pal","Address":"Palavpuram Mrt","Phone":"Nil","Weapon":"RIEFAL"},{"Name":"Sanjeev","so":"Govar Dhan","Address":"Palavpuram Mrt","Phone":"Nil","Weapon":"REVOLVER"},{"Name":"Mitul","2Wo":"Digvijay","Address":"Palavpuram Mrt","Phone":"Nil","Weapon":"DBBL"},{"Name":"Gayanader","so":"Javahar","Address":"Palavpuram Mrt","Phone":"Nil","Weapon":"DBBL"},{"Name":"Avdesh","so":"Sataypal","Address":"Palavpuram Mrt","Phone":"Nil","Weapon":"PISTOL"}],"chowkidar":[{"Name":"Nil","so":"Nil","Address":"Nil","Phone":"Nil"}],"councellor":[{"Name":"Pooja","2Wo":"Pradeep","Address":"Bharat Vihar,P.Puram Mrt","Phone":"9410230732"}],"historySheeter":[{"Name":"Ankit","so":"Jai Prakash","Address":"138n Palavpuram Mrt","Status":"Nil","Phone":"Nil"},{"Name":"Virander Singh","so":"Dharam Veer","Address":"O Block Palavpuram Mrt","Status":"Nil","Phone":"Nil"}],"convictedCriminals":[{"Name":"Nil","so":"Nil","Address":"Nil","crimeno":"Nil","section":"Nil"}],"crimes5Yrs":[{"Name":"Salman","so":"Irshad","crimeno":"264/13","Section":"379 Ipc","Address":"Nayi Basti Lavar,incholi"},{"Name":"Mhosin","so":"Jakir","crimeno":"264/13","Section":"379 Ipc","Address":"Nayi Basti Lavar,incholi"},{"Name":"Sakib","so":"Yamin","crimeno":"264/13","Section":"379 Ipc","Address":"Nayi Basti Lavar,incholi"},{"Name":"Ajay","so":"Dharam Pal","crimeno":"150/16","Section":"324,452,504,506ipc","Address":"Daurala, Mrt"}],"electionCrimes":[{"Name":"Nil","so":"Nil","crimeno":"Nil","Section":"Nil","Address":"Nil"}],"politician":[{"Name":"Nil ","so":"Nil","Address":"Nil","Phone":"Nil"}],"boundDownUnder":"Nil","vulnerabilityDetails":"Critical","warrantedCriminals":[{"Name":"Nil","so":"Nil","Address":"Nil","Phone":"Nil"}],"condition":"Good"},{"stationID":"PP-15","stationName":"Krishna Public Shchool Palavpuram Phase-2","latitude":"   29.0592","longitude":" 77.7197","polingCenterPhoto":"../img/mediPanchayat.png","routes":"../img/3.png","collectionPoint":"../img/3.png","population":"Nil","voters":"700","villageMohalla":"pocket-P,PH,PEW   , palavpuram phase-2","path":"#/menu/tab/medicalDetails","respectedPpl":[{"Name":"Vijander","so":"Inder Jeet","Address":"Phalavpuram Phase-2","Phone":"9411618338"},{"Name":"Sobha Devi","so":"Shubham","Address":"Phalavpuram Phase-2","Phone":"9873231019"},{"Name":"Satander Singh","so":"Rameshwar","Address":"Phalavpuram Phase-2","Phone":"9927008954"},{"Name":"Surander","so":"Balver","Address":"Phalavpuram Phase-2","Phone":"9837559005"}],"retiredGovtSer":[{"Name":"Nil","so":"Nil","Address":"Nil","Phone":"Nil"}],"neighbourPolling":[{"Name":"Jitander","so":"Bhopal","Address":"Palavpuram Phase-2","Phone":"9837384446"},{"Name":"Nitu Tiwari","2Wo":"Arun","Address":"Palavpuram Phase-2","Phone":"9458203200"},{"Name":"Davender","so":"Janshwar","Address":"Palavpuram Phase-2","Phone":"9639022655"},{"Name":"Dhirander","so":"Rameshwar","Address":"Palavpuram Phase-2","Phone":"9897451733"},{"Name":"Satyapal","so":"Karan","Address":"Palavpuram Phase-2","Phone":"9997630895"}],"armsLicenseHolder":[{"Name":"Rajpal","so":"Ramgopal","Address":"Palavpuram Phase-2","Phone":"Nil","Weapon":"RIVOLVER"},{"Name":"Sudheer Rana","so":"Kps","Address":"Palavpuram Phase-2","Phone":"Nil","Weapon":"RIVOLVER"},{"Name":"Pramod Kumar","so":"Hari Singh","Address":"Palavpuram Phase-2","Phone":"Nil","Weapon":"RIEFAL"},{"Name":"Tej Veer","so":"Jai Pal","Address":"Palavpuram Phase-2","Phone":"Nil","Weapon":"DBBL"},{"Name":"Gyan Prakash","so":"Mukut Bhihari","Address":"Palavpuram Phase-2","Phone":"Nil","Weapon":"RIVOLVER"}],"chowkidar":[{"Name":"Nil","so":"Nil","Address":"Nil","Phone":"Nil"}],"councellor":[{"Name":"Pooja","2Wo":"Pradeep","Address":"Bharat Vihar,P.Puram Mrt","Phone":"9410230732"}],"historySheeter":[{"Name":"Vijay Tara","so":"Surender Chauhan","Address":"Palavpuram Mrt","Status":"Nil","Phone":"Nil"},{"Name":"Rahul Chaudary","so":"Omkar","Address":"Palavpuram Mrt","Status":"Nil","Phone":"Nil"}],"convictedCriminals":[{"Name":"Nil","so":"Nil","Address":"Nil","crimeno":"Nil","section":"Nil"}],"crimes5Yrs":[{"Name":"Pramod","so":"Harphool","crimeno":"213/16","Section":"354,323,506Ipc","Address":"Double Story Palavpuram Phase 2"}],"electionCrimes":[{"Name":"Nil","so":"Nil","crimeno":"Nil","Section":"Nil","Address":"Nil"}],"politician":[{"Name":"Nil ","so":"Nil","Address":"Nil","Phone":"Nil"}],"boundDownUnder":"Nil","vulnerabilityDetails":"Critical","warrantedCriminals":[{"Name":"Nil","so":"Nil","Address":"Nil","Phone":"Nil"}],"condition":"Good"},{"stationID":"PP-16","stationName":"DMA Junior High  School Modipuram","latitude":"  29.0545","longitude":" 77.7078","polingCenterPhoto":"../img/mediPanchayat.png","routes":"../img/3.png","collectionPoint":"../img/3.png","population":"Nil","voters":"2416","villageMohalla":"pocket-Q,K,R,S,T,S,TH, dhulhara chungi, grader appu enclav, CPRI colony, akshar dham, Pocket-Q, susant city, grater palavpuram phase 2","path":"#/menu/tab/medicalDetails","respectedPpl":[{"Name":"Praveen","so":"Harpal","Address":"Palavpuram Phase-2 Mrt","Phone":"9808383564"},{"Name":"Omprakash","so":"Giri Raj","Address":"Palavpuram Phase-2 Mrt","Phone":"9219727396"},{"Name":"Virander","so":"Aman","Address":"Palavpuram Phase-2 Mrt","Phone":"9410685620"},{"Name":"Keshar","so":"Sohan","Address":"Palavpuram Phase-2 Mrt","Phone":"9358400233"},{"Name":"Anurag","so":"Giri Raj","Address":"Palavpuram Phase-2 Mrt","Phone":"9219727396"}],"retiredGovtSer":[{"Name":"Tejpal","so":"Jagmal","Address":"Palavpuram Phase-2","Phone":"8869022065"},{"Name":"Omveer","so":"Amelal","Address":"Palavpuram Phase-2","Phone":"9675707826"},{"Name":"Babu Ram","so":"Sher Singh","Address":"Palavpuram Phase-2","Phone":"Nil"}],"neighbourPolling":[{"Name":"Vinod Kumar","so":"Ram Saran","Address":"Dev Nagar Palavpuram Phase-2 Mrt","Phone":"9997671424"},{"Name":"Kuwar Pal","so":"Dharam Singh","Address":"Dev Nagar Palavpuram Phase-2 Mrt","Phone":"8439245099"},{"Name":"Sonu","so":"Madan","Address":"Dev Nagar Palavpuram Phase-2 Mrt","Phone":"8171117941"},{"Name":"Yash Pal","so":"Prakash Chand","Address":"Dev Nagar Palavpuram Phase-2 Mrt","Phone":"9412454034"},{"Name":"Vipin Kumar","so":"Ram Kumar","Address":"Dev Nagar Palavpuram Phase-2 Mrt","Phone":"9760430328"}],"armsLicenseHolder":[{"Name":"Pradeep","so":"Gulveer","Address":"Palavpuram Phase-2","Phone":"9897693771","Weapon":"RIVOLVER"},{"Name":"Rajkumar","so":"Dariyab","Address":"Palavpuram Phase-2","Phone":"Nil","Weapon":"RIVOLVER"},{"Name":"Braj Mohan","so":"Suraj Bhan","Address":"Palavpuram Phase-2","Phone":"9719973777","Weapon":"RIVOLVER"},{"Name":"Ghurander Kumar","so":"Vedpal","Address":"Palavpuram Phase-2","Phone":"9410030028","Weapon":"PISTOL"},{"Name":"Zila Singh","so":"Shiv Charan","Address":"Palavpuram Phase-2","Phone":"Nil","Weapon":"SBBL"}],"chowkidar":[{"Name":"Nil","so":"Nil","Address":"Nil","Phone":"Nil"}],"councellor":[{"Name":"Nil","2Wo":"Nil","Address":"Nil","Phone":"Nil"}],"historySheeter":[{"Name":"Sumit Badhwa","so":"Shukdev","Address":"S-131 Palavpuram Phase-2","Status":"Nil","Phone":"Nil"}],"convictedCriminals":[{"Name":"Nil","so":"Nil","Address":"Nil","crimeno":"Nil","section":"Nil"}],"crimes5Yrs":[{"Name":"Dr. Vinod","so":"Mahaveer","crimeno":"480/12","Section":"420Ipc","Address":"Pusha Instute Delhi"},{"Name":"Bhati","so":"Rishipal","crimeno":"398/14","Section":"392Ipc","Address":"Lishari Gate Mrt"},{"Name":"Sachin","so":"Dalu","crimeno":"177/16","Section":"379,411Ipc","Address":"Palhada Palavpuram Mrt"}],"electionCrimes":[{"Name":"Nil","so":"Nil","crimeno":"Nil","Section":"Nil","Address":"Nil"}],"politician":[{"Name":"Nil ","so":"Nil","Address":"Nil","Phone":"Nil"}],"boundDownUnder":"Nil","vulnerabilityDetails":"Critical","warrantedCriminals":[{"Name":"Nil","so":"Nil","Address":"Nil","Phone":"Nil"}],"condition":"Good"},{"stationID":"PP-17","stationName":"Prathmik Vidhiyaliya Palavpuram Palhada","latitude":"  29.0605","longitude":" 77.7124","polingCenterPhoto":"../img/mediPanchayat.png","routes":"../img/3.png","collectionPoint":"../img/3.png","population":"Nil","voters":"1442","villageMohalla":"mubrikpur palhada-1,mubrikpur palhada-2,","path":"#/menu/tab/medicalDetails","respectedPpl":[{"Name":"Lekh Raj","so":"Asha Ram","Address":"Palhada, Palavpuram","Phone":"9897539726"},{"Name":"Raju","so":"Manphool","Address":"Palhada, Palavpuram","Phone":"8445936916"},{"Name":"Anuradha","2WO":"Harish Kumar","Address":"Palhada, Palavpuram","Phone":"8958910920"},{"Name":"Vipin","so":"Gopal","Address":"Palhada, Palavpuram","Phone":"8410157091"},{"Name":"Deepak","so":"Bhram Singh","Address":"Palhada, Palavpuram","Phone":"7417815176"}],"retiredGovtSer":[{"Name":"Nil","so":"Nil","Address":"Nil","Phone":"Nil"}],"neighbourPolling":[{"Name":"Sarfaraz","so":"Irshad","Address":"Palhada, Palavpuram","Phone":"9761292981"},{"Name":"Yashpal","so":"Swaraj","Address":"Palhada, Palavpuram","Phone":"8941919649"},{"Name":"Ajeet","so":"Kachadu","Address":"Palhada, Palavpuram","Phone":"7417370521"},{"Name":"Mahander","so":"Sompal","Address":"Palhada, Palavpuram","Phone":"8445671231"},{"Name":"Veer Sain","so":"Rameshwar","Address":"Palhada, Palavpuram","Phone":"7417370521"}],"armsLicenseHolder":[{"Name":"Phool Singh","so":"Ram Prashad","Address":"Palhada, Palavpuram","Phone":"Nil","Weapon":"RIEFAL"},{"Name":"Chatar Pal","so":"Bhartu","Address":"Palhada, Palavpuram","Phone":"Nil","Weapon":"RIEFAL"},{"Name":"Nane Singh","so":"Veer Singh","Address":"Palhada, Palavpuram","Phone":"9897140816","Weapon":"DBBL"},{"Name":"Braj Pal","so":"Dharam Pal","Address":"Palhada, Palavpuram","Phone":"Nil","Weapon":"PISTOL"},{"Name":"Parvander","so":"Brajpal","Address":"Palhada, Palavpuram","Phone":"92195891101","Weapon":"PISTOL"}],"chowkidar":[{"Name":"Nil","so":"Nil","Address":"Nil","Phone":"Nil"}],"councellor":[{"Name":"Pooja ","2Wo":"Pradeep","Address":"Palhada,P.Puram Mrt","Phone":"9410230732"}],"historySheeter":[{"Name":"Kalu Aka Aash Mahod.","so":"Karimudin","Address":"Palhada, Palavpuram Mrt","Status":"Nil","Phone":"Nil"}],"convictedCriminals":[{"Name":"Nil","so":"Nil","Address":"Nil","crimeno":"Nil","section":"Nil"}],"crimes5Yrs":[{"Name":"Bablu","so":"Rama","crimeno":"128/12","Section":"30,75,04,506","Address":"Palhada, Palavpuram Mrt"},{"Name":"Gaza Singh","so":"Maher Singh","crimeno":"135/12","Section":"356 Ipc","Address":"Sikhada, Incholi Mrt"},{"Name":"Rohit","so":"Rajpal","crimeno":"135/12","Section":"356 Ipc","Address":"Govindpuri Kharkoda Mrt"},{"Name":"Pradeep","so":"Baburam","crimeno":"255/14","Section":"354,323,504,506ipc","Address":"Duwarika Puri Khankerkhara Mrt"},{"Name":"Sabir","so":"Yunus","crimeno":"782/14","Section":"363,366 Ipc","Address":"Sival Khas, Jaani Mrt"},{"Name":"Javed","so":"Sona","crimeno":"782/14","Section":"363,366 Ipc","Address":"Sival Khas, Jaani Mrt"}],"electionCrimes":[{"Name":"Nil","so":"Nil","crimeno":"Nil","Section":"Nil","Address":"Nil"}],"politician":[{"Name":"Nil ","so":"Nil","Address":"Nil","Phone":"Nil"}],"boundDownUnder":"Nil","vulnerabilityDetails":"V.Critical","warrantedCriminals":[{"Name":"Nil","so":"Nil","Address":"Nil","Phone":"Nil"}],"condition":"Good"},{"stationID":"PP-18","stationName":"Ucch Prathmik Vidhyaliya Mubarak Pur Palhada Palavpuram","latitude":"  29.0645","longitude":" 77.7124","polingCenterPhoto":"../img/mediPanchayat.png","routes":"../img/3.png","collectionPoint":"../img/3.png","population":"Nil","voters":"734","villageMohalla":"mubarikpur, palhada-3","path":"#/menu/tab/medicalDetails","respectedPpl":[{"Name":"Lekh Raj","so":"Asha Ram","Address":"Plahada, Palavpuram","Phone":"9897539726"},{"Name":"Raju","so":"Maan Phool","Address":"Plahada, Palavpuram","Phone":"8445936916"},{"Name":"Anuradha","so":"W/o Harish Kumar","Address":"Plahada, Palavpuram","Phone":"8958910920"},{"Name":"Vipin","so":"Gopal","Address":"Plahada, Palavpuram","Phone":"8410157091"},{"Name":"Deepak","so":"Bhram Singh","Address":"Plahada, Palavpuram","Phone":"7417815176"}],"retiredGovtSer":[{"Name":"Nil","so":"Nil","Address":"Nil","Phone":"Nil"}],"neighbourPolling":[{"Name":"Sarfaraz","so":"Irshad","Address":"Palhada, Palavpuram","Phone":"9761292981"},{"Name":"Yashpal","so":"Swaraj","Address":"Palhada, Palavpuram","Phone":"8941919649"},{"Name":"Ajeet","so":"Kachadu","Address":"Palhada, Palavpuram","Phone":"7417370521"},{"Name":"Mahander","so":"Sompal","Address":"Palhada, Palavpuram","Phone":"8445671231"},{"Name":"Veer Sain","so":"Rameshwar","Address":"Palhada, Palavpuram","Phone":"7417370521"}],"armsLicenseHolder":[{"Name":"Ranveer","so":"Lekh Ram","Address":"Palhada Palavpuram","Phone":"Nil","Weapon":"RIEFAL"},{"Name":"Gazander","so":"Ramchander","Address":"Palhada Palavpuram","Phone":"Nil","Weapon":"RIVOLVER"},{"Name":"Chandar Kiran","so":"Roop Singh","Address":"Palhada Palavpuram","Phone":"Nil","Weapon":"DBBL"},{"Name":"Ashok","so":"Aatma Ram","Address":"Palhada Palavpuram","Phone":"Nil","Weapon":"DBBL"},{"Name":"Kuwar Pal","so":"Ajay Singh","Address":"Palhada Palavpuram","Phone":"Nil","Weapon":"DBBL"}],"chowkidar":[{"Name":"Nil","so":"Nil","Address":"Nil","Phone":"Nil"}],"councellor":[{"Name":"Pooja ","2Wo":"Pradeep","Address":"Palhada,P.Puram Mrt","Phone":"9410230732"}],"historySheeter":[{"Name":"Bhram Singh","so":"Amar Singh","Address":"Plahda Palavpuram","Status":"Nil","Phone":"Nil"}],"convictedCriminals":[{"Name":"Nil","so":"Nil","Address":"Nil","crimeno":"Nil","section":"Nil"}],"crimes5Yrs":[{"Name":"Ajay","so":"Nil","crimeno":"498/15","Section":"147,307,352 Ipc","Address":"Plahada Palavpuram"},{"Name":"Karan Singh","so":"Dharam Veer","crimeno":"498/15","Section":"147,307,352 Ipc","Address":"Plahada Palavpuram"},{"Name":"Shiv Pratap Aka Shankar","so":"Nil","crimeno":"498/15","Section":"147,307,352 Ipc","Address":"Plahada Palavpuram"},{"Name":"Gaurav","so":" D.lal","crimeno":"498/15","Section":"147,307,352 Ipc","Address":"Plahada Palavpuram"}],"electionCrimes":[{"Name":"Nil","so":"Nil","crimeno":"Nil","Section":"Nil","Address":"Nil"}],"politician":[{"Name":"Nil ","so":"Nil","Address":"Nil","Phone":"Nil"}],"boundDownUnder":"Nil","vulnerabilityDetails":"V.Critical","warrantedCriminals":[{"Name":"Nil","so":"Nil","Address":"Nil","Phone":"Nil"}],"condition":"Good"},{"stationID":"PP-19","stationName":"Ambedkar Bhavan Kaksh No Pilna Sofipur","latitude":"  29.0286","longitude":" 77.7152","polingCenterPhoto":"../img/mediPanchayat.png","routes":"../img/3.png","collectionPoint":"../img/3.png","population":"Nil","voters":"1350","villageMohalla":"pilna sofipur-1","path":"#/menu/tab/medicalDetails","respectedPpl":[{"Name":"Jaypal","so":"Aatram","Address":"Pilna, Sofipur","Phone":"9997030482"},{"Name":"Dhaaram Veer","so":"Deepchand","Address":"Pilna, Sofipur","Phone":"9557357429"},{"Name":"Ram Singh","so":"Nehru","Address":"Pilna, Sofipur","Phone":"8865986905"},{"Name":"Dharmander","so":"Ram Charan","Address":"Pilna, Sofipur","Phone":"7417622760"}],"retiredGovtSer":[{"Name":"Jaipal Singh","so":"Aatram","Address":"Pilna Sofipur","Phone":"9997030482"}],"neighbourPolling":[{"Name":"Dharamander","so":"Ram Charan","Address":"Pilna Sofipur","Phone":"7417622760"},{"Name":"Jaipal","so":"Aatram","Address":"Pilna Sofipur","Phone":"9997030482"},{"Name":"Rajveer","so":"Charan Singh","Address":"Pilna Sofipur","Phone":"9045539980"},{"Name":"Harpal","so":"Aatram","Address":"Pilna Sofipur","Phone":"9997030482"},{"Name":"Shukveer ","so":"Charan Singh","Address":"Pilna Sofipur","Phone":"7417622760"}],"armsLicenseHolder":[{"Name":"Chandr Kand","so":"Raja Ram","Address":"Pilna Sofipur","Phone":"9456823127","Weapon":"RIEFAL"},{"Name":"Chunnu Lal","so":"Ramnath","Address":"Pilna Sofipur","Phone":"9456445517","Weapon":"RIEFAL"},{"Name":"Jetander","so":"Omveer Singh","Address":"Pilna Sofipur","Phone":"Nil","Weapon":"RIEFAL"},{"Name":"Mukul Sankar","so":"Victor","Address":"Pilna Sofipur","Phone":"9758777077","Weapon":"RIEFAL"},{"Name":"Yogander","so":"Braj Pal","Address":"Pilna Sofipur","Phone":"Nil","Weapon":"DBBL"}],"chowkidar":[{"Name":"Sunder","so":"Bhagwan","Address":"Nil","Phone":"9639181218"}],"councellor":[{"Name":"Omveri","2Wo":"Nil","Address":"Nil","Phone":"9412082561"}],"historySheeter":[{"Name":"Suraj Aka Surju","so":"Ram Charan","Address":"Pilna Sofipur","Status":"Dead","Phone":"Nil"},{"Name":"Denesh","so":"Paana Lal","Address":"Pilna Sofipur","Status":"Present","Phone":"Nil"},{"Name":"Yasin","so":"Basirudin","Address":"Pilna Sofipur","Status":"Present","Phone":"Nil"},{"Name":"Amir Aalam","so":"Noor Mohd.","Address":"Pilna Sofipur","Status":"Present","Phone":"Nil"}],"convictedCriminals":[{"Name":"Nil","so":"Nil","Address":"Nil","crimeno":"Nil","section":"Nil"}],"crimes5Yrs":[{"Name":"Nayim","so":"Safik","crimeno":"237/12","Section":"377Ipc","Address":"Sofipur"},{"Name":"Nitin","so":"Baburam","crimeno":"549/13","Section":"354a Ipc","Address":"Sofipur"},{"Name":"Vikas","so":"Rajkumar","crimeno":"549/13","Section":"354a Ipc","Address":"Sofipur"},{"Name":"Abishek","so":"Ashok","crimeno":"154/16","Section":"354Ipc","Address":"Sofipur"},{"Name":"Salman","so":"Asad","crimeno":"71/16","Section":"354Ipc","Address":"Plahda"},{"Name":"Manoj","so":"Ganga Aka Kalu","crimeno":"90/16","Section":"452,354,376,506 Ipc","Address":"Sofipur"}],"electionCrimes":[{"Name":"Nil","so":"Nil","crimeno":"Nil","Section":"Nil","Address":"Nil"}],"politician":[{"Name":"Nil ","so":"Nil","Address":"Nil","Phone":"Nil"}],"boundDownUnder":"Nil","vulnerabilityDetails":"V.Critical","warrantedCriminals":[{"Name":"Nil","so":"Nil","Address":"Nil","Phone":"Nil"}],"condition":"Good"},{"stationID":"PP-20","stationName":"Prathmik Vidhyaliya(front of gurudwara ) Pilna Sofipur","latitude":"  29.0287","longitude":" 77.7127","polingCenterPhoto":"../img/mediPanchayat.png","routes":"../img/3.png","collectionPoint":"../img/3.png","population":"Nil","voters":"1900","villageMohalla":"pilna sofipur-2, new friends colony-1 , pilna sofipur-3, new friends colony-2","path":"#/menu/tab/medicalDetails","respectedPpl":[{"Name":"Hira Mal","so":"Kishan Lal","Address":"Pilna Sofipur","Phone":"8791497960"},{"Name":"Shiv Charan","so":"Paana Lal","Address":"Pilna Sofipur","Phone":"7830812088"},{"Name":"Bharat Bhusan","so":"Amrat Lal","Address":"Pilna Sofipur","Phone":"9410891743"},{"Name":"Anil","so":"Kishan Lal","Address":"Pilna Sofipur","Phone":"8535071625"},{"Name":"Praveen","so":"Amar Singh","Address":"Pilna Sofipur","Phone":"9627903980"}],"retiredGovtSer":[{"Name":"Shiv Charan","so":"Paana Lal","Address":"Pilna Sofipur","Phone":"7830812088"},{"Name":"Amar Singh","so":"Sohan Lal","Address":"Pilna Sofipur","Phone":"9627903980"}],"neighbourPolling":[{"Name":"Prabhu","so":"Badlu","Address":"Pilna Sofipur","Phone":"7351370667"},{"Name":"Vijay","so":"Ramjani","Address":"Pilna Sofipur","Phone":"8979477433"},{"Name":"Balveer","so":"Husiyara","Address":"Pilna Sofipur","Phone":"9639512150"},{"Name":"Susil","so":"Amar Singh","Address":"Pilna Sofipur","Phone":"9627903980"},{"Name":"Damodar","so":"Ram Saran","Address":"Pilna Sofipur","Phone":"7060385292"}],"armsLicenseHolder":[{"Name":"Vinod","so":"Lal Singh","Address":"Pilna Sofipur","Phone":"Nil","Weapon":"SBBl"},{"Name":"Surender","so":"Naval Singh","Address":"Pilna Sofipur","Phone":"Nil","Weapon":"DBBl"},{"Name":"Dharam Veer","so":"Roop Singh","Address":"Pilna Sofipur","Phone":"Nil","Weapon":"DBBl"},{"Name":"Om Kari","so":"Jagveer","Address":"Pilna Sofipur","Phone":"Nil","Weapon":"SBBl"},{"Name":"Yogander","so":"Brajpal","Address":"Pilna Sofipur","Phone":"Nil","Weapon":"DBBl"}],"chowkidar":[{"Name":"Sunder","so":"Bhagwan","Address":"Nil","Phone":"9639181218"}],"councellor":[{"Name":"Omveri","2Wo":"Nil","Address":"Nil","Phone":"9412082561"}],"historySheeter":[{"Name":"Tej Veer","so":"Phool Singh","Address":"Pilna Sofipur","Status":"Present","Phone":"Nil"},{"Name":"Kishan","so":"Surjeet","Address":"Pilna Sofipur","Status":"Present","Phone":"Nil"},{"Name":"Babu Lal","so":"Phool Singh","Address":"Pilna Sofipur","Status":"Present","Phone":"Nil"},{"Name":"Sunil Aka Changa","so":"Rhothash","Address":"Pilna Sofipur","Status":"Present","Phone":"Nil"}],"convictedCriminals":[{"Name":"Nil","so":"Nil","Address":"Nil","crimeno":"Nil","section":"Nil"}],"crimes5Yrs":[{"Name":"Anikt","so":"Mahender","crimeno":"818/12","Section":"376,511Ipc","Address":"Pilna Sofipur"},{"Name":"Neeraj","so":"Krishanpal","crimeno":"206/15","Section":"392 Ipc","Address":"Pilna Sofipur"},{"Name":"Ram Babu","so":"Santi Swaroop","crimeno":"435/15","Section":"328,376ipc","Address":"Pas Company Roshanpur Dorli"},{"Name":"Samuval Aka Samu","so":"Nil","crimeno":"115/16","Section":"376,506 Ipc","Address":"Nil"}],"electionCrimes":[{"Name":"Nil","so":"Nil","crimeno":"Nil","Section":"Nil","Address":"Nil"}],"politician":[{"Name":"Naseem Pasa  ","so":"Zindsan","Address":"Pilna Sofipur","Phone":"9152709944"},{"Name":"Naresh Sani ","so":"Chandan Singh","Address":"Pilna Sofipur","Phone":"9837558292"}],"boundDownUnder":"30","vulnerabilityDetails":"V.Critical","warrantedCriminals":[{"Name":"Nil","so":"Nil","Address":"Nil","Phone":"Nil"}],"condition":"Good"},{"stationID":"PP-21","stationName":"College Of Applied Education Helgth Science Pilna Sofipur","latitude":"  29.0322","longitude":" 77.7118","polingCenterPhoto":"../img/mediPanchayat.png","routes":"../img/3.png","collectionPoint":"../img/3.png","population":"Nil","voters":"2100","villageMohalla":"Pilna sofipur-4, Pilna sofipur-5, Pilna sofipur-6, tripati garden, gangotri, godvin state, gangotri-2, green city, godvin state-2, ganpati enclave, indrprast state, new friends colony-3","path":"#/menu/tab/medicalDetails","respectedPpl":[{"Name":"Vimla Malik","2WO":"Ns Malik","Address":"Gangotri, Pilna Sofipur","Phone":"9837999171"},{"Name":"Sachin","so":"Ramesh","Address":"Gangotri, Pilna Sofipur","Phone":"9897433636"},{"Name":"Omander","so":"Surender","Address":"Gangotri, Pilna Sofipur","Phone":"9412206507"},{"Name":"Shekar","so":"Kk Sharma","Address":"Gangotri, Pilna Sofipur","Phone":"9997539259"},{"Name":"Naresh Sharma","so":"Nil","Address":"Gangotri, Pilna Sofipur","Phone":"9648866050"}],"retiredGovtSer":[{"Name":"Naresh Sharma","so":"Nil","Address":"Gangotri, Pilna Sofipur","Phone":"9648866050"}],"neighbourPolling":[{"Name":"Prabhu","so":"Badlu","Address":"Pilna Sofipur","Phone":"7351370667"},{"Name":"Vijay","so":"Ramjani","Address":"Pilna Sofipur","Phone":"8979477433"},{"Name":"Balveer","so":"Husiyara","Address":"Pilna Sofipur","Phone":"9639512150"},{"Name":"Susil","so":"Amar Singh","Address":"Pilna Sofipur","Phone":"9627903980"},{"Name":"Damodar","so":"Ram Saran","Address":"Pilna Sofipur","Phone":"7060385292"}],"armsLicenseHolder":[{"Name":"Braj Sain","so":"Ram Murti","Address":"Pilna Sofipur","Phone":"9456897086","Weapon":"DBBL"},{"Name":"Braj Sain","so":"Ram Murti","Address":"Pilna Sofipur","Phone":"9456897086","Weapon":"RIEFAL"},{"Name":"Vinod ","so":"Lal Singh","Address":"Pilna Sofipur","Phone":"Nil","Weapon":"SBBL"},{"Name":"Dharam Veer","so":"Roop Singh","Address":"Pilna Sofipur","Phone":"Nil","Weapon":"DBBL"}],"chowkidar":[{"Name":"Sunder","so":"Bhagwan","Address":"Nil","Phone":"9639181218"}],"councellor":[{"Name":"Omveri","2Wo":"Nil","Address":"Nil","Phone":"9412082561"}],"historySheeter":[{"Name":"Nil","so":"Nil","Address":"Nil","Status":"Nil","Phone":"Nil"}],"convictedCriminals":[{"Name":"Nil","so":"Nil","Address":"Nil","crimeno":"Nil","section":"Nil"}],"crimes5Yrs":[{"Name":"Ankit","so":"Satveer","crimeno":"980/13","Section":"354Ipc","Address":"Sofipur"},{"Name":"Gyanendar","so":"Nil","crimeno":"57/16","Section":"304aIpc","Address":"Sofipur"},{"Name":"Asif","so":"Basir","crimeno":"180/16","Section":"379,411Ipc","Address":"Purva Ahmed Nagar Jali Khot, Dhele Gate"}],"electionCrimes":[{"Name":"Nil","so":"Nil","crimeno":"Nil","Section":"Nil","Address":"Nil"}],"politician":[{"Name":"Nil","so":"Nil","Address":"Nil","Phone":"Nil"}],"boundDownUnder":"Nil","vulnerabilityDetails":"V.Critical","warrantedCriminals":[{"Name":"Nil","so":"Nil","Address":"Nil","Phone":"Nil"}],"condition":"Good"},{"stationID":"PP-22","stationName":"Ucch Prathmik Vidhyaliya Dhanju","latitude":"  29.0808","longitude":" 77.7339","polingCenterPhoto":"../img/mediPanchayat.png","routes":"../img/3.png","collectionPoint":"../img/3.png","population":"Nil","voters":"2200","villageMohalla":"dhanju-1, dhanju-2","path":"#/menu/tab/medicalDetails","respectedPpl":[{"Name":"Sita Ram","so":"Nathan","Address":"Dhanju","Phone":"9557432289"},{"Name":"Vedpal","so":"Kali Charan","Address":"Dhanju","Phone":"9760065928"},{"Name":"Deepak","so":"Arvind","Address":"Dhanju","Phone":"9719564770"},{"Name":"Guru Mohit","so":"Yograj","Address":"Dhanju","Phone":"9917438090"},{"Name":"Satander","so":"Nil","Address":"Dhanju","Phone":"9837313514"}],"retiredGovtSer":[{"Name":"Balwant","so":"Guru Dayal","Address":"Dhanju","Phone":"8449725932"},{"Name":"Mahender","so":"Sankar","Address":"Dhanju","Phone":"8958308240"}],"neighbourPolling":[{"Name":"Jugnu","so":"Netra Pal","Address":"Dhanju","Phone":"9837971711"},{"Name":"Amchu","so":"Raghuvar","Address":"Dhanju","Phone":"8057673806"},{"Name":"Rahul","so":"Vachan","Address":"Dhanju","Phone":"9837134682"},{"Name":"Ram Raaju","so":"Virander","Address":"Dhanju","Phone":"9927009101"}],"armsLicenseHolder":[{"Name":"Ravinder","so":"Mahkar","Address":"Dhanju","Phone":"Nil","Weapon":"RIEFAL"},{"Name":"Vipin","so":"Balveer","Address":"Dhanju","Phone":"9568544243","Weapon":"DBBL"},{"Name":"Padam Raj","so":"Bhram Pal","Address":"Dhanju","Phone":"8171723616","Weapon":"DBBL"},{"Name":"Munesh","so":"Ishwar","Address":"Dhanju","Phone":"Nil","Weapon":"DBBL"},{"Name":"Dhanveer","so":"Ram Saroop","Address":"Dhanju","Phone":"9756556280","Weapon":"DBBL"}],"chowkidar":[{"Name":"Sunil","so":"Baljeet ","Address":"Dhanju","Phone":"9634076552"}],"councellor":[{"Name":"Sita Ram","so":"nathu","Address":"Dhanju","Phone":"9557432289"}],"historySheeter":[{"Name":"Hari Darshan","so":"Hari Singh","Address":"Dhanju","Status":"Present","Phone":"Nil"},{"Name":"Yogander Aka Yogesh","so":"Arvind","Address":"Dhanju","Status":"Present","Phone":"9719564770"}],"convictedCriminals":[{"Name":"Nil","so":"Nil","Address":"Nil","crimeno":"Nil","section":"Nil"}],"crimes5Yrs":[{"Name":"Ganga Dhar","so":"Shiv Charan","crimeno":"655/13","Section":"147,148,341,353,506 Ipc","Address":"Dhanju"},{"Name":"Anirudh","so":"Ganga Dhar","crimeno":"655/13","Section":"147,148,341,353,506 Ipc","Address":"Dhanju"},{"Name":"Anuj","so":"Om Dutt","crimeno":"655/13","Section":"147,148,341,353,506 Ipc","Address":"Dhanju"},{"Name":"Yogesh Kumar","so":"Arvind","crimeno":"135/14","Section":"406,420,467,468,471 Ipc","Address":"Dhanju"},{"Name":"Arvind","so":"Ram Chander","crimeno":"135/14","Section":"406,420,467,468,471 Ipc","Address":"Dhanju"},{"Name":"Deepak","so":"Ramkumar","crimeno":"135/14","Section":"406,420,467,468,471 Ipc","Address":"Dhanju"},{"Name":"Santram","so":"Nil","crimeno":"135/14","Section":"406,420,467,468,471 Ipc","Address":"Dhanju"},{"Name":"Sandeep","so":"Lalu","crimeno":"290/14","Section":"363,366,506 Ipc","Address":"Dhanju"},{"Name":"Hari Darshan","so":"Hari Singh","crimeno":"18/15","Section":"420,406,506 Ipc","Address":"Dhanju"}],"electionCrimes":[{"Name":"Nil","so":"Nil","crimeno":"Nil","Section":"Nil","Address":"Nil"}],"politician":[{"Name":"Yogesh Verma Aka Yogender","so":"Arvind","Address":"Dhanju","Phone":"9719564770"},{"Name":"Rajan  Verma","so":"Arvind","Address":"Dhanju","Phone":"9719564770"}],"boundDownUnder":"Nil","vulnerabilityDetails":"V.Critical","warrantedCriminals":[{"Name":"Nil","so":"Nil","Address":"Nil","Phone":"Nil"}],"condition":"Good"},{"stationID":"PP-23","stationName":"Jai Kishan Inter College Dhulhara Chauhan","latitude":"  29.0756","longitude":" 77.7206","polingCenterPhoto":"../img/mediPanchayat.png","routes":"../img/3.png","collectionPoint":"../img/3.png","population":"Nil","voters":"4300","villageMohalla":"dhulada chauhan -1, dhulada chauhan-2,dhulada chauhan-3,dhulada chauhan-4","path":"#/menu/tab/medicalDetails","respectedPpl":[{"Name":"Rajeev Aka Bablu","so":"Karan Singh","Address":"Dhulada Chauhan","Phone":"9568109333"},{"Name":"Prem Pal","so":"Salekh Chand","Address":"Dhulada Chauhan","Phone":"9412663574"},{"Name":"Bhud Singh","so":"Nathu","Address":"Dhulada Chauhan","Phone":"9756052326"},{"Name":"Azad Singh","so":"Jagveer","Address":"Dhulada Chauhan","Phone":"9286573803"},{"Name":"Mar Kanda","so":"Shuk Veer","Address":"Dhulada Chauhan","Phone":"9411487571"}],"retiredGovtSer":[{"Name":"Balveer","so":"Bhud Prakash","Address":"Dhulada Chauhan","Phone":"9837617079"},{"Name":"Tara Chand","so":"Shadev","Address":"Dhulada Chauhan","Phone":"8954066947"},{"Name":"Babu Ram","so":"Daya Ram","Address":"Dhulada Chauhan","Phone":"9927208695"},{"Name":"Shree Chand","so":"Tej Ram","Address":"Dhulada Chauhan","Phone":"7500696937"}],"neighbourPolling":[{"Name":"Veer Singh","so":"Chandr Bhan","Address":"Dhulada Chauhan","Phone":"8958257369"},{"Name":"Vijander","so":"Charan Singh","Address":"Dhulada Chauhan","Phone":"9012904104"},{"Name":"Manoj","so":"Oma Nand","Address":"Dhulada Chauhan","Phone":"9917782340"},{"Name":"Vinod","so":"Rahuvar","Address":"Dhulada Chauhan","Phone":"9758659363"},{"Name":"Vijander","so":"Shiv Charan","Address":"Dhulada Chauhan","Phone":"9012904104"}],"armsLicenseHolder":[{"Name":"Saatya Pal","so":"Pyara Lal","Address":"Dhulada Chauhan","Phone":"9837386613","Weapon":"DBBL"},{"Name":"Dharam Pal","so":"Hukum Singh","Address":"Dhulada Chauhan","Phone":"8126887782","Weapon":"DBBL"},{"Name":"Vinod","so":"Raghuvar","Address":"Dhulada Chauhan","Phone":"9758659363","Weapon":"RIEFAL"},{"Name":"Hukum Singh","so":"Murari","Address":"Dhulada Chauhan","Phone":"9536859613","Weapon":"RIEFAL"},{"Name":"Virander","so":"Charan Singh","Address":"Dhulada Chauhan","Phone":"9012904104","Weapon":"DBBL"}],"chowkidar":[{"Name":"Patel","so":"Bhobi chand","Address":"Dhulahda Chauhan","Phone":"7351468992"}],"councellor":[{"Name":"Vidhotma Chauhan","2Wo":"Rajveer","Address":"Dhulahda Chauhan","Phone":"9568109333"}],"historySheeter":[{"Name":"Vijander Aka Sikari","so":"Keshav Ram","Address":"Dhulahad Chauhan","Status":"Present","Phone":"Nil"}],"convictedCriminals":[{"Name":"Nil","so":"Nil","Address":"Nil","crimeno":"Nil","section":"Nil"}],"crimes5Yrs":[{"Name":"Kalu","so":"Vedu","crimeno":"576/12","Section":"147,148,323,307 Ipc ,3(1)10 Sc/st Act","Address":"Dhulahad Chauhan"},{"Name":"Ramesh","so":"Vedu","crimeno":"576/12","Section":"147,148,323,307 Ipc ,3(1)10 Sc/st Act","Address":"Dhulahad Chauhan"},{"Name":"Arun","so":"Kalu","crimeno":"576/12","Section":"147,148,323,307 Ipc 3(1)10 Sc/st Act","Address":"Dhulahad Chauhan"},{"Name":"Manju","2Wo":"Kalu","crimeno":"576/12","Section":"147,148,323,307 Ipc ,3(1)10 Sc/st Act","Address":"Dhulahad Chauhan"},{"Name":"Anju","2Wo":"Ramesh","crimeno":"576/12","Section":"147,148,323,307 Ipc ,3(1)10 Sc/st Act","Address":"Dhulahad Chauhan"},{"Name":"Gudu","so":"Rohan","crimeno":"599/13","Section":"147,148,354,324,307,504,506Ipc ,3(1)10 Sc/st Act","Address":"Dhulahad Chauhan"},{"Name":"Bablu","so":"Monu","crimeno":"599/13","Section":"147,148,354,324,307,504,506Ipc,3(1)10 Sc/st Act","Address":"Dhulahad Chauhan"},{"Name":"Mukul","so":"Rodal","crimeno":"599/13","Section":"147,148,354,324,307,504,506Ipc,3(1)10 Sc/st Act","Address":"Dhulahad Chauhan"},{"Name":"Manjeet","so":"N/a","crimeno":"599/13","Section":"147,148,354,324,307,504,506Ipc,3(1)10 Sc/st Act","Address":"Dhulahad Chauhan"},{"Name":"Rohit","so":"Ashok","crimeno":"613/14","Section":"306Ipc","Address":"Dhulahad Chauhan"},{"Name":"Ravinder","so":"Sunil","crimeno":"48/15","Section":"302Ipc","Address":"Bicholli, Ps. Incholi"},{"Name":"Amrath","so":"Jawhar","crimeno":"48/15","Section":"302Ipc","Address":"Dhulahad Chauhan"},{"Name":"Antim","2D":"Jawhar","crimeno":"48/15","Section":"302Ipc","Address":"Dhulahad Chauhan"}],"electionCrimes":[{"Name":"Nil","so":"Nil","crimeno":"Nil","Section":"Nil","Address":"Nil"}],"politician":[{"Name":"Lalit","so":"Ramesh","Address":"Dhulaha Chauhan","Phone":"9720001175"},{"Name":"Gaurav","so":"Chetan","Address":"Dhulaha Chauhan","Phone":"9759171100"}],"boundDownUnder":"Nil","vulnerabilityDetails":"V.Critical","warrantedCriminals":[{"Name":"Nil","so":"Nil","Address":"Nil","Phone":"Nil"}],"condition":"Good"},{"stationID":"PP-24","stationName":"Ucch prathmik vidhyaliya khanodan","latitude":"  29.0702","longitude":" 77.7545","polingCenterPhoto":"../img/mediPanchayat.png","routes":"../img/3.png","collectionPoint":"../img/3.png","population":"Nil","voters":"2200","villageMohalla":"khanoda-1, khanoda-2","path":"#/menu/tab/medicalDetails","respectedPpl":[{"Name":"Jai Prakash","so":"Dhan Singh","Address":"Khanoda","Phone":"9917539501"},{"Name":"Krishan Pal","so":"Phool Singh","Address":"Khanoda","Phone":"9927208064"},{"Name":"Anish","so":"Kalan","Address":"Khanoda","Phone":"9411668207"},{"Name":"Rajveer","so":"Kachadu","Address":"Khanoda","Phone":"9837099510"},{"Name":"Ratan","so":"Paltu Ram","Address":"Khanoda","Phone":"9761777491"}],"retiredGovtSer":[{"Name":"Ramfal","so":"Chotelal","Address":"Khanoda","Phone":"9917534013"},{"Name":"Mahaveer","so":"Mam Chand","Address":"Khanoda","Phone":"9837645564"},{"Name":"Rampal","so":"Fakira","Address":"Khanoda","Phone":"9557796417"}],"neighbourPolling":[{"Name":"Jai Prakash","so":"Dhan Singh","Address":"Khanoda","Phone":"9917539501"},{"Name":"Mahender","so":"Dhan Singh","Address":"Khanoda","Phone":"8958351037"},{"Name":"Om Veer","so":"Zila Singh","Address":"Khanoda","Phone":"9559243246"},{"Name":"Mahveer","so":"Mam Chand","Address":"Khanoda","Phone":"9837645564"},{"Name":"Suraj","so":"Asha Ram","Address":"Khanoda","Phone":"9319515716"}],"armsLicenseHolder":[{"Name":"Kachadu","so":"Jagram","Address":"Khanoda","Phone":"9997136986","Weapon":"DBBL"},{"Name":"Jag Saran","so":"Hukum Singh","Address":"Khanoda","Phone":"Nil","Weapon":"DBBL"},{"Name":"Akbar","so":"Chaman","Address":"Khanoda","Phone":"9627065709","Weapon":"DBBL"},{"Name":"Daud","so":"Ramjani","Address":"Khanoda","Phone":"9758419419","Weapon":"DBBL"},{"Name":"Ganga Saran","so":"Khajan","Address":"Khanoda","Phone":"9758955529","Weapon":"DBBL"}],"chowkidar":[{"Name":"Rakesh","so":"Hukam Singh","Address":"Khanoda","Phone":"9927911703"}],"councellor":[{"Name":"Radha","2Wo":"Krishan Pal","Address":"Khanoda","Phone":"9927208064"}],"historySheeter":[{"Name":"Nil","so":"Nil","Address":"Nil","Status":"Nil","Phone":"Nil"}],"convictedCriminals":[{"Name":"Nil","so":"Nil","Address":"Nil","crimeno":"Nil","section":"Nil"}],"crimes5Yrs":[{"Name":"Madan","so":"Veer Singh","crimeno":"503/13","Section":"452,307Ipc","Address":"Khanoda"},{"Name":"Ajeet","so":"Veer Singh","crimeno":"503/13","Section":"452,307Ipc","Address":"Khanoda"},{"Name":"Bunty","so":"Veer Singh","crimeno":"503/13","Section":"452,307Ipc","Address":"Khanoda"},{"Name":"Veer Singh","so":"Nil","crimeno":"503/13","Section":"452,307Ipc","Address":"Khanoda"},{"Name":"Senser Pal","so":"Mam Chand","crimeno":"112/14","Section":"376,511 Ipc ","Address":"Khanoda"},{"Name":"Papu","so":"Ram Singh","crimeno":"448/15 ","Section":"376 Ipc,3/4 Poksho Act","Address":"Khanoda"}],"electionCrimes":[{"Name":"Nil","so":"Nil","crimeno":"Nil","Section":"Nil","Address":"Nil"}],"politician":[{"Name":"Nil","so":"Nil","Address":"Nil","Phone":"Nil"}],"boundDownUnder":"Nil","vulnerabilityDetails":"V.Critical","warrantedCriminals":[{"Name":"Nil","so":"Nil","Address":"Nil","Phone":"Nil"}],"condition":"Good"}]