[{"stationID":"RR-01","stationName":"Kariyaliy Prathmik Shiksha Sadan","latitude":"28.9817","longitude":"77.6950","polingCenterPhoto":"../img/mediPanchayat.png","routes":"../img/3.png","collectionPoint":"../img/3.png","population":"Nil","voters":"2341","villageMohalla":"Muck Murrabu","path":"#/menu/tab/medicalDetails","respectedPpl":[{"Name":"Saleem Netaji","so":"Kalwa","Address":"Mack Murrabu","Phone":"9837636488"},{"Name":"Gulfam ","so":"Rehman","Address":"mack murrabu","Phone":"9897869729"},{"Name":"Saleem Mewati","so":"Sapeek Ahemed","Address":"Mack Murrabu","Phone":"8394999786"},{"Name":"Anesh","so":"Shyed Ahemed","Address":"Mack Murrabu","Phone":"9897317334"},{"Name":"Abbas","so":"Jumshed","Address":"Mack Murrabu","Phone":"9897624216"}],"retiredGovtSer":[{"Name":"Nil","so":"Nil","Address":"Nil","Phone":"Nil"}],"neighbourPolling":[{"Name":"Ashvani","so":"Mahesh","Address":"Prathmik Shiksha Sadan","Phone":"8899582860"},{"Name":"Safikudeen","so":"Mohd. Saddiq","Address":"Kaser Gang","Phone":"8909761132"},{"Name":"Anvaar Ali","so":"Mohd. Saddiq","Address":"Kaser Gang","Phone":"9837261221"},{"Name":"Mohd. Anvar","so":"Nuur Mohd.","Address":"Kaser Gang","Phone":"9358806998"},{"Name":"Rishipal","so":"Hari Singh","Address":"Kaser Gang","Phone":"7895504616"}],"armsLicenseHolder":[{"Name":"Jumshed Ali","so":"Chand Khan","Address":"333 Muckbura Abbu","Phone":"Nil","Weapon":"SBBL"}],"chowkidar":[{"Name":"Nil","so":"Nil","Address":"Nil","Phone":"Nil"}],"councellor":[{"Name":"Shri Mati Tahirra","so":"W/o Mumtaj","Address":"153 Purva Hafiz Abdul Kareem, Railway Road Meerut","Phone":"9219139248"}],"historySheeter":[{"Name":"Shyed Aka Sajju","so":"Abdul Rajak","Address":"Makbara Abbu","Status":"Present","Phone":"Nil"},{"Name":"Saleem","so":"Kareem Mulla","Address":"Makbara Abbu","Status":"Missing","Phone":"Nil"},{"Name":"Yusif","so":"Raffiq","Address":"Makbara Abbu","Status":"Missing","Phone":"Nil"},{"Name":"Umardaraj","so":"Surver","Address":"Makbara Abbu","Status":"Present","Phone":"Nil"}],"convictedCriminals":[{"Name":"Nil","so":"Nil","Address":"Nil","crimeno":"Nil","section":"Nil"}],"crimes5Yrs":[{"Name":"Shyed","so":"Karam Ilahi","crimeno":"69/12","Section":"147/323/452 IPC","Address":"Mackbara Abu"},{"Name":"Sausha","so":"Karam Ilahi","crimeno":"69/12","Section":"147/323/452 IPC","Address":"Mackbara Abu"},{"Name":"Salaudeen","so":"Karam Ilahi","crimeno":"69/12","Section":"147/323/452 IPC","Address":"Mackbara Abu"},{"Name":"Shyajad","so":"Karam Ilahi","crimeno":"69/12","Section":"147/323/452 IPC","Address":"Mackbara Abu"},{"Name":"Shuaib","so":"Islam","crimeno":"69/12","Section":"147/323/452 IPC","Address":"Mackbara Abu"},{"Name":"Addila","so":"Karam Ilahi","crimeno":"69/12","Section":"147/323/452 IPC","Address":"Mackbara Abu"},{"Name":"Irfan","so":"Kalwa","crimeno":"176/15","Section":"308/323/504/506 IPC","Address":"Mackbara Abu"},{"Name":"Adnan","so":"Saleem","crimeno":"176/15","Section":"308/323/504/506 IPC","Address":"Mackbara Abu"},{"Name":"Zishan","so":"Saleem","crimeno":"176/15","Section":"308/323/504/506 IPC","Address":"Mackbara Abu"},{"Name":"Imran","so":"Saleem","crimeno":"54/13","Section":"377/506/323 Ipc 3/4 Pos Co. Act","Address":"Mackbara Abu"},{"Name":"Shakhrukh","so":"Bhoore","crimeno":"137/15","Section":"376/506/323 Ipc 3/4 Pos Co. Act","Address":"Mackbara Abu"},{"Name":"Bhoore","so":"Rafeq","crimeno":"137/15","Section":"376/506/323 Ipc 3/4 Pos Co. Act","Address":"Mackbara Abu"},{"Name":"Shri Mati Salma","so":"W/o Bhoore","crimeno":"137/15","Section":"376/506/323 Ipc 3/4 Pos Co. Act","Address":"Mackbara Abu"},{"Name":"Intzaar","so":"Ajijuddin","crimeno":"54/16","Section":"377 Ipc 3/4 Pos Co. Act","Address":"Mackbara Abu"}],"electionCrimes":[{"Name":"Nil","so":"Nil","crimeno":"Nil","Section":"Nil","Address":"Nil"}],"politician":[{"Name":"Sahkuk Ali","so":"Nil","Address":"Nil","Phone":"9837592986"},{"Name":"Sanjida","so":"Nil","Address":"Nil","Phone":"8650086800"},{"Name":"Irshad Jahan","so":"Nil","Address":"Nil","Phone":"8171000434"},{"Name":"Saleem Mevati","so":"Nil","Address":"Nil","Phone":"8394999786"}],"boundDownUnder":"28","vulnerabilityDetails":"Very Critical","warrantedCriminals":[{"Name":"Nil","so":"Nil","Address":"Nil","Phone":"Nil"}],"condition":"Good"},{"stationID":"RR-02","stationName":"Ucch Prathmik Vidyalaya Kasergunj","latitude":"28.9817","longitude":"77.6950","polingCenterPhoto":"../img/mediPanchayat.png","routes":"../img/3.png","collectionPoint":"../img/3.png","population":"Nil","voters":"2439","villageMohalla":"Mackabra Abbu, Mackbara Diggi","path":"#/menu/tab/medicalDetails","respectedPpl":[{"Name":"Shri Israil","so":"Farman","Address":"Mackbra Abbu","Phone":"9410453370"},{"Name":"Shreef","so":"Shafiq","Address":"Mackbra Abbu","Phone":"9808777043"},{"Name":"Sammem Ahemed","so":"Habibu Rehaman","Address":"Mackbra Abbu","Phone":"9319311461"},{"Name":"Shyed Alam","so":"Abdul Hamid","Address":"Mackbra Abbu","Phone":"9358209298"},{"Name":"Saleem Mewati","so":"Shafiq Ahemed","Address":"Mackbra Abbu","Phone":"8394999786"}],"retiredGovtSer":[{"Name":"Nil","so":"Nil","Address":"Nil","Phone":"Nil"}],"neighbourPolling":[{"Name":"Ashvani","so":"Mahesh","Address":"Prathmik Shiksha Sadan","Phone":"8899582860"},{"Name":"Safikudeen","so":"Mohd. Saddiq","Address":"Kaser Gang","Phone":"8909761132"},{"Name":"Anvaar Ali","so":"Mohd. Saddiq","Address":"Kaser Gang","Phone":"9837261221"},{"Name":"Mohd. Anvar","so":"Nuur Mohd.","Address":"Kaser Gang","Phone":"9358806998"},{"Name":"Rishipal","so":"Hari Singh","Address":"Kaser Gang","Phone":"7895504616"},{"Name":"Rajender Singh","so":"Seyaram","Address":"Kaser Gang","Phone":"9639714076"}],"armsLicenseHolder":[{"Name":"Mohd. Sakir","so":"Altab Hussain","Address":"217 Mackbara Deggi","Phone":"N/A","Weapon":"Pistol"}],"chowkidar":[{"Name":"Nil","so":"Nil","Address":"Nil","Phone":"Nil"}],"councellor":[{"Name":"Shri Mati Tahirra","so":"W/o Mumtaj","Address":"153 Purva Hafiz Abdul Kareem,  Railway Road Meerut","Phone":"9219139248"}],"historySheeter":[{"Name":"Umardaraj","so":"Surver","Address":"Mackbara Diggi","Status":"Present","Phone":"Nil"}],"convictedCriminals":[{"Name":"Nil","so":"Nil","Address":"Nil","crimeno":"Nil","section":"Nil"}],"crimes5Yrs":[{"Name":"Tahir Aka Babli","so":"Noor Mohd.","crimeno":"227/14","Section":"147/148/149/353/341/427/395/397 Va 7cl Act","Address":"Mackbara Diggi"},{"Name":"Mannan","so":"Nawabudeen","crimeno":"227/14","Section":"147/148/149/353/341/427/395/397 Va 7cl Act","Address":"Mackbara Diggi"},{"Name":"Mnadeem","so":"Saleem Mucchar","crimeno":"227/14","Section":"147/148/149/353/341/427/395/397 Va 7cl Act","Address":"Mackbara Diggi"},{"Name":"Bilal","so":"Saleem","crimeno":"227/14","Section":"147/148/149/353/341/427/395/397 Va 7cl Act","Address":"Mackbara Diggi"},{"Name":"Asif","so":"Wakil","crimeno":"227/14","Section":"147/148/149/353/341/427/395/397 Va 7cl Act","Address":"Mackbara Diggi"},{"Name":"Dilshad","so":"Yasin","crimeno":"227/14","Section":"147/148/149/353/341/427/395/397 Va 7cl Act","Address":"Mackbara Diggi"},{"Name":"Ramjan","so":"Islam","crimeno":"227/14","Section":"147/148/149/353/341/427/395/397 Va 7cl Act","Address":"Mackbara Diggi"},{"Name":"Irshad Aka Banda","so":"Yasin","crimeno":"227/14","Section":"147/148/149/353/341/427/395/397 Va 7cl Act","Address":"Mackbara Diggi"},{"Name":"Shanawaj","so":"Abdul Reheman","crimeno":"227/14","Section":"147/148/149/353/341/427/395/397 Va 7cl Act","Address":"Mackbara Diggi"},{"Name":"Kasif Aka Bablu","so":"Farimudeen","crimeno":"227/14","Section":"147/148/149/353/341/427/395/397 Va 7cl Act","Address":"Mackbara Diggi"},{"Name":"Abid","so":"Nasrudeen","crimeno":"227/14","Section":"147/148/149/353/341/427/395/397 Va 7cl Act","Address":"Mackbara Diggi"},{"Name":"Jawad","so":"Ahasan","crimeno":"227/14","Section":"147/148/149/353/341/427/395/397 Va 7cl Act","Address":"Mackbara Diggi"},{"Name":"Sajidid","so":"Usman","crimeno":"227/14","Section":"147/148/149/353/341/427/395/397 Va 7cl Act","Address":"Mackbara Diggi"},{"Name":"Bhola Aka Usman","so":"Usman","crimeno":"227/14","Section":"147/148/149/353/341/427/395/397 Va 7cl Act","Address":"Mackbara Diggi"},{"Name":"Danish","so":"Mulla Ashfaq","crimeno":"227/14","Section":"147/148/149/353/341/427/395/397 Va 7cl Act","Address":"Purva Phayez Ali Delhi Gate"},{"Name":"Mujadhid","so":"Nijamudeen","crimeno":"11/15.","Section":"354/354 K Ipc Va 7/8 Posco","Address":"Mackbara Abbu Majariya Chalk"}],"electionCrimes":[{"Name":"Nil","so":"Nil","crimeno":"Nil","Section":"Nil","Address":"Nil"}],"politician":[{"Name":"Sahkuk Ali","so":"Nil","Address":"Nil","Phone":"9837592986"},{"Name":"Sanjida","so":"Nil","Address":"Nil","Phone":"8650086800"},{"Name":"Irshad Jahan","so":"Nil","Address":"Nil","Phone":"8171000434"},{"Name":"Saleem Mevati","so":"Nil","Address":"Nil","Phone":"8394999786"},{"Name":"Saleem Netaji","so":"Nil","Address":"Nil","Phone":"9837636488"},{"Name":"Shrimati Mena","so":"Nil","Address":"Nil","Phone":"7310646667"}],"boundDownUnder":"30","vulnerabilityDetails":"Very Critical","warrantedCriminals":[{"Name":"Nil","so":"Nil","Address":"Nil","Phone":"Nil"}],"condition":"Good"},{"stationID":"RR-03","stationName":"Praimary Kaniya Vidhyaliya Purva Maheveer","latitude":"28.9817","longitude":"77.6950","polingCenterPhoto":"../img/mediPanchayat.png","routes":"../img/3.png","collectionPoint":"../img/3.png","population":"Nil","voters":"2480","villageMohalla":"Macakbra Abbu, Mackbara Diggi, Mackbara Gosheyan","path":"#/menu/tab/medicalDetails","respectedPpl":[{"Name":"Ileyas","so":"Kallu","Address":"Mackbara Diggi","Phone":"9719017895"},{"Name":"Mohd.jahid","so":"Fida Husain","Address":"Mackbara Ghoseyan","Phone":"9897491870"},{"Name":"Mohd. Masum","so":"Maulana Sharafed Hussain","Address":"Mackbara Ghoseyan","Phone":"9837592986"},{"Name":"Isreyali","so":"Farman","Address":"Mackbara Abbu","Phone":"9410453370"}],"retiredGovtSer":[{"Name":"Nil","so":"Nil","Address":"Nil","Phone":"Nil"}],"neighbourPolling":[{"Name":"Ashvani","so":"Mahesh","Address":"Prathmik Shiksha Sadan","Phone":"8899582860"},{"Name":"Safikudeen","so":"Mohd. Saddiq","Address":"Kaser Gang","Phone":"8909761132"},{"Name":"Anvaar Ali","so":"Mohd. Saddiq","Address":"Kaser Gang","Phone":"9837261221"},{"Name":"Mohd. Anvar","so":"Nuur Mohd.","Address":"Kaser Gang","Phone":"9358806998"},{"Name":"Rishipal","so":"Hari Singh","Address":"Kaser Gang","Phone":"7895504616"},{"Name":"Rajender Singh","so":"Seyaram","Address":"Kaser Gang","Phone":"9639714076"}],"armsLicenseHolder":[{"Name":"Saleem","so":"Mohmeen","Address":"69 Makbara Ghoshiyan","Phone":"N/a","Weapon":"Dbbl"},{"Name":"Deepak Aggarwal","so":"Subash Chand","Address":"Kesar Ganj, Railway Road Meerut","Phone":"N/a","Weapon":"Revolver"},{"Name":"Varun Kumar","so":"Jagdesh Prasad","Address":"Kesar Ganj, Railway Road Meerut","Phone":"N/a","Weapon":"Rifle"},{"Name":"Pradeep Kumar","so":"Subash Chand","Address":"Kesar Ganj, Railway Road Meerut","Phone":"N/a","Weapon":"Dbbl"},{"Name":"Bhramdutt Gupta","so":"Harish Chand","Address":"Kesar Ganj, Railway Road Meerut","Phone":"N/a","Weapon":"Pistol"},{"Name":"Yogesh Gupta","so":"Chandra Pal","Address":"Kesar Ganj, Railway Road Meerut","Phone":"N/a","Weapon":"Sbbl"},{"Name":"Brajbhushan","so":"Premashwar Prasad","Address":"Kesar Ganj, Railway Road Meerut","Phone":"N/a","Weapon":"Dbbl"},{"Name":"Divesh Kumar","so":"Unesh Kumar","Address":"Kesar Ganj, Railway Road Meerut","Phone":"N/a","Weapon":"Revolver"},{"Name":"Ram","so":"Jiya Ram","Address":"Kesar Ganj, Railway Road Meerut","Phone":"N/a","Weapon":"Revolver"},{"Name":"Manager Sbi","so":"N/a","Address":"Kesar Ganj, Railway Road Meerut","Phone":"N/a","Weapon":"Dbbl"},{"Name":"Chandra Prakash","so":"Daya Kishan","Address":"Kesar Ganj, Railway Road Meerut","Phone":"N/a","Weapon":"Sbbl"},{"Name":"Jahan Chand","so":"Jiya Lal","Address":"Kesar Ganj, Railway Road Meerut","Phone":"N/a","Weapon":"Sbbl"},{"Name":"Mohd. Praveed","so":"Phekaldulkeram","Address":"Kesar Ganj, Railway Road Meerut","Phone":"N/a","Weapon":"Pistol"},{"Name":"Shri Uma Shankar Gupta","so":"Shri Gupta","Address":"Kesar Ganj, Railway Road Meerut","Phone":"N/a","Weapon":"Sbbl"},{"Name":"Ved Prakash Gupta","so":"Vidhya Nand","Address":"Kesar Ganj, Railway Road Meerut","Phone":"N/a","Weapon":"Rifle"},{"Name":"Ajit Kumar","so":"Yaad Ram","Address":"Kesar Ganj, Railway Road Meerut","Phone":"N/a","Weapon":"Rifle"},{"Name":"Sat Prakash","so":"Vidhya Nand","Address":"Kesar Ganj, Railway Road Meerut","Phone":"N/a","Weapon":"Sbbl"},{"Name":"Vijay Kumar","so":"Buldev","Address":"Kesar Ganj, Railway Road Meerut","Phone":"N/a","Weapon":"N/a"},{"Name":"Ved Prakash Gupta","so":"Vidhya Nand","Address":"Kesar Ganj, Railway Road Meerut","Phone":"N/a","Weapon":"Pistol"},{"Name":"Sundar Singh","so":"Harish Chand","Address":"Kesar Ganj, Railway Road Meerut","Phone":"N/a","Weapon":"Dbbl"},{"Name":"Achal Singhal","so":"Krishan Gopal","Address":"Kesar Ganj, Railway Road Meerut","Phone":"N/a","Weapon":"Pistol"}],"chowkidar":[{"Name":"Nil","so":"Nil","Address":"Nil","Phone":"Nil"}],"councellor":[{"Name":"Shri Mati Tahirra","so":"W/o Mumtaj","Address":"153 Purva Hafiz Abdul Kareem, Railway Road Meerut","Phone":"9219139248"}],"historySheeter":[{"Name":"Yusif","so":"Jhangir","Address":"Macheyram Station Railway Road","Status":"Missing","Phone":"Nil"},{"Name":"Taslim","so":"Mohd. Saleem","Address":"Macheyram Station Railway Road","Status":"Jail","Phone":"Nil"},{"Name":"Rajis Aka Andda","so":"Yaqub","Address":"Macheyram Station Railway Road","Status":"Present","Phone":"Nil"},{"Name":"Habbib","so":"Hanif Aka Kallu","Address":"Macheyram Station Railway Road","Status":"Missing","Phone":"Nil"},{"Name":"Kayamudeen","so":"Islamudeen","Address":"Macheyram Station Railway Road","Status":"Present","Phone":"Nil"},{"Name":"Samshad Aka Moata","so":"Kalwa Rafiq","Address":"Macheyram Station Railway Road","Status":"Deid","Phone":"Nil"},{"Name":"Aslam","so":"Kalam Udeen","Address":"Macheyram Station Railway Road","Status":"Present","Phone":"Nil"},{"Name":"Saleem","so":"Majid","Address":"Macheyram Station Railway Road","Status":"Missing","Phone":"Nil"},{"Name":"Sheyed","so":"Rasiq","Address":"Macheyram Station Railway Road","Status":"Present","Phone":"Nil"},{"Name":"Shadik","so":"Mohd. Umar","Address":"Macheyram Station Railway Road","Status":"Missing","Phone":"Nil"},{"Name":"Ayush Gupta","so":"Bharatbhushan","Address":"Kaser Gunj","Status":"Present","Phone":"Nil"}],"convictedCriminals":[{"Name":"Nil","so":"Nil","crimeno":"Nil","section":"Nil","Address":"Nil"}],"crimes5Yrs":[{"Name":"Islamudeen","so":"Abdul Lakkif Aka Kalwa","crimeno":"135/14","Section":"376/511/452 Ipc","Address":"Purva Haffiz Abdul Karem Mahigram"},{"Name":"Salamudeen","so":"Reyazudeen","crimeno":"135/14","Section":"376/511/452 Ipc","Address":"Purva Haffiz Abdul Karem Mahigram"},{"Name":"Dilshad","so":"Abdul Laffar","crimeno":"217/14","Section":"354/354 K,gha Ipc Va 7/8 Pos Co. Act","Address":"Mackbara Ghoseyan"},{"Name":"Ballu/islamuddin","so":"Sahabuddin","crimeno":"226/14","Section":"147/149/452/302 Ipc","Address":"Mackbara Diggi"},{"Name":"Iqramudin/chochu","so":"Sabu","crimeno":"226/14","Section":"147/149/452/302 Ipc","Address":"Mackbara Diggi"},{"Name":"Shajad","so":"Sabu","crimeno":"226/14","Section":"147/149/452/302 Ipc","Address":"Mackbara Diggi"},{"Name":"Ashu","so":"Jaan Mohd.","crimeno":"226/14","Section":"147/149/452/302 Ipc","Address":"Khalil Wali Gali Bajariya"},{"Name":"Shanu","so":"Jaan Mohd.","crimeno":"226/14","Section":"147/149/452/302 Ipc","Address":"Khalil Wali Gali Bajariya"},{"Name":"Saleem","so":"Sayed","crimeno":"67/13","Section":"392/411 Ipc","Address":"Makbara Bajariya"},{"Name":"Haji Sayeed","so":"Sultan","crimeno":"106/16","Section":"147/323/354/395/427/506 Ipc","Address":"Mohalla Macheran, Railway Road Meerut"},{"Name":"Sanabbar","so":"Safdar","crimeno":"106/16","Section":"147/323/354/395/427/506 Ipc","Address":"Mohalla Macheran, Railway Road Meerut"},{"Name":"Atek","so":"Hapijurahaman","crimeno":"106/16","Section":"147/323/354/395/427/506 Ipc","Address":"Mohalla Macheran, Railway Road Meerut"},{"Name":"Abid","so":"Waheed","crimeno":"106/16","Section":"147/323/354/395/427/506 Ipc","Address":"Mohalla Macheran, Railway Road Meerut"},{"Name":"Saleem","so":"Ibra","crimeno":"106/16","Section":"147/323/354/395/427/506 Ipc","Address":"Mohalla Macheran, Railway Road Meerut"},{"Name":"Tajmul","so":"Zakir","crimeno":"106/16","Section":"147/323/354/395/427/506 Ipc","Address":"Mohalla Macheran, Railway Road Meerut"},{"Name":"Nijam","so":"Idrish","crimeno":"106/16","Section":"147/323/354/395/427/506 Ipc","Address":"Mohalla Macheran, Railway Road Meerut"},{"Name":"Riyasad","so":"Sakur","crimeno":"106/16","Section":"147/323/354/395/427/506 Ipc","Address":"Mohalla Macheran, Railway Road Meerut"},{"Name":"Hapij/sakir","so":"Reyazudeen","crimeno":"106/16","Section":"147/323/354/395/427/506 Ipc","Address":"Mohalla Macheran, Railway Road Meerut"},{"Name":"Arif","so":"Reyazudeen","crimeno":"106/16","Section":"147/323/354/395/427/506 Ipc","Address":"Mohalla Macheran, Railway Road Meerut"},{"Name":"Captain","so":"N/a","crimeno":"106/16","Section":"147/323/354/395/427/506 Ipc","Address":"Mohalla Macheran, Railway Road Meerut"}],"electionCrimes":[{"Name":"Nil","so":"Nil","crimeno":"Nil","Section":"Nil","Address":"Nil"}],"politician":[{"Name":"Sahkuk Ali","so":"Nil","Address":"Nil","Phone":"9837592986"},{"Name":"Sanjida","so":"Nil","Address":"Nil","Phone":"8650086800"},{"Name":"Irshad Jahan","so":"Nil","Address":"Nil","Phone":"8171000434"},{"Name":"Saleem Mevati","so":"Nil","Address":"Nil","Phone":"8394999786"},{"Name":"Saleem Netaji","so":"Nil","Address":"Nil","Phone":"9837636488"},{"Name":"Shrimati Mena","so":"Nil","Address":"Nil","Phone":"7310646667"}],"boundDownUnder":"20","vulnerabilityDetails":"Very Critical","warrantedCriminals":[{"Name":"Nil","so":"Nil","Address":"Nil","Phone":"Nil"}],"condition":"Good"},{"stationID":"RR-04","stationName":"Kanoherlal Krishan Sahia Inter College","latitude":"28.9798","longitude":"77.6950","polingCenterPhoto":"../img/mediPanchayat.png","routes":"../img/3.png","collectionPoint":"../img/3.png","population":"Nil","voters":"2083","villageMohalla":"Purva Maheveer","path":"#/menu/tab/medicalDetails","respectedPpl":[{"Name":"Niraj Kumar","so":"Devi Sharan","Address":"Chetar Purva Dendeyal","Phone":"9837476100"},{"Name":"Mukesh Kumar","so":"Bhramanend","Address":"Purva Maheveer","Phone":"8791549322"}],"retiredGovtSer":[{"Name":"Nil","so":"Nil","Address":"Nil","Phone":"Nil"}],"neighbourPolling":[{"Name":"Shubham","so":"Lt. Aalocheya Agarwal","Address":"Purva Mahaveer","Phone":"8923003445"},{"Name":"Vishal Jaiswal","so":"Lt. Aalocheya Agarwal","Address":"Purva Mahaveer","Phone":"8791092249"},{"Name":"Mukesh Kumar","so":"Shri Bhramanend Sharma","Address":"Purva Mahaveer","Phone":"8791549322"},{"Name":"Pawan Kumar","so":"Kaheneya Lal","Address":"Purva Mahaveer","Phone":"9837400125"},{"Name":"Pradeep Kumar","so":"Ranjeet Singh","Address":"Purva Mahaveer","Phone":"9458796800"}],"armsLicenseHolder":[{"Name":"Niraj Kumar","so":"Shri Devi Sharan","Address":"76 Purva Mahaveer","Phone":"9837476100","Weapon":"Dbbl"},{"Name":"Shri Fakira","so":"Rayiyat Ram","Address":"10 Ronak Pura","Phone":"N/a","Weapon":"Dbbl"},{"Name":"Gurjeet Singh","so":"Raghuveer Singh","Address":"Ronak Pura","Phone":"N/a","Weapon":"Revolver"},{"Name":"Salak Ram","so":"Basant Lal","Address":"42 Ronak Pura","Phone":"N/a","Weapon":"Dbbl"},{"Name":"Lal Chand","so":"Devi Dayal","Address":"38 Ronak Pura","Phone":"N/a","Weapon":"Dbbl"}],"chowkidar":[{"Name":"Nil","so":"Nil","Address":"Nil","Phone":"Nil"}],"councellor":[{"Name":"Shri Mati Tahirra","so":"W/o Mumtaj","Address":"153 Purva Hafiz Abdul Kareem, Railway Road Meerut","Phone":"9219139248"}],"historySheeter":[{"Name":"Izhar","so":"Bhadure Khan","Address":"Purva Mahaveer","Status":"Mssing","Phone":"Nil"}],"convictedCriminals":[{"Name":"Nil","so":"Nil","crimeno":"Nil","section":"Nil","Address":"Nil"}],"crimes5Yrs":[{"Name":"Imran","so":"Usman Qureshi","crimeno":"89/14","Section":"398/401 Ipc","Address":"Abbas Netaji Wali Gali Mackbara Abbu"},{"Name":"Usman","so":"Ussif Mulla Dimpey","crimeno":"89/14","Section":"398/401 Ipc","Address":"298 Nali No. 3 Khala Par P.s Kotwali Mujjafernagar"},{"Name":"Chamman","so":"Iqbal","crimeno":"89/14","Section":"398/401 Ipc","Address":"166 Kidvai Nagar Bhind Noor Majid P.s Kotwali Mujaffernagar"}],"electionCrimes":[{"Name":"Nil","so":"Nil","crimeno":"Nil","Section":"Nil","Address":"Nil"}],"politician":[{"Name":"Nil","so":"Nil","Address":"Nil","Phone":"Nil"}],"boundDownUnder":"15","vulnerabilityDetails":"General","warrantedCriminals":[{"Name":"Nil","so":"Nil","Address":"Nil","Phone":"Nil"}],"condition":"Good"},{"stationID":"RR-05","stationName":"Bhai Joga Singh Public Shool Davepuri","latitude":"28.6194","longitude":"77.6194","polingCenterPhoto":"../img/mediPanchayat.png","routes":"../img/3.png","collectionPoint":"../img/3.png","population":"Nil","voters":"886","villageMohalla":"Purva Jujal Kishor, Devpuri Bhatipura","path":"#/menu/tab/medicalDetails","respectedPpl":[{"Name":"Shri Anubhav Jain","so":"V.c Jain","Address":"12 B Jain Nagar","Phone":"8923089230"},{"Name":"Navin Bansal","so":"Nil","Address":"Bhatipura","Phone":"9897894050"},{"Name":"Amit Choudhary","so":"Sompal","Address":"Devpuri","Phone":"9412579052"},{"Name":"Amit Kakkar","so":"Kishan Lal","Address":"Devpuri","Phone":"9837054836"},{"Name":"Gaurav","so":"Vijay Kumar","Address":"Devpuri","Phone":"9837906383"},{"Name":"Surender Singh","so":"Dhara Singh","Address":"Devpuri","Phone":"9760240246"}],"retiredGovtSer":[{"Name":"Nil","so":"Nil","Address":"Nil","Phone":"Nil"}],"neighbourPolling":[{"Name":"Surender Kumar","so":"Kaser Singh","Address":"248 Devpuri","Phone":"9717744144"},{"Name":"Narender Kumar","so":"Manehor Lal","Address":"Devpuri","Phone":"9897655590"},{"Name":"Surender Madan","so":"Jadish Madan","Address":"Devpuri","Phone":"9897661260"},{"Name":"Kawal Vadva","so":"Munshi Ram Vadva","Address":"Devpuri","Phone":"9412552522"},{"Name":"Sachin Narang","so":"Harvansh Narag","Address":"Devpuri","Phone":"9412109100"}],"armsLicenseHolder":[{"Name":"Usmaan Sefi","so":"Yusif Sefi","Address":"Bhatipura","Phone":"N/a","Weapon":"Revolver"},{"Name":"Shakeel Ahmed","so":"Faqira","Address":"Bhatipura","Phone":"N/a","Weapon":"Revolver"},{"Name":"Naseem","so":"Kalu Khan","Address":"Bhatipura","Phone":"N/a","Weapon":"Revolver"},{"Name":"Shabir","so":"Fariyad","Address":"Bhatipura","Phone":"N/a","Weapon":"Dbbl"},{"Name":"Abdul Salam Sefi","so":"Abdul Whaid Sefi","Address":"Bhatipura","Phone":"N/a","Weapon":"Dbbl/revolver"},{"Name":"Abdul Munan","so":"Abdul Ganni","Address":"Bhatipura","Phone":"N/a","Weapon":"Dbbl"},{"Name":"Nanak Singh","so":"Kishan Singh","Address":"Bhatipura","Phone":"N/a","Weapon":"Revolver"},{"Name":"Kanera Bank","so":"Nil","Address":"Bhatipura","Phone":"N/a","Weapon":"Dbbl"},{"Name":"Kulmesh Sharma","so":"Mohan Lal Sharma","Address":"Devpuri","Phone":"N/a","Weapon":"Pistol"},{"Name":"Sachin Ahuja","so":"Som Nath Ahuja","Address":"Devpuri","Phone":"N/a","Weapon":"Revolver"},{"Name":"Balvender Singh","so":"Ishwar Singh","Address":"Devpuri","Phone":"N/a","Weapon":"Dbbl"},{"Name":"Aksah Deep Sharma","so":"Premnath Sharma","Address":"Devpuri","Phone":"N/a","Weapon":"Revolver"},{"Name":"Tinku Anand","so":"Kishanlal","Address":"Devpuri","Phone":"N/a","Weapon":"Revolver"},{"Name":"Raj Kumar","so":"Gopi Chand Sachdeva","Address":"Devpuri","Phone":"N/a","Weapon":"Revolver"},{"Name":"Kapil Chadda","so":"Vinod Kumar","Address":"Devpuri","Phone":"N/a","Weapon":"Revolver"},{"Name":"Naresh Chadda","so":"Sohan Lal","Address":"Devpuri","Phone":"N/a","Weapon":"Dbbl"},{"Name":"Pawan Mittal","so":"D.k Mittal","Address":"Devpuri","Phone":"N/a","Weapon":"Revolver"},{"Name":"Sudheer Khurana","so":"Bhari Lal Khurana","Address":"Devpuri","Phone":"N/a","Weapon":"Revolver"},{"Name":"Promod Junja","so":"Kishori Lal Junega","Address":"Devpuri","Phone":"N/a","Weapon":"Revolver"},{"Name":"Harsh Kumar","so":"Harichand Ahuja","Address":"Devpuri","Phone":"N/a","Weapon":"Pistol"},{"Name":"Surender Gori","so":"Aatmaprakash","Address":"Devpuri","Phone":"N/a","Weapon":"Revolver"},{"Name":"Harmeet Singh","so":"Prem Singh","Address":"Devpuri","Phone":"N/a","Weapon":"Rifle"},{"Name":"Raj Kumar","so":"Sunder Lal","Address":"Devpuri","Phone":"N/a","Weapon":"Revolver"},{"Name":"Pawn Ameri","so":"Sadanad","Address":"Devpuri","Phone":"N/a","Weapon":"Revolver"},{"Name":"Mohit Jan","so":"Kawal Krishan Jain","Address":"Devpuri","Phone":"N/a","Weapon":"Pistol"},{"Name":"Bharat Grover","so":"B.s Grover","Address":"Devpuri","Phone":"N/a","Weapon":"Revolver"},{"Name":"Rakesh Makkar","so":"Mohan Singh","Address":"Devpuri","Phone":"N/a","Weapon":"Revolver"},{"Name":"Satish Kumar","so":"Dal Chand","Address":"Devpuri","Phone":"N/a","Weapon":"Revolver"},{"Name":"Ajay Kumar","so":"Nand Kishore","Address":"Devpuri","Phone":"N/a","Weapon":"Revolver"},{"Name":"Rajeev Kumar","so":"Ishwar Nath","Address":"Devpuri","Phone":"N/a","Weapon":"Pistol"},{"Name":"Sohan Lal","so":"Ram Das","Address":"Devpuri","Phone":"N/a","Weapon":"Pistol"},{"Name":"Shri Munsi Ram Ahuja","so":"Kishan Ahuja","Address":"Devpuri","Phone":"N/a","Weapon":"Revolver"},{"Name":"Harish Chand","so":"Ram Kishan","Address":"Devpuri","Phone":"N/a","Weapon":"Revolver"},{"Name":"Shrimati Sashi Mittal","so":"D/o Parmatma","Address":"Devpuri","Phone":"N/a","Weapon":"Rifle"},{"Name":"Dharam Pal","so":"Kishan Lal","Address":"Devpuri","Phone":"N/a","Weapon":"Sbbl"},{"Name":"Sumit Grover","so":"Ashok Grover","Address":"Devpuri","Phone":"N/a","Weapon":"Pistol"},{"Name":"Sanjay Singhal","so":"Naresh Kumar","Address":"Devpuri","Phone":"N/a","Weapon":"Dbbl"}],"chowkidar":[{"Name":"Nil","so":"Nil","Address":"Nil","Phone":"Nil"}],"councellor":[{"Name":"Navin Bansal","so":"Ramesh Chand Bansal","Address":"Nil","Phone":"9897894050"}],"historySheeter":[{"Name":"Chand","so":"Jahiudeen","Address":"Idgha Bhatipura","Status":"Missing","Phone":"Nil"},{"Name":"Dinesh Aka Kallu","so":"Brajpal","Address":"Saboon Godam","Status":"Present","Phone":"Nil"},{"Name":"Dinesh Aka Bablu","so":"Amar Singh","Address":"Dashmash Nagar","Status":"Missing","Phone":"Nil"},{"Name":"Bhagvat","so":"Ghanshyam","Address":"Bagpat Gate","Status":"Missing","Phone":"Nil"}],"convictedCriminals":[{"Name":"Nil","so":"Nil","crimeno":"Nil","section":"Nil","Address":"Nil"}],"crimes5Yrs":[{"Name":"Hazi Sameem","so":"Shankutla (impoted)","crimeno":"38/15","Section":"147/148/149/326/329 Ipc Va 3(2)5 Sc/st Act","Address":"Shenai Wali Gali Idega Road Bhatipura"},{"Name":"Nelum Aka Wahid","so":"Kallu Aka Madan","crimeno":"38/15","Section":"147/148/149/326/329 Ipc Va 3(2)5 Sc/st Act","Address":"Shenai Wali Gali Idega Road Bhatipura"},{"Name":"Rani Aka Wahid","so":"Kallu Aka Madan","crimeno":"38/15","Section":"147/148/149/326/329 Ipc Va 3(2)5 Sc/st Act","Address":"Shenai Wali Gali Idega Road Bhatipura"},{"Name":"Komal (impoted)","so":"Mahaver","crimeno":"38/15","Section":"147/148/149/326/329 Ipc Va 3(2)5 Sc/st Act","Address":"Shenai Wali Gali Idega Road Bhatipura"}],"electionCrimes":[{"Name":"Nil","so":"Nil","crimeno":"Nil","Section":"Nil","Address":"Nil"}],"politician":[{"Name":"Nil","so":"Nil","Address":"Nil","Phone":"Nil"}],"boundDownUnder":"50","vulnerabilityDetails":"Critical","warrantedCriminals":[{"Name":"Nil","so":"Nil","Address":"Nil","Phone":"Nil"}],"condition":"Good"},{"stationID":"RR-06","stationName":"Bhai Joga Singh Public Shool Davepuri","latitude":"28.9744","longitude":"77.6857","polingCenterPhoto":"../img/mediPanchayat.png","routes":"../img/3.png","collectionPoint":"../img/3.png","population":"Nil","voters":"3176","villageMohalla":"Anand Puri ,jain Nagar, Padam Kunj","path":"#/menu/tab/medicalDetails","respectedPpl":[{"Name":"Vichitra Jain","so":"Chakdra Jain","Address":"Jain Nagar","Phone":"9286610007"},{"Name":"Lalti Jain","so":"Ranjender Prasad","Address":"Jain Nagar","Phone":"9760895807"},{"Name":"Rajender","so":"Kaaser","Address":"Anad Puri","Phone":"9897555255"},{"Name":"Anubhav Jain","so":"V.c Jain","Address":"Jain Nagar","Phone":"8923089230"},{"Name":"Ajay Gupta","so":"Harikrishan Gupta","Address":"Anad Puri","Phone":"9412200619"}],"retiredGovtSer":[{"Name":"Nil","so":"Nil","Address":"Nil","Phone":"Nil"}],"neighbourPolling":[{"Name":"Lalit Jain","so":"R.p Jain","Address":"Jain Nagar","Phone":"9760895807"},{"Name":"Bajnath Yadav","so":"Shivram Yadav","Address":"Jain Nagar","Phone":"9412831251"},{"Name":"Davendra Kumar","so":"Senser Pal Singh","Address":"Jain Nagar","Phone":"9719252042"},{"Name":"Vichitra Jain","so":"Chakradhar Jain","Address":"Jain Nagar","Phone":"9286610007"}],"armsLicenseHolder":[{"Name":"Vijay Pal Singh","so":"Kharati Lal","Address":"1731 Anand Puri","Phone":"Nil","Weapon":"Dbbl"},{"Name":"Sandeep Kakar","so":"Aum Prakash Kakkar","Address":"184 Anand Puri","Phone":"Nil","Weapon":"Revolver"},{"Name":"Adit Pal Singh","so":"Kharati Lal","Address":"173 Anand Puri","Phone":"Nil","Weapon":"Revolver"},{"Name":"Ajay Gupta","so":"Hari Krishan Gupta","Address":"187 Anand Puri","Phone":"Nil","Weapon":"Revolver"},{"Name":"Promod Kumar Jain","so":"Sunder Lal Jain","Address":"58/2 Anand Puri","Phone":"Nil","Weapon":"Dbbl"},{"Name":"Narendra Kumar Jain","so":"Jagdish Prasad","Address":"11 Anand Puri","Phone":"Nil","Weapon":"Revolver"},{"Name":"Virender Jain","so":"Chateen Jain","Address":"25 Anand Puri","Phone":"Nil","Weapon":"Revolver"},{"Name":"Pawan Jain","so":"Mahender Jain","Address":"182 Anand Puri","Phone":"Nil","Weapon":"Pistol"},{"Name":"Naveen Tyagi","so":"Asha Ram Tyagi","Address":"216 Anand Puri","Phone":"Nil","Weapon":"Pistol"},{"Name":"Pankaj Jain","so":"Virender Jain","Address":"75 Anand Puri","Phone":"Nil","Weapon":"Revolver"},{"Name":"Rajeev Sheti","so":"Govedhan Sheti","Address":"323 Anand Puri","Phone":"Nil","Weapon":"Dbbl"},{"Name":"Harish Mittal","so":"Vishnu Datt","Address":"287/2 Anand Puri","Phone":"Nil","Weapon":"Rifle"},{"Name":"Ved Prakash Sharma","so":"Raguveer Sharma","Address":"Anand Puri","Phone":"Nil","Weapon":"Dbbl"},{"Name":"Ashish Gupta","so":"G.p Gupta","Address":"Anand Puri","Phone":"Nil","Weapon":"Sbbl"},{"Name":"Ajeet Pal Singh","so":"Kharati Lal","Address":"Anand Puri","Phone":"Nil","Weapon":"Rifle"},{"Name":"Vijay Pal Singh","so":"Kharati Lal","Address":"Anand Puri","Phone":"Nil","Weapon":"Revolver/dbbl"},{"Name":"Jay Bhagvan Gupta","so":"Radhay Shyam Gupta","Address":"Anand Puri","Phone":"Nil","Weapon":"Dbbl"},{"Name":"Pankaj Jain","so":"Virender Jain","Address":"Anand Puri","Phone":"Nil","Weapon":"Dbbl"},{"Name":"Vijay Mittal","so":"Ram Kishor Mittal","Address":"Anand Puri","Phone":"Nil","Weapon":"Dbbl"},{"Name":"Brajbushaan Mittal","so":"Tulsi Ram Mittal","Address":"Anand Puri","Phone":"Nil","Weapon":"Revolver"},{"Name":"Ajay Gupta","so":"Hari Krishan Gupta","Address":"Anand Puri","Phone":"Nil","Weapon":"Dbbl"},{"Name":"Vishvanath","so":"Phakir Chand","Address":"Anand Puri","Phone":"Nil","Weapon":"Sbbl"},{"Name":"Direndar Jain","so":"Chateen Jain","Address":"Anand Puri","Phone":"Nil","Weapon":"Rifle"},{"Name":"Sunder Lal Jain","so":"Badlumal","Address":"Anand Puri","Phone":"Nil","Weapon":"Dbbl"},{"Name":"Kharati Lal","so":"Charan Singh","Address":"Anand Puri","Phone":"Nil","Weapon":"Dbbl"},{"Name":"Ram Singh","so":"Umrav Singh","Address":"Anand Puri","Phone":"Nil","Weapon":"Dbbl"},{"Name":"Ved Prakash Gandi","so":"Lakhi Ram Gandi","Address":"Anand Puri","Phone":"Nil","Weapon":"Rifle"},{"Name":"Mohan Singh","so":"Jasvant Singh","Address":"Anand Puri","Phone":"Nil","Weapon":"Revolver"},{"Name":"Inder Singh","so":"Jaisver Singh","Address":"Anand Puri","Phone":"Nil","Weapon":"Dbbl"},{"Name":"Sher Singh","so":"Pyara Singh","Address":"Anand Puri","Phone":"Nil","Weapon":"Dbbl"},{"Name":"Bhari Lal","so":"Lal Chodhary Mal","Address":"Anand Puri","Phone":"Nil","Weapon":"Pistol"},{"Name":"Jay Pal","so":"Hari Ram Singh","Address":"Anand Puri","Phone":"Nil","Weapon":"Sbbl"},{"Name":"Predeep Baliyan","so":"Arjun Shingh Baliyan","Address":"Anand Puri","Phone":"Nil","Weapon":"Revolver"},{"Name":"Rajan Kailash","so":"Kailash Chand'","Address":"Anand Puri","Phone":"Nil","Weapon":"Revolver"},{"Name":"Rajesh Kumar","so":"Parmatma Sharam","Address":"Anand Puri","Phone":"Nil","Weapon":"Pistol"},{"Name":"Anubhav Jain","so":"Umesh Chand Jain","Address":"Jain Nagar","Phone":"Nil","Weapon":"Revolver"},{"Name":"Danish Jain","so":"Sampad Jain","Address":"Jain Nagar","Phone":"Nil","Weapon":"Revolver"},{"Name":"Sanjay Jain","so":"Om Prakash Jain","Address":"Jain Nagar","Phone":"Nil","Weapon":"Revolver"},{"Name":"Anshul Jain","so":"Rakesh Jain","Address":"Jain Nagar","Phone":"Nil","Weapon":"Revolver"},{"Name":"Snjeev Kumar Jain","so":"Aum Prakash Jain","Address":"Jain Nagar","Phone":"Nil","Weapon":"Pistol"},{"Name":"Surender Jain","so":"Bablu Lal Jindal","Address":"Jain Nagar","Phone":"Nil","Weapon":"Revolver"},{"Name":"Dhareem Veer Jain","so":"Shadi Lal Jain","Address":"Jain Nagar","Phone":"Nil","Weapon":"Revolver"},{"Name":"Lalit Jain","so":"Chaman Lal Jain","Address":"Jain Nagar","Phone":"Nil","Weapon":"Dbbl"},{"Name":"Sanjay Jain","so":"Kuldeep Jian","Address":"Jain Nagar","Phone":"Nil","Weapon":"Revolver"},{"Name":"Ashish Jain","so":"Surender Jain","Address":"Jain Nagar","Phone":"Nil","Weapon":"Revolver"},{"Name":"Predeep Jain","so":"Wakil Chand Jain","Address":"Jain Nagar","Phone":"Nil","Weapon":"Dbbl"},{"Name":"Rakesh Jain","so":"V.n Jain","Address":"Jain Nagar","Phone":"Nil","Weapon":"Pistol"},{"Name":"Mohit Jain","so":"Vijay Pal Jain","Address":"Jain Nagar","Phone":"Nil","Weapon":"Pistol"},{"Name":"Vijay Jain","so":"Dolat Ram Jain","Address":"Jain Nagar","Phone":"Nil","Weapon":"Revolver"},{"Name":"Chandra Mohan","so":"Chaman Lal Jan","Address":"Jain Nagar","Phone":"Nil","Weapon":"Pistol"},{"Name":"Vijay Pal Jian","so":"Ram Swaroop Jian","Address":"Jain Nagar","Phone":"Nil","Weapon":"Revolver"},{"Name":"Sandeep Jian","so":"Sateish Jian","Address":"Jain Nagar","Phone":"Nil","Weapon":"Revolver"},{"Name":"Som Prakash","so":"Wakil Chand Jain","Address":"Jain Nagar","Phone":"Nil","Weapon":"Revolver"},{"Name":"Arvind Jain","so":"Aum Prakesh Jain","Address":"Jain Nagar","Phone":"Nil","Weapon":"Revolver"},{"Name":"Pradeep Jain","so":"Sukveer Singh","Address":"Jain Nagar","Phone":"Nil","Weapon":"Revolver"},{"Name":"Mahi Pal Jain","so":"Sat Pal Singh","Address":"Jain Nagar","Phone":"Nil","Weapon":"Rifle"},{"Name":"Vijay Pal","so":"Sat Pal Singh","Address":"Jain Nagar","Phone":"Nil","Weapon":"Rifle"},{"Name":"Pradeep Jain","so":"V.c Jain","Address":"Jain Nagar","Phone":"Nil","Weapon":"Pistol"},{"Name":"Lalit Jain","so":"C.m Jain","Address":"Jain Nagar","Phone":"Nil","Weapon":"Revolver"},{"Name":"Chandra Mohan","so":"Rajkumar","Address":"Jain Nagar","Phone":"Nil","Weapon":"Dbbl"},{"Name":"Dhirendra Prakash","so":"Om Prakash","Address":"Jain Nagar","Phone":"Nil","Weapon":"Revolver"},{"Name":"Yogeshvar","so":"Jeet Lal","Address":"Jain Nagar","Phone":"Nil","Weapon":"Dbbl"},{"Name":"Anil Kumar Jain","so":"Prem Chand Jain","Address":"Jain Nagar","Phone":"Nil","Weapon":"Dbbl"},{"Name":"Saurabh Jain","so":"Surendra Kumar Jain","Address":"Jain Nagar","Phone":"Nil","Weapon":"Pistol"}],"chowkidar":[{"Name":"Nil","so":"Nil","Address":"Nil","Phone":"Nil"}],"councellor":[{"Name":"Navin Bansal","so":"Ramesh Chand Bansal","Address":"Nil","Phone":"9897894050"}],"historySheeter":[{"Name":"Sunny","so":"Paramtma Sharan","Address":"Purvadeendyal Station Railway Road","Status":"Present","Phone":"Nil"}],"convictedCriminals":[{"Name":"Nil","so":"Nil","crimeno":"Nil","section":"Nil","Address":"Nil"}],"crimes5Yrs":[{"Name":"Nil","so":"Nil","crimeno":"Nil","Section":"Nil","Address":"Nil"}],"electionCrimes":[{"Name":"Nil","so":"Nil","crimeno":"Nil","Section":"Nil","Address":"Nil"}],"politician":[{"Name":"Nil","so":"Nil","Address":"Nil","Phone":"Nil"}],"boundDownUnder":"75","vulnerabilityDetails":"Very Critical","warrantedCriminals":[{"Name":"Nil","so":"Nil","Address":"Nil","Phone":"Nil"}],"condition":"Good"},{"stationID":"RR-07","stationName":"Vardhaman Acadmey","latitude":"28.9789","longitude":"77.6869","polingCenterPhoto":"../img/mediPanchayat.png","routes":"../img/3.png","collectionPoint":"../img/3.png","population":"Nil","voters":"2056","villageMohalla":"Prem Puri Railway Road 1, Kishan Flore Mil , Shanti Nagar, New Bhrampuri,Vak Mansabhiya Arebic Collage","path":"#/menu/tab/medicalDetails","respectedPpl":[{"Name":"Ramesh Chnadra Jain","so":"Sheetal Prasad Jain","Address":"Perm Puri","Phone":"9259771288"},{"Name":"A.k Gautam","so":"L/o Jay Chand Gautam","Address":"Perm Puri","Phone":"9359754343"},{"Name":"Rakesh Jain","so":"Narender Kumar","Address":"Shanti Nagar","Phone":"9837059901"},{"Name":"Shyed Ahmed","so":"Jahur Ahmed","Address":"Mansaphya","Phone":"9358772011"},{"Name":"Naven Jain","so":"Jeevan Lal Jain","Address":"New Prem Puri","Phone":"9837092266"}],"retiredGovtSer":[{"Name":"Nil","so":"Nil","Address":"Nil","Phone":"Nil"}],"neighbourPolling":[{"Name":"Pankaj Jain","so":"Jayenti Prakash Jain","Address":"Prem Puri","Phone":"7417578199"},{"Name":"Kunal Padit","so":"Satish Mohan Sharma","Address":"Prem Puri","Phone":"7417519242"},{"Name":"Venay Kumar Sharma","so":"Roshan Lal Sharma","Address":"Prem Puri","Phone":"0121-240325"},{"Name":"Anil Dhariwal","so":"Nawab Dhariwal","Address":"Railway Road","Phone":"9927094449"},{"Name":"Mannu","so":"Devander","Address":"Prem Puri","Phone":"8791596061"},{"Name":"Vivek Jain","so":"Ramesh Jain","Address":"Prem Puri","Phone":"9045701174"}],"armsLicenseHolder":[{"Name":"Ankur Jain","so":"C.m Jain","Address":"201 Second Flore Kishan Flore Mil","Phone":"Nil","Weapon":"Revolver"},{"Name":"Abhishek Jain","so":"Surendra Kumar Jain","Address":"Ashiena Kishan Flore Mil","Phone":"Nil","Weapon":"Pistol"},{"Name":"Bheem Sen","so":"Nil","Address":"Ashiena Kishan Flore Mil","Phone":"Nil","Weapon":"Revolver"},{"Name":"Nira Jain","so":"W/o Mukul Jain","Address":"Kishan Flore Mil","Phone":"Nil","Weapon":"Revolver"},{"Name":"Navneet Jain","so":"Puneet Jain","Address":"Kishan Flore Mil","Phone":"Nil","Weapon":"Sbbl"},{"Name":"Saleem Jain","so":"Naveen Jain","Address":"Kishan Flore Mil","Phone":"Nil","Weapon":"Revolver"},{"Name":"Naveen Chand Jain","so":"Prem Chand","Address":"Kishan Flore Mil","Phone":"Nil","Weapon":"Revolver"},{"Name":"Naresh Chand Jain","so":"Prem Chand","Address":"Kishan Flore Mil","Phone":"Nil","Weapon":"Dbbl"},{"Name":"Jitendra Kumar","so":"Suit Prasad Jain","Address":"Kishan Flore Mil","Phone":"Nil","Weapon":"Sbbl"},{"Name":"Ashvaini Kumar","so":"Sukh Pal","Address":"Kishan Flore Mil","Phone":"Nil","Weapon":"Revolver"},{"Name":"Anil Kumar Jain","so":"Padam Jain","Address":"Kishan Flore Mil","Phone":"Nil","Weapon":"Revolver"},{"Name":"Manu Jain","so":"Pradeep Kumar Jain","Address":"New Prem Puri","Phone":"Nil","Weapon":"Pistol"},{"Name":"Sukhjeet Singh","so":"Amarjeet Singh","Address":"12 Bhrampuri","Phone":"Nil","Weapon":"Pistol"},{"Name":"Pradeep Jain","so":"Dharmendra Jain","Address":"203 Prem Puri","Phone":"Nil","Weapon":"Revolver"},{"Name":"Anuj Kumar","so":"Brajbhushan","Address":"166 Shyam Bhavan Prem Puri","Phone":"Nil","Weapon":"Pistol"},{"Name":"Roopak Jindal","so":"Surendra Jindal","Address":"113 H Prem Puri","Phone":"Nil","Weapon":"Pistol"},{"Name":"Nitin Gole","so":"Surendra Goel","Address":"1917 Prem Puri","Phone":"Nil","Weapon":"Pistol"},{"Name":"Rajiv Jindal","so":"Shyam Pratap Jindal","Address":"222 Prempuri","Phone":"Nil","Weapon":"Revolver"},{"Name":"Ashok Jain","so":"Narendar Jain","Address":"228 Prem Puri","Phone":"Nil","Weapon":"Revolver"},{"Name":"Rajesh Kumar","so":"Prem Chand","Address":"5 Prem Puri","Phone":"Nil","Weapon":"Pistol/sbbl"},{"Name":"Sanjev Kumar","so":"Surender Kumar","Address":"113 H Prem Puri","Phone":"Nil","Weapon":"Dbbl"},{"Name":"Praveen Jain","so":"Prem Chand","Address":"296 Prem Puri","Phone":"Nil","Weapon":"Pistol"},{"Name":"Sachin Jain","so":"Mahesh Jain","Address":"193 Prem Puri","Phone":"Nil","Weapon":"Revolver"},{"Name":"Varun Jain","so":"Attul Jain","Address":"Nav Jeevan New Prem Puri","Phone":"Nil","Weapon":"Pistol"},{"Name":"Rohit Jain","so":"Naveen Jain","Address":"Nav Jeevan New Prem Puri","Phone":"Nil","Weapon":"Pistol"},{"Name":"Mohit Jain","so":"Veer Sain","Address":"188 New Prem Puri","Phone":"Nil","Weapon":"Pistol"},{"Name":"Promod Girdhar","so":"Tilak Raj","Address":"349/9 New Prem Puri","Phone":"Nil","Weapon":"Pistol"},{"Name":"Praveen Jain","so":"Surendar Jain","Address":"171 New Prem Puri","Phone":"Nil","Weapon":"Revolver"},{"Name":"Mohit Jain","so":"Jay Kumar Jain","Address":"171 New Prem Puri","Phone":"Nil","Weapon":"Revolver"},{"Name":"Deepak Jain","so":"Prakash Jain","Address":"New Prem Puri","Phone":"Nil","Weapon":"Revolver"},{"Name":"Akshay Jain","so":"Prakash Jain","Address":"New Prem Puri","Phone":"Nil","Weapon":"Revolver"},{"Name":"Moti Lal Jain","so":"Prakash Chand Jain","Address":"286 B New Prem Puri","Phone":"Nil","Weapon":"Pistol"},{"Name":"Bhushan Swroop","so":"Joty Prakash","Address":"274/7 New Prem Puri","Phone":"Nil","Weapon":"Revolver"},{"Name":"Naveen Jain","so":"Jeevan Lal Jain","Address":"New Prem Puri","Phone":"Nil","Weapon":"Pistol"},{"Name":"Pawan Kuamar","so":"Nehru Singh","Address":"282 New Prem Puri","Phone":"Nil","Weapon":"Pistol"},{"Name":"Vijay Nanda","so":"Jawar Lal","Address":"222 New Prem Puri","Phone":"Nil","Weapon":"Pistol"},{"Name":"Anil Dhariwal","so":"Nawab Singh","Address":"153 Prem Puri","Phone":"Nil","Weapon":"Revolver"},{"Name":"Anup Singhal","so":"A.s Singhal","Address":"10 Prem Puri","Phone":"Nil","Weapon":"Pistol"},{"Name":"Kushk Kumar","so":"Survice Kumar","Address":"23 Shanti Kunj Sahnti Nagar","Phone":"Nil","Weapon":"Revolver"},{"Name":"Sarvam Agarwal","so":"Survice Kumar","Address":"23 Shanti Kunj Sahnti Nagar","Phone":"Nil","Weapon":"Revolver"},{"Name":"Amit Sharma","so":"Deepak Sharma","Address":"351 Shanti Nagar","Phone":"Nil","Weapon":"Dbbl"},{"Name":"Akhil Jain","so":"Anil Jain","Address":"Dharam Kuttir Shanti Nagar","Phone":"Nil","Weapon":"Revolver"},{"Name":"Vipin Kumar","so":"Rajendra Kumar","Address":"19 New Shanti Nagar","Phone":"Nil","Weapon":"Revolver"},{"Name":"Piyush Kumar","so":"Ram Kishor","Address":"19 New Shanti Nagar","Phone":"Nil","Weapon":"Revolver"},{"Name":"Neeraj Kumar","so":"Rajendra Kumar","Address":"19 New Shanti Nagar","Phone":"Nil","Weapon":"Dbbl"},{"Name":"Nikesh Jain","so":"Narendar Jain","Address":"Sangeeta Kunj Shanti Nagar","Phone":"Nil","Weapon":"Dbbl"},{"Name":"Mukesh Jain","so":"Bhushan Swaroop Jain","Address":"57 Shanti Nagar","Phone":"Nil","Weapon":"Pistol"},{"Name":"Tushar Gupta","so":"Vinod Gupta","Address":"28 Shanti Nagar","Phone":"Nil","Weapon":"Dbbl"},{"Name":"Bhupendra Kumar","so":"Jagdesh","Address":"Shanti Nagar","Phone":"Nil","Weapon":"Pistol"},{"Name":"Ashok Kumar","so":"Ved Prakash","Address":"Shanti Nagar","Phone":"Nil","Weapon":"Revolver"},{"Name":"Sanjay Gupta","so":"Lal Man Gupta","Address":"Shanti Bhawan","Phone":"Nil","Weapon":"Pistol"},{"Name":"Vinod Kumar","so":"Lal Singh","Address":"41/2 Shanti Nagar","Phone":"Nil","Weapon":"Pistol"},{"Name":"Padam Prakash","so":"Raghu Nandan","Address":"Shanti Nagar","Phone":"Nil","Weapon":"Revolver"},{"Name":"Sanjay Aggarwal","so":"Ram Nivas","Address":"Shanti Kunj","Phone":"Nil","Weapon":"Revolver"},{"Name":"Dr. Abrar","so":"Iqbal Ahmad","Address":"132 B Shanti Nagar","Phone":"Nil","Weapon":"Dbbl"}],"chowkidar":[{"Name":"Nil","so":"Nil","Address":"Nil","Phone":"Nil"}],"councellor":[{"Name":"Navin Bansal","so":"Ramesh Chand Bansal","Address":"Nil","Phone":"9897894050"}],"historySheeter":[{"Name":"Nil","so":"Nil","Address":"Nil","Status":"Nil","Phone":"Nil"}],"convictedCriminals":[{"Name":"Nil","so":"Nil","crimeno":"Nil","section":"Nil","Address":"Nil"}],"crimes5Yrs":[{"Name":"Anuj Rathor","so":"Dinesh Rathor","crimeno":"133/15","Section":"302/394 IPC","Address":"Nand gram P/S Shanai Gate GZB"},{"Name":"Sumit Sharma","so":"Om Sharma","crimeno":"133/15","Section":"302/394 IPC","Address":"C 836 Ambedkar Park Ashram Road Nand gram P/S Shanai Gate GZB"},{"Name":"Parveen Jatav","so":"Chet ram","crimeno":"133/15","Section":"302/394 IPC","Address":"Karora P/S Pahasau Buland saher"},{"Name":"Chacha/ Jai Prakash","so":"Raj pal","crimeno":"133/15","Section":"302/394 IPC","Address":"Karora P/S Pahasau Buland saher"},{"Name":"Tushar Gupta","so":"Vinod Kumar Gupta","crimeno":"67/16","Section":"152/307/504/506 IPC","Address":"296 New Prem Puri P/S Railway Road"}],"electionCrimes":[{"Name":"Nil","so":"Nil","crimeno":"Nil","Section":"Nil","Address":"Nil"}],"politician":[{"Name":"Nil","so":"Nil","Address":"Nil","Phone":"Nil"}],"boundDownUnder":"90","vulnerabilityDetails":"Very Critical","warrantedCriminals":[{"Name":"Nil","so":"Nil","Address":"Nil","Phone":"Nil"}],"condition":"Good"},{"stationID":"RR-08","stationName":"barat ghar city railway station","latitude":"28.9794","longitude":"77.6770","polingCenterPhoto":"../img/mediPanchayat.png","routes":"../img/3.png","collectionPoint":"../img/3.png","population":"Nil","voters":"879","villageMohalla":"City Railway Station","path":"#/menu/tab/medicalDetails","respectedPpl":[{"Name":"Gulshan Kumar","so":"Kishan Lal","Address":"Ram Bag Coloney City Station","Phone":"9358416304"},{"Name":"Ravi Kumar Aka Sonu","so":"Sunil Kumar","Address":"Ram Bag Coloney City Station","Phone":"9997699900"},{"Name":"Rahul Kumar","so":"Narender Kumar","Address":"Railway Coloney","Phone":"9917634100"},{"Name":"Vinnet Kumar Jindal","so":"Narender Kumar","Address":"32a Railway Coloney","Phone":"9412985803"},{"Name":"Dr. Kishan Kumar Verma","so":"Charan Das","Address":"Railway Coloney","Phone":"8439039790"}],"retiredGovtSer":[{"Name":"Nil","so":"Nil","Address":"Nil","Phone":"Nil"}],"neighbourPolling":[{"Name":"Rinku Kumar","so":"Sohan Pal","Address":"Railway Coloney","Phone":"9927310019"},{"Name":"Rajeev Rathi","so":"Mohakum Rathi","Address":"Railway Coloney","Phone":"9098435556"},{"Name":"Banvari Lal","so":"Bhajan Lal","Address":"Railway Coloney","Phone":"8923285218"},{"Name":"Raj Kumar","so":"Garieb Singh","Address":"Railway Coloney","Phone":"9412639291"}],"armsLicenseHolder":[{"Name":"gulshan kumar","so":"kishan lal","Address":"259 rambag coloney","Phone":"9358416304","Weapon":"Revolver"},{"Name":"suresh manglick","so":"mahesh chand manglick","Address":"city station railway road","Phone":"9412578789","Weapon":"DBBL/Revolver"},{"Name":"hari sandhu","so":"chand shaker","Address":"828 railway work shop","Phone":"Nil","Weapon":"DBBL"},{"Name":"subodh manglick ","so":"ramesh chand manglick","Address":"259 rambag coloney","Phone":"9412578789","Weapon":"Revolver"},{"Name":"chand pal","so":"suhk pal singh","Address":"T-875 railway coloney","Phone":"Nil","Weapon":"Rifle"},{"Name":"ved prakesh ","so":"devi sai sharma","Address":"116 A railway coloney","Phone":"Nil","Weapon":"Rifle"},{"Name":"ravinder","so":"mahevaer","Address":"main tickit inspector","Phone":"Nil","Weapon":"Rifle"},{"Name":"vinit jindal","so":"narender jindal","Address":"32 A jindal bhavan railway station","Phone":"9837948803","Weapon":"Revolver"}],"chowkidar":[{"Name":"Nil","so":"Nil","Address":"Nil","Phone":"Nil"}],"councellor":[{"Name":"Navin Bansal","so":"Ramesh Chand Bansal","Address":"Nil","Phone":"9897894050"}],"historySheeter":[{"Name":"Nil","so":"Nil","Address":"Nil","Status":"Nil","Phone":"Nil"}],"convictedCriminals":[{"Name":"Nil","so":"Nil","crimeno":"Nil","section":"Nil","Address":"Nil"}],"crimes5Yrs":[{"Name":"Saleem","so":"Babudeen","crimeno":"20/15","Section":"392/411 Ipc","Address":"Phatapuer Wali Mazid (impoted) Gali Kasba And Station Khotali Mujaffernagar"},{"Name":"Akabar","so":"Mehamood","crimeno":"18/15","Section":"354/323 Ipc Va 3(i)10 Sc/st Act","Address":"Makbara Abbu Station Railway Road Meerut"},{"Name":"Vivek/kannu","so":"Lt. Arun Solanki","crimeno":"123/16","Section":"394/411 Ipc","Address":"25 Bannumiya Colony P/s Kanker Kheda"},{"Name":"Umesh","so":"Naven Jain","crimeno":"123/16","Section":"394/411 Ipc","Address":"Transforam Wali Gali Khatekpura P/s Kanker Kheda"},{"Name":"Himanshu","so":"Ranjeet Singh","crimeno":"123/16","Section":"394/411 Ipc","Address":"22 Saraswati Vihar P/s Kanker Kheda"},{"Name":"Amit","so":"Chandra Singh","crimeno":"123/16","Section":"394/411 Ipc","Address":"Krishna Colony P/s Kanker Kheda"},{"Name":"Ajeet","so":"Ram Gopal","crimeno":"124/16","Section":"307/309 Ipc","Address":"Modinagar Gzb"},{"Name":"Satish Giri","so":"Baleshwar Giri","crimeno":"163/16","Section":"223/224 Ipc","Address":"Gram Siyal P/s Bhawan Pur Meerut"}],"electionCrimes":[{"Name":"Nil","so":"Nil","crimeno":"Nil","Section":"Nil","Address":"Nil"}],"politician":[{"Name":"Nil","so":"Nil","Address":"Nil","Phone":"Nil"}],"boundDownUnder":"35","vulnerabilityDetails":"General","warrantedCriminals":[{"Name":"Nil","so":"Nil","Address":"Nil","Phone":"Nil"}],"condition":"Good"}]