[{"stationID":"GN-01","stationName":"Prathmik Vedhyela Mohadin Pur Lalsana","latitude":"29.0408","longitude":"77.7369","polingCenterPhoto":"../img/mediPanchayat.png","routes":"../img/3.png","collectionPoint":"../img/3.png","population":"Nil","voters":"1225","villageMohalla":"Mohadin Pur Lalsana","path":"#/menu/tab/medicalDetails","respectedPpl":[{"Name":"Har Pal Singh","so":"Nil","Address":"Lalsana","Phone":"9412485937"},{"Name":"Udaveer Singh","so":"Nil","Address":"Lalsana","Phone":"8650976608"},{"Name":"Nawab Singh","so":"Nil","Address":"Lalsana","Phone":"9557072716"},{"Name":"Shiv Raj Singh","so":"Nil","Address":"Lalsana","Phone":"9411986441"},{"Name":"Roop Singh","so":"Nil","Address":"Lalsana","Phone":"9917665564"}],"retiredGovtSer":[{"Name":"Ran Pal Singh","so":"Nil","Address":"Lalsana","Phone":"9690858443"},{"Name":"Jay Veer Singh","so":"Nil","Address":"Lalsana","Phone":"Nil"},{"Name":"Kali Charan Singh","so":"Nil","Address":"Lalsana","Phone":"Nil"},{"Name":"Kwar Pal Singh","so":"Nil","Address":"Lalsana","Phone":"Nil"},{"Name":"Yough Raj Singh","so":"Nil","Address":"Lalsana","Phone":"Nil"},{"Name":"Mahi Pal Singh","so":"Nil","Address":"Lalsana","Phone":"Nil"},{"Name":"Rakam Singh","so":"Nil","Address":"Lalsana","Phone":"Nil"},{"Name":"Jay Pal Singh","so":"Nil","Address":"Lalsana","Phone":"Nil"}],"neighbourPolling":[{"Name":"Anish","so":"Nil","Address":"Lalsana","Phone":"8933002238"},{"Name":"Chandra Pal","so":"Nil","Address":"Lalsana","Phone":"9761965574"},{"Name":"Birjesh","so":"Nil","Address":"Lalsana","Phone":"9219158076"},{"Name":"Suresh Kumar","so":"Nil","Address":"Lalsana","Phone":"9997711820"},{"Name":"Raj Veer Singh","so":"Nil","Address":"Lalsana","Phone":"9758135517"}],"armsLicenseHolder":[{"Name":"Narendra","so":"Krishan Pal","Address":"Lalsana","Phone":"9758338591","Weapon":"Nil"},{"Name":"Jitendra","so":"Krishan Pal","Address":"Lalsana","Phone":"9711529030","Weapon":"Nil"},{"Name":"Kusum","so":"W/o Raj Pal","Address":"Lalsana","Phone":"8439773415","Weapon":"Nil"},{"Name":"Kwar Pal","so":"Ram Kala","Address":"Lalsana","Phone":"7500947881","Weapon":"Nil"},{"Name":"Yough Raj","so":"Shyam Singh","Address":"Lalsana","Phone":"9627646737","Weapon":"Nil"},{"Name":"Teekum","so":"Balveer","Address":"Lalsana","Phone":"8654766008","Weapon":"Nil"},{"Name":"Uday Veer","so":"Kaher Singh","Address":"Lalsana","Phone":"8650476608","Weapon":"Nil"},{"Name":"Raj Kumar","so":"Balvant","Address":"Lalsana","Phone":"9219760476","Weapon":"Nil"},{"Name":"Satveer","so":"Raj Singh","Address":"Lalsana","Phone":"8126248298","Weapon":"Nil"},{"Name":"Krishan Pal","so":"Hoshyear","Address":"Lalsana","Phone":"9536006701","Weapon":"Nil"}],"chowkidar":[{"Name":"Dalveer Singh","so":"Nil","Address":"lalsana","Phone":"9997641729"}],"councellor":[{"Name":"Dayavati Devi","so":"Nil","Address":"lalsana","Phone":"8006913924"}],"historySheeter":[{"Name":"Nil","so":"Nil","Address":"Nil","Status":"Nil","Phone":"Nil"}],"convictedCriminals":[{"Name":"Nil","so":"Nil","crimeno":"Nil","Section":"Nil","Address":"Nil"}],"crimes5Yrs":[{"Name":"Sachin Agarwal","so":"Nil","crimeno":"122/15","Section":"307 Ipc","Address":"Nil"}],"electionCrimes":[{"Name":"Nil","so":"Nil","crimeno":"Nil","Section":"Nil","Address":"Nil"}],"politician":[{"Name":"Shivraj Singh","so":"Nil","Address":"Lalsana","Phone":"9411986441"},{"Name":"Bal Raj Singh","so":"Nil","Address":"Lalsana","Phone":"9411986441"},{"Name":"Udayveer Singh","so":"Nil","Address":"Lalsana","Phone":"8650976608"},{"Name":"Jaganveer Singh","so":"Nil","Address":"Lalsana","Phone":"8057589102"},{"Name":"Srnsar Pal","so":"Nil","Address":"Lalsana","Phone":"9568849589"}],"boundDownUnder":"Nil","vulnerabilityDetails":"Critical","warrantedCriminals":[{"Name":"Nil","so":"Nil","Address":"Nil","Phone":"Nil"}],"condition":"Good"},{"stationID":"GN-02","stationName":"Prathmik Vedhyela MamePur","latitude":"29.0324","longitude":"77.7397","polingCenterPhoto":"../img/mediPanchayat.png","routes":"../img/3.png","collectionPoint":"../img/3.png","population":"Nil","voters":"2200","villageMohalla":"Mamepur","path":"#/menu/tab/medicalDetails","respectedPpl":[{"Name":"Ram Pal","so":"Nil","Address":"Mamepur","Phone":"9720886573"},{"Name":"Nafe Singh","so":"Nil","Address":"Mamepur","Phone":"9359910264"},{"Name":"Anand Chouhan","so":"Nil","Address":"Mamepur","Phone":"9690681610"},{"Name":"Ishver Singh","so":"Nil","Address":"Mamepur","Phone":"9897144272"},{"Name":"Kanti Singh","so":"Nil","Address":"Mamepur","Phone":"9634279695"}],"retiredGovtSer":[{"Name":"Kamal Singh","so":"Hari Ram","Address":"Mamepur","Phone":"9720117520"},{"Name":"Inderjeet","so":"Atar Singh","Address":"Mamepur","Phone":"8910696427"},{"Name":"Shyam Singh","so":"Fatey Singh","Address":"Mamepur","Phone":"9719809775"},{"Name":"Jeet Singh","so":"Kushveer Singh","Address":"Mamepur","Phone":"9012751911"},{"Name":"Kartar Singh","so":"Maheveer Singh","Address":"Mamepur","Phone":"8001843475"},{"Name":"Rotash","so":"Nateraran","Address":"Mamepur","Phone":"9536357070"},{"Name":"Krishanpal","so":"Charan Singh","Address":"Mamepur","Phone":"9897427300"},{"Name":"Yogendra","so":"Perma","Address":"Mamepur","Phone":"9012697993"}],"neighbourPolling":[{"Name":"Har Pal Singh","so":"Nil","Address":"Lalsana","Phone":"9412485937"},{"Name":"Udaveer Singh","so":"Nil","Address":"Lalsana","Phone":"8650976608"},{"Name":"Nawab Singh","so":"Nil","Address":"Lalsana","Phone":"9557072716"},{"Name":"Shiv Raj Singh","so":"Nil","Address":"Lalsana","Phone":"9411986441"},{"Name":"Roop Singh","so":"Nil","Address":"Lalsana","Phone":"9917665564"}],"armsLicenseHolder":[{"Name":"Preetam","so":"Ran Singh","Address":"Mamepur","Phone":"9012316761","Weapon":"Pestel"},{"Name":"Rajendra Singh","so":"Suraj Mal","Address":"Mamepur","Phone":"Nil","Weapon":"Pestel"},{"Name":"Davendra","so":"Ranveer Singh","Address":"Mamepur","Phone":"Nil","Weapon":"Pestel"},{"Name":"Verendra Pradhan","so":"Niresh Chandra","Address":"Mamepur","Phone":"Nil","Weapon":"Pestel"},{"Name":"Attar Singh","so":"Munshi","Address":"Mamepur","Phone":"Nil","Weapon":"DBBL"},{"Name":"Kripal Singh","so":"Dharam Singh","Address":"Mamepur","Phone":"Nil","Weapon":"Pestel"},{"Name":"Satish","so":"Laxman Singh","Address":"Mamepur","Phone":"Nil","Weapon":"Pestel"},{"Name":"Ajeet Singh","so":"Ranveer Singh","Address":"Mamepur","Phone":"Nil","Weapon":"DBBL"}],"chowkidar":[{"Name":"Uttam Singh","so":"Nil","Address":"Mamepur","Phone":"8954943008"}],"councellor":[{"Name":"Sunil Chauhan","so":"Nil","Address":"Nil","Phone":"9045926178"}],"historySheeter":[{"Name":"Nil","so":"Nil","Address":"Nil","Status":"Nil","Phone":"Nil"}],"convictedCriminals":[{"Name":"Nil","so":"Nil","crimeno":"Nil","Section":"Nil","Address":"Nil"}],"crimes5Yrs":[{"Name":"Guddu","so":"Ganga Sharan","crimeno":"43/11","Section":"147/336/323/504 Ipc","Address":"Mamepur"},{"Name":"Munish","so":"Nil","crimeno":"43/11","Section":"147/336/323/504 Ipc","Address":"Mamepur"},{"Name":"Jafru","so":"Yusif","crimeno":"110/16","Section":"307 Ipc","Address":"Sikera"}],"electionCrimes":[{"Name":"Nil","so":"Nil","crimeno":"Nil","Section":"Nil","Address":"Nil"}],"politician":[{"Name":"Davendra Singh","so":"Nil","Address":"Nil","Phone":"Nil"},{"Name":"Harish","so":"Nil","Address":"Nil","Phone":"Nil"},{"Name":"Inderpal Singh","so":"Nil","Address":"Nil","Phone":"Nil"},{"Name":"Rajendra Singh","so":"Nil","Address":"Nil","Phone":"Nil"},{"Name":"Raj Pal Singh","so":"Nil","Address":"Nil","Phone":"Nil"},{"Name":"Sandeep Sharma","so":"Nil","Address":"Nil","Phone":"Nil"}],"boundDownUnder":"Nil","vulnerabilityDetails":"General","warrantedCriminals":[{"Name":"Nil","so":"Nil","Address":"Nil","Phone":"Nil"}],"condition":"Good"},{"stationID":"GN-03","stationName":"Prathmik Vedhyela Uldeypur","latitude":"29.0324","longitude":" 77.7439","polingCenterPhoto":"../img/mediPanchayat.png","routes":"../img/3.png","collectionPoint":"../img/3.png","population":"Nil","voters":"1262","villageMohalla":"Uldeypur","path":"#/menu/tab/medicalDetails","respectedPpl":[{"Name":"Permal","so":"Tariff","Address":"Uldeypur","Phone":"7248054357"},{"Name":"Radhay Singh","so":"Lal Singh","Address":"Uldeypur","Phone":"9837031461"},{"Name":"Raja Ram","so":"Rai Singh","Address":"Uldeypur","Phone":"Nil"},{"Name":"Raj Karan","so":"Teza Singh","Address":"Uldeypur","Phone":"Nil"}],"retiredGovtSer":[{"Name":"Jay Pal Singh","so":"Nil","Address":"Uldeypur","Phone":"9927257615"},{"Name":"Jadish Singh","so":"Nil","Address":"Uldeypur","Phone":"Nil"},{"Name":"Dharam Veer Singh","so":"Nil","Address":"Uldeypur","Phone":"Nil"},{"Name":"Tezveer Singh","so":"Nil","Address":"Uldeypur","Phone":"Nil"},{"Name":"Dharam Singh","so":"Nil","Address":"Uldeypur","Phone":"Nil"}],"neighbourPolling":[{"Name":"Sudesh Chauhan","so":"Nil","Address":"Uldeypur","Phone":"9760888186"},{"Name":"Shashi Kumar","so":"Nil","Address":"Uldeypur","Phone":"7830052205"},{"Name":"Dharamveer Singh","so":"Nil","Address":"Uldeypur","Phone":"9457671792"},{"Name":"Anil Kumar","so":"Nil","Address":"Uldeypur","Phone":"9410028216"}],"armsLicenseHolder":[{"Name":"Deep Chand","so":"Harbu Lal","Address":"Uldeypur","Phone":"Nil","Weapon":"Sbbl"},{"Name":"Manoj","so":"Karan Singh","Address":"Uldeypur","Phone":"9760222650","Weapon":"Dbbl"}],"chowkidar":[{"Name":"Sanjay Kumar","so":"Nil","Address":"Mamepur","Phone":"9639923350"}],"councellor":[{"Name":"Nil","so":"Nil","Address":"Nil","Phone":"Nil"}],"historySheeter":[{"Name":"Amit Chauhan","so":"Vinod Kumar","Address":"Uldeypur","Status":"Active List Present","Phone":"Nil"},{"Name":"Vinod","so":"Khecharu","Address":"Uldeypur","Status":"Active List Present","Phone":"Nil"}],"convictedCriminals":[{"Name":"Nil","so":"Nil","crimeno":"Nil","Section":"Nil","Address":"Nil"}],"crimes5Yrs":[{"Name":"Krishan Aka Kapil","so":"Rajendra","crimeno":"21/11","Section":"307 Ipc","Address":"Rahavati"},{"Name":"Deepchand","so":"Harbu Lal","crimeno":"646/11","Section":"147,148,323,325,452,307 Ipc","Address":"Uldeypur"},{"Name":"Maheveer","so":"Harbu Lal","crimeno":"646/11","Section":"147,148,323,325,452,307 Ipc","Address":"Uldeypur"},{"Name":"Yogendra","so":"Raj Pal","crimeno":"792/11","Section":"302 Ipc StS/c Act","Address":"Uldeypur"},{"Name":"Charan Singh","so":"Baljeet","crimeno":"523/15","Section":"147,148,149,323,504 Ipc","Address":"Uldeypur"},{"Name":"Sohan Lal","so":"Nain Singh","crimeno":"25/15","Section":"147,302,506 Ipc","Address":"Uldeypur"}],"electionCrimes":[{"Name":"Nil","so":"Nil","crimeno":"Nil","Section":"Nil","Address":"Nil"}],"politician":[{"Name":"Raish Kumar","so":"Nil","Address":"Nil","Phone":"Nil"},{"Name":"Kushal Pal Master","so":"Nil","Address":"Nil","Phone":"Nil"},{"Name":"Raj Pal","so":"Nil","Address":"Nil","Phone":"Nil"}],"boundDownUnder":"Nil","vulnerabilityDetails":"General","warrantedCriminals":[{"Name":"Nil","so":"Nil","Address":"Nil","Phone":"Nil"}],"condition":"Good"},{"stationID":"GN-04","stationName":"Prathmik Vedhyela Amera Addipur","latitude":"29.0191","longitude":"77.7473","polingCenterPhoto":"../img/mediPanchayat.png","routes":"../img/3.png","collectionPoint":"../img/3.png","population":"Nil","voters":"4000","villageMohalla":"Uldeypur","path":"#/menu/tab/medicalDetails","respectedPpl":[{"Name":"Rajesh Sharma","so":"Nil","Address":"Amera Adipur","Phone":"9359211564"},{"Name":"Yatendra Singh","so":"Nil","Address":"Amera Adipur","Phone":"9639241880"},{"Name":"Ram Pal Singh","so":"Nil","Address":"Amera Adipur","Phone":"9917087672"},{"Name":"Choty Lal Shivaj","so":"Nil","Address":"Amera Adipur","Phone":"9897613774"},{"Name":"Braj Raj Singh","so":"Nil","Address":"Amera Adipur","Phone":"9457129933"},{"Name":"Mukesh Sharam","so":"Nil","Address":"Amera Adipur","Phone":"9359211565"}],"retiredGovtSer":[{"Name":"Yogender Singh","so":"Nil","Address":"Amera Addipur","Phone":"9411618601"},{"Name":"Suresh Chand Sharam","so":"Nil","Address":"Amera Addipur","Phone":"9927253031"},{"Name":"Bushan Sharam","so":"Nil","Address":"Amera Addipur","Phone":"Nil"},{"Name":"Ashok Sharam","so":"Nil","Address":"Amera Addipur","Phone":"9639113334"},{"Name":"Inder Pal Singh","so":"Nil","Address":"Amera Addipur","Phone":"9012493946"},{"Name":"Jogender Singh","so":"Nil","Address":"Amera Addipur","Phone":"9927713496"}],"neighbourPolling":[{"Name":"Yatendra Singh","so":"Nil","Address":"Amera Adipur","Phone":"9639241880"},{"Name":"Yogendra Singh","so":"Nil","Address":"Amera Adipur","Phone":"9411618601"},{"Name":"Jogendra Singh","so":"Nil","Address":"Amera Adipur","Phone":"9927713496"},{"Name":"Rajesh Sharma","so":"Nil","Address":"Amera Adipur","Phone":"9359211564"},{"Name":"Gyandendra Sharma","so":"Nil","Address":"Amera Adipur","Phone":"9639562468"}],"armsLicenseHolder":[{"Name":"Nil","so":"Nil","Address":"Nil","Phone":"Nil","Weapon":"Nil"}],"chowkidar":[{"Name":"Nil","so":"Nil","Address":"Nil","Phone":"Nil"}],"councellor":[{"Name":"Aumi Aka Aum Prakash","so":"Nil","Address":"Amera Adipur","Phone":"9319805640"}],"historySheeter":[{"Name":"Nil","so":"Nil","Address":"Nil","Status":"Nil","Phone":"Nil"}],"convictedCriminals":[{"Name":"Nil","so":"Nil","crimeno":"Nil","Section":"Nil","Address":"Nil"}],"crimes5Yrs":[{"Name":"Nil","so":"Nil","crimeno":"Nil","Section":"Nil","Address":"Nil"}],"electionCrimes":[{"Name":"Nil","so":"Nil","crimeno":"Nil","Section":"Nil","Address":"Nil"}],"politician":[{"Name":"Nil","so":"Nil","Address":"Nil","Phone":"Nil"}],"boundDownUnder":"02","vulnerabilityDetails":"General","warrantedCriminals":[{"Name":"Nil","so":"Nil","Address":"Nil","Phone":"Nil"}],"condition":"Good"},{"stationID":"GN-05","stationName":"Higher Prathmik Vedhyela Amera Addipur","latitude":"29.01842","longitude":"77.7477","polingCenterPhoto":"../img/mediPanchayat.png","routes":"../img/3.png","collectionPoint":"../img/3.png","population":"Nil","voters":"4000","villageMohalla":"Amera Adipur 3 & 4","path":"#/menu/tab/medicalDetails","respectedPpl":[{"Name":"Majoj Tewari","so":"Nil","Address":"Amera Adipur","Phone":"9927270756"},{"Name":"Rahul Kumar","so":"Nil","Address":"Amera Adipur","Phone":"9410880427"}],"retiredGovtSer":[{"Name":"Nil","so":"Nil","Address":"Nil","Phone":"Nil"}],"neighbourPolling":[{"Name":"Krishan Dut Sharma","so":"Nil","Address":"Amera Adipur","Phone":"Nil"},{"Name":"Manoj Tewari","so":"Nil","Address":"Amera Adipur","Phone":"9927270756"},{"Name":"Pinki","so":"W/o Lokesh","Address":"Amera Adipur","Phone":"9152017376"},{"Name":"Maju","so":"W/o Ajay","Address":"Amera Adipur","Phone":"9152755659"},{"Name":"Rahul Kumar","so":"Nil","Address":"Amera Adipur","Phone":"9410880427"}],"armsLicenseHolder":[{"Name":"Nil","so":"Nil","Address":"Nil","Phone":"Nil","Weapon":"Nil"}],"chowkidar":[{"Name":"Nil","so":"Nil","Address":"Nil","Phone":"Nil"}],"councellor":[{"Name":"Aumi Aka Aum Prakash","so":"Nil","Address":"Amera Adipur","Phone":"9319805640"}],"historySheeter":[{"Name":"Nil","so":"Nil","Address":"Nil","Status":"Nil","Phone":"Nil"}],"convictedCriminals":[{"Name":"Nil","so":"Nil","crimeno":"Nil","Section":"Nil","Address":"Nil"}],"crimes5Yrs":[{"Name":"Promode","so":"Maheveer","crimeno":"15/10.","Section":"394/452/393/336/307 Ipc","Address":"Shiv Lock Coloney Amera Adipur"}],"electionCrimes":[{"Name":"Nil","so":"Nil","crimeno":"Nil","Section":"Nil","Address":"Nil"}],"politician":[{"Name":"Nil","so":"Nil","Address":"Nil","Phone":"Nil"}],"boundDownUnder":"Nil","vulnerabilityDetails":"General","warrantedCriminals":[{"Name":"Nil","so":"Nil","Address":"Nil","Phone":"Nil"}],"condition":"Good"},{"stationID":"GN-06","stationName":"Ambedker Shiksha Sadan","latitude":"29.0086","longitude":"77.7694","polingCenterPhoto":"../img/mediPanchayat.png","routes":"../img/3.png","collectionPoint":"../img/3.png","population":"Nil","voters":"Nil","villageMohalla":"Rajpura 1","path":"#/menu/tab/medicalDetails","respectedPpl":[{"Name":"Dinesh Kumar","so":"Nil","Address":"Rajpura","Phone":"9219536407"},{"Name":"Vipin Kumar Aka Chavani","so":"Verender Singh","Address":"Rajpura","Phone":"9639414674"},{"Name":"Harender Singh","so":"Mukthyer Singh","Address":"Rajpura","Phone":"9557754820"},{"Name":"Khem Chand Vectoreya","so":"Bulaki","Address":"Rajpura","Phone":"9412472774"},{"Name":"Sath Pal","so":"Mitthyan","Address":"Rajpura","Phone":"Nil"},{"Name":"Master Vejander Singh","so":"Shyam Singh","Address":"Rajpura","Phone":"9319319318"}],"retiredGovtSer":[{"Name":"Nepal Singh","so":"Vijay Singh","Address":"Rajpura","Phone":"Nil"},{"Name":"Sukh Veer","so":"Kahenaya","Address":"Rajpura","Phone":"9997887087"},{"Name":"Jay Prakash","so":"Kaheneya","Address":"Rajpura","Phone":"9997887087"},{"Name":"Rajender","so":"Uday Ram","Address":"Rajpura","Phone":"9837558784"},{"Name":"Ajab Singh","so":"Nand Ram","Address":"Rajpura","Phone":"8979511079"},{"Name":"Ranveer Singh","so":"Badlu Singh","Address":"Rajpura","Phone":"Nil"}],"neighbourPolling":[{"Name":"Raju","so":"Nil","Address":"Rajpura","Phone":"9027372249"},{"Name":"Deepak Kumar","so":"Nil","Address":"Rajpura","Phone":"8273313873"},{"Name":"Yatendra Kumar","so":"Nil","Address":"Rajpura","Phone":"7500251982"},{"Name":"Mayenk Kumar","so":"Nil","Address":"Rajpura","Phone":"8171434287"},{"Name":"Praveen Kumar","so":"Nil","Address":"Rajpura","Phone":"9412454377"}],"armsLicenseHolder":[{"Name":"Nil","so":"Nil","Address":"Nil","Phone":"Nil","Weapon":"Nil"}],"chowkidar":[{"Name":"Kailash Kumar","so":"Nil","Address":"Rajpura","Phone":"8791956259"}],"councellor":[{"Name":"Vipin Kumar","so":"Nil","Address":"Rajpura","Phone":"9639414674"}],"historySheeter":[{"Name":"Nil","so":"Nil","Address":"Nil","Status":"Nil","Phone":"Nil"}],"convictedCriminals":[{"Name":"Nil","so":"Nil","crimeno":"Nil","Section":"Nil","Address":"Nil"}],"crimes5Yrs":[{"Name":"Kapil","so":"Ratan Pal","crimeno":"74/16","Section":"304 B/201/498 A Ipc 3/4 D Act","Address":"Rajpura"},{"Name":"Rahul","so":"Amode","crimeno":"104/16","Section":"323/504/506/452/376/511 Ipc","Address":"Rajpura"},{"Name":"Vishal Aka Bablu","so":"Ratan Lal","crimeno":"232/16","Section":"147/148/504/506 Ipc","Address":"Rajpura"}],"electionCrimes":[{"Name":"Nil","so":"Nil","crimeno":"Nil","Section":"Nil","Address":"Nil"}],"politician":[{"Name":"Nil","so":"Nil","Address":"Nil","Phone":"Nil"}],"boundDownUnder":"Nil","vulnerabilityDetails":"General","warrantedCriminals":[{"Name":"Nil","so":"Nil","Address":"Nil","Phone":"Nil"}],"condition":"Good"},{"stationID":"GN-07","stationName":"Subash Inter College Rajpura","latitude":"29.0130","longitude":"77.7694","polingCenterPhoto":"../img/mediPanchayat.png","routes":"../img/3.png","collectionPoint":"../img/3.png","population":"Nil","voters":"Nil","villageMohalla":"Rajpura 2, Krishan Lock, Vijay Lock 1-2 , Green Park, Green City, Paradiles, Amanvehar","path":"#/menu/tab/medicalDetails","respectedPpl":[{"Name":"Shubash Chaudher","so":"Nil","Address":"Rajpura","Phone":"9456655364"},{"Name":"Shiv Kumar Tyagi","so":"Nil","Address":"Rajpura","Phone":"8057137800"}],"retiredGovtSer":[{"Name":"Nil","so":"Nil","Address":"Nil","Phone":"Nil"}],"neighbourPolling":[{"Name":"Seema Tyagi","so":"Nil","Address":"Rajpura","Phone":"7078364204"},{"Name":"Shiv Kumar Tyagi","so":"Nil","Address":"Rajpura","Phone":"8057137800"},{"Name":"Shubash Chaudhry","so":"Nil","Address":"Rajpura","Phone":"9456655364"},{"Name":"Preeti Chaudhry","so":"Nil","Address":"Rajpura","Phone":"8171777404"},{"Name":"Yogendra Singh","so":"Nil","Address":"Rajpura","Phone":"7895859753"}],"armsLicenseHolder":[{"Name":"Nil","so":"Nil","Address":"Nil","Phone":"Nil","Weapon":"Nil"}],"chowkidar":[{"Name":"Kailash Kumar","so":"Nil","Address":"Rajpura","Phone":"8791956259"}],"councellor":[{"Name":"Vipin Kumar","so":"Nil","Address":"Rajpura","Phone":"9639414674"}],"historySheeter":[{"Name":"Nil","so":"Nil","Address":"Nil","Status":"Nil","Phone":"Nil"}],"convictedCriminals":[{"Name":"Nil","so":"Nil","crimeno":"Nil","Section":"Nil","Address":"Nil"}],"crimes5Yrs":[{"Name":"Ankur Dhama","so":"Nil","crimeno":"151/16","Section":"307/506 Ipc","Address":"Rajpura"}],"electionCrimes":[{"Name":"Nil","so":"Nil","crimeno":"Nil","Section":"Nil","Address":"Nil"}],"politician":[{"Name":"Nil","so":"Nil","Address":"Nil","Phone":"Nil"}],"boundDownUnder":"Nil","vulnerabilityDetails":"Critical","warrantedCriminals":[{"Name":"Nil","so":"Nil","Address":"Nil","Phone":"Nil"}],"condition":"Good"},{"stationID":"GN-08","stationName":"Prathmik Vedhyela Salalpur Jalalpur","latitude":"29.1276","longitude":"77.8887","polingCenterPhoto":"../img/mediPanchayat.png","routes":"../img/3.png","collectionPoint":"../img/3.png","population":"Nil","voters":"Nil","villageMohalla":" Sararpur Jalalpur 1, 2","path":"#/menu/tab/medicalDetails","respectedPpl":[{"Name":"Kuwar Sabh Bhardwaj","so":"Aum Dut Sharam","Address":"Salalpur","Phone":"9412207294"},{"Name":"Rajeev Chaudhry","so":"Nil","Address":"Salalpur","Phone":"9837354857"},{"Name":"Sohan Pal","so":"Mahender Singh","Address":"Salalpur","Phone":"9012499323"},{"Name":"Surender","so":"Raja Ram","Address":"Salalpur","Phone":"9012924744"},{"Name":"Permod Giri","so":"Chaman Giri","Address":"Salalpur","Phone":"8057141788"},{"Name":"Kishan Kumar","so":"Aum Dut Sharam","Address":"Salalpur","Phone":"9012794084"}],"retiredGovtSer":[{"Name":"sohan pal singh","so":"mahender singh","Address":"salalpur","Phone":"9012499323"},{"Name":"veer pal","so":"khem chnad","Address":"salalpur","Phone":"0121-2622218"},{"Name":"jay veer ","so":"taz singh","Address":"salalpur","Phone":"9456638073"},{"Name":"verender","so":"mahaveer","Address":"salalpur","Phone":"9837689107"},{"Name":"harveer ","so":"ratan singh","Address":"salalpur","Phone":"9411667601"}],"neighbourPolling":[{"Name":"Amit Sharma","so":"Nil","Address":"Salalpur","Phone":"7500139044"},{"Name":"Sunil Kumar","so":"Nil","Address":"Salalpur","Phone":"9756512040"},{"Name":"Sanjeev","so":"Nil","Address":"Salalpur","Phone":"9719005151"},{"Name":"Gaurav Kumar","so":"Nil","Address":"Salalpur","Phone":"9012978114"},{"Name":"Rajeev Chaudhry","so":"Nil","Address":"Salalpur","Phone":"9837354857"}],"armsLicenseHolder":[{"Name":"Nil","so":"Nil","Address":"Nil","Phone":"Nil","Weapon":"Nil"}],"chowkidar":[{"Name":"Sukh Pal Singh","so":"Nil","Address":"Salalpur","Phone":"7060954175"}],"councellor":[{"Name":"Kuwar Sabh Bhardwaj","so":"Nil","Address":"Salalpur","Phone":"9412207294"}],"historySheeter":[{"Name":"Nil","so":"Nil","Address":"Nil","Status":"Nil","Phone":"Nil"}],"convictedCriminals":[{"Name":"Nil","so":"Nil","crimeno":"Nil","Section":"Nil","Address":"Nil"}],"crimes5Yrs":[{"Name":"Nil","so":"Nil","crimeno":"Nil","Section":"Nil","Address":"Nil"}],"electionCrimes":[{"Name":"Nil","so":"Nil","crimeno":"Nil","Section":"Nil","Address":"Nil"}],"politician":[{"Name":"Nil","so":"Nil","Address":"Nil","Phone":"Nil"}],"boundDownUnder":"Nil","vulnerabilityDetails":"Critical","warrantedCriminals":[{"Name":"Nil","so":"Nil","Address":"Nil","Phone":"Nil"}],"condition":"Good"},{"stationID":"GN-09","stationName":"Community Center Defence Colony","latitude":" 29.0114","longitude":"77.7425","polingCenterPhoto":"../img/mediPanchayat.png","routes":"../img/3.png","collectionPoint":"../img/3.png","population":"Nil","voters":"Nil","villageMohalla":"Defence Colony 1, 2","path":"#/menu/tab/medicalDetails","respectedPpl":[{"Name":"Nil","so":"Nil","Address":"Nil","Phone":"Nil"}],"retiredGovtSer":[{"Name":"Nil","so":"Nil","Address":"Nil","Phone":"Nil"}],"neighbourPolling":[{"Name":"Nil","so":"Nil","Address":"Nil","Phone":"Nil"}],"armsLicenseHolder":[{"Name":"Nil","so":"Nil","Address":"Nil","Phone":"Nil","Weapon":"Nil"}],"chowkidar":[{"Name":"Nil","so":"Nil","Address":"Nil","Phone":"Nil"}],"councellor":[{"Name":"Dinesh Kumar","so":"Nil","Address":"Defence Colony","Phone":"9219536407"}],"historySheeter":[{"Name":"Nil","so":"Nil","Address":"Nil","Status":"Nil","Phone":"Nil"}],"convictedCriminals":[{"Name":"Nil","so":"Nil","crimeno":"Nil","Section":"Nil","Address":"Nil"}],"crimes5Yrs":[{"Name":"Nil","so":"Nil","crimeno":"Nil","Section":"Nil","Address":"Nil"}],"electionCrimes":[{"Name":"Nil","so":"Nil","crimeno":"Nil","Section":"Nil","Address":"Nil"}],"politician":[{"Name":"Nil","so":"Nil","Address":"Nil","Phone":"Nil"}],"boundDownUnder":"Nil","vulnerabilityDetails":"General","warrantedCriminals":[{"Name":"Nil","so":"Nil","Address":"Nil","Phone":"Nil"}],"condition":"Good"},{"stationID":"GN-10","stationName":"Sarasvati Shishu Mandir Ganga Nagar","latitude":"29.0030","longitude":"77.7579","polingCenterPhoto":"../img/mediPanchayat.png","routes":"../img/3.png","collectionPoint":"../img/3.png","population":"Nil","voters":"Nil","villageMohalla":"Ganga Nagar 1 to 8","path":"#/menu/tab/medicalDetails","respectedPpl":[{"Name":"Santh Pal Tyagi","so":"Nil","Address":"H Block Ganga Nagar","Phone":"8192903872"},{"Name":"Narendra Sharma","so":"Nil","Address":"H Block Ganga Nagar","Phone":"9548458947"}],"retiredGovtSer":[{"Name":"Nil","so":"Nil","Address":"Nil","Phone":"Nil"}],"neighbourPolling":[{"Name":"Gurpreet Singh","so":"Nil","Address":"H Block Ganga Nagar","Phone":"8791285075"},{"Name":"Sonu Kumar","so":"Nil","Address":"H Block Ganga Nagar","Phone":"8923660624"},{"Name":"Santh Pal Tyagi","so":"Nil","Address":"H Block Ganga Nagar","Phone":"8192903872"},{"Name":"Narendra Sharma","so":"Nil","Address":"H Block Ganga Nagar","Phone":"9548458947"},{"Name":"Bunty Kumar","so":"Nil","Address":"H Block Ganga Nagar","Phone":"8273598883"}],"armsLicenseHolder":[{"Name":"Nil","so":"Nil","Address":"Nil","Phone":"Nil","Weapon":"Nil"}],"chowkidar":[{"Name":"Nil","so":"Nil","Address":"Nil","Phone":"Nil"}],"councellor":[{"Name":"Dinesh Kumar","so":"Nil","Address":"Defence Colony","Phone":"9219536407"}],"historySheeter":[{"Name":"Nil","so":"Nil","Address":"Nil","Status":"Nil","Phone":"Nil"}],"convictedCriminals":[{"Name":"Nil","so":"Nil","crimeno":"Nil","Section":"Nil","Address":"Nil"}],"crimes5Yrs":[{"Name":"Nil","so":"Nil","crimeno":"Nil","Section":"Nil","Address":"Nil"}],"electionCrimes":[{"Name":"Nil","so":"Nil","crimeno":"Nil","Section":"Nil","Address":"Nil"}],"politician":[{"Name":"Nil","so":"Nil","Address":"Nil","Phone":"Nil"}],"boundDownUnder":"Nil","vulnerabilityDetails":"General","warrantedCriminals":[{"Name":"Nil","so":"Nil","Address":"Nil","Phone":"Nil"}],"condition":"Good"},{"stationID":"GN-11","stationName":"Avenu Public School","latitude":"29.0057","longitude":"77.7611","polingCenterPhoto":"../img/mediPanchayat.png","routes":"../img/3.png","collectionPoint":"../img/3.png","population":"Nil","voters":"Nil","villageMohalla":"Ganga Nagar 9, Greater Ganga, Block A, KC, F,HF,HE,HP,K,GP,B,C,PR ANCLAVE,P ,FP, D, IC, JF, I, M, Ganga Garden, JG, Ganga Dham , Alak Ganga Dham, IIMT College, L, JC Block","path":"#/menu/tab/medicalDetails","respectedPpl":[{"Name":"Aum Pal","so":"Nil","Address":"Ganga Nagar","Phone":"9271873560"},{"Name":"Shish Pal","so":"Nil","Address":"Ganga Nagar","Phone":"9719198072"},{"Name":"Shri Papu Kaji Pur","so":"Nil","Address":"Ganga Nagar","Phone":"9837593561"},{"Name":"Mukesh Sharma","so":"Nil","Address":"Ganga Nagar","Phone":"9917603148"},{"Name":"Sachin Kumar","so":"Nil","Address":"Ganga Nagar","Phone":"9997956867"}],"retiredGovtSer":[{"Name":"B. K Tyagi","so":"Nil","Address":"Ganga Nagar","Phone":"9897200356"},{"Name":"M.k Tyagi","so":"Nil","Address":"Ganga Nagar","Phone":"8699038779"},{"Name":"Sukh Veer Singh","so":"Nil","Address":"Ganga Nagar","Phone":"8171572424"},{"Name":"Sardar Singh","so":"Nil","Address":"Ganga Nagar","Phone":"9997939941"},{"Name":"Har Pal Singh","so":"Nil","Address":"Ganga Nagar","Phone":"9411616354"}],"neighbourPolling":[{"Name":"Sabhir","so":"Nil","Address":"Ganga Nagar","Phone":"9259784910"},{"Name":"Shish Pal","so":"Nil","Address":"Ganga Nagar","Phone":"9719198072"},{"Name":"Ranjeet Singh","so":"Nil","Address":"Ganga Nagar","Phone":"9837004835"},{"Name":"Shubash Tyagi","so":"Nil","Address":"Ganga Nagar","Phone":"9927361133"}],"armsLicenseHolder":[{"Name":"Nil","so":"Nil","Address":"Nil","Phone":"Nil","Weapon":"Nil"}],"chowkidar":[{"Name":"Nil","so":"Nil","Address":"Nil","Phone":"Nil"}],"councellor":[{"Name":"Dinesh Kumar","so":"Nil","Address":"Defence Colony","Phone":"9219536407"}],"historySheeter":[{"Name":"Bhoop Singh","so":"Raj Kumar","Address":"I Block","Status":"Present","Phone":"Nil"},{"Name":"Sandeep Bansal","so":"Jogendera Singh","Address":"He Coloney","Status":"Present","Phone":"Nil"}],"convictedCriminals":[{"Name":"Nil","so":"Nil","crimeno":"Nil","Section":"Nil","Address":"Nil"}],"crimes5Yrs":[{"Name":"Nitin Baliyan","so":"Prahalad Singh","crimeno":"15/11.","Section":"301 Ipc","Address":"Jg Block"},{"Name":"Mohit Tyagi","so":"Yogendra Pal","crimeno":"33/15","Section":"373/511/ipc Va 7/8 Posco Act","Address":"C-42 Ganga Nagar"},{"Name":"Deepak","so":"Dharam Singh","crimeno":"75/15","Section":"147/148/149/302/120 B 506 Ipc","Address":"Shiv Mandir Buxer"},{"Name":"Dharam Veer","so":"Sundar Lal","crimeno":"16/07.","Section":"302/201 Ipc","Address":"Plackhua Hapur"},{"Name":"Hemant Aka Golu","so":"Ajat Singh","crimeno":"33/16","Section":"147/148/149/307/323/506/325/ Ipc","Address":"Prakishit Garh"},{"Name":"Deepak","so":"Sukhveer","crimeno":"173/16","Section":"498 A /304 B Ipc Va 3/4 D Act","Address":"F513, F512 Ganga Nagar"},{"Name":"Tarun","so":"Viresh Tyagi","crimeno":"204/16","Section":"498 A /304 B Ipc Va 3/4 D Act","Address":"C-36 Gangadham"},{"Name":"Viresh","so":"Devdut","crimeno":"204/16","Section":"498 A /304 B Ipc Va 3/4 D Act","Address":"C-36 Gangadham"},{"Name":"Poonam","so":"W/o Viresh","crimeno":"204/16","Section":"498 A /304 B Ipc Va 3/4 D Act","Address":"C-36 Gangadham"},{"Name":"Puneet","so":"Devdut","crimeno":"204/16","Section":"498 A /304 B Ipc Va 3/4 D Act","Address":"C-36 Gangadham"},{"Name":"Kapil","so":"Suraj Mal","crimeno":"283/16","Section":"147/148/149/307 Ipc","Address":"Buxer"}],"electionCrimes":[{"Name":"Nil","so":"Nil","crimeno":"Nil","Section":"Nil","Address":"Nil"}],"politician":[{"Name":"Nil","so":"Nil","Address":"Nil","Phone":"Nil"}],"boundDownUnder":"Nil","vulnerabilityDetails":"General","warrantedCriminals":[{"Name":"Nil","so":"Nil","Address":"Nil","Phone":"Nil"}],"condition":"Good"},{"stationID":"GN-12","stationName":"Adarsh Vidyalaya Mandir","latitude":"29.0037","longitude":"77.7493","polingCenterPhoto":"../img/mediPanchayat.png","routes":"../img/3.png","collectionPoint":"../img/3.png","population":"Nil","voters":"Nil","villageMohalla":"Ganga Nagar -10,11,12; koji Colony, Rajendra Puram","path":"#/menu/tab/medicalDetails","respectedPpl":[{"Name":"Krishan Dut Sharma","so":"Nil","Address":"B-block Ganga Nagar","Phone":"9759137267"},{"Name":"Rahul Kumar","so":"Nil","Address":"B-block Ganga Nagar","Phone":"9410880427"},{"Name":"Lalit Kumar","so":"Nil","Address":"B-block Ganga Nagar","Phone":"7500000605"},{"Name":"Arun Kumar","so":"Nil","Address":"B-block Ganga Nagar","Phone":"9259053790"},{"Name":"Rohit Kuma","so":"Nil","Address":"B-block Ganga Nagar","Phone":"8273397010"},{"Name":"Nirbhay Singh","so":"Nil","Address":"B-block Ganga Nagar","Phone":"9045962944"},{"Name":"Rohit Rajput","so":"Nil","Address":"B-block Ganga Nagar","Phone":"9599204583"}],"retiredGovtSer":[{"Name":"Nil","so":"Nil","Address":"Nil","Phone":"Nil"}],"neighbourPolling":[{"Name":"Krishan Dutt Sharma","so":"Nil","Address":"Nil","Phone":"9759137267"},{"Name":"Manoj Kumar","so":"Nil","Address":"Nil","Phone":"9927270756"},{"Name":"Pinku","so":"W/o Lokesh","Address":"Nil","Phone":"9152017376"},{"Name":"Manju","so":"W/o Ajay","Address":"Nil","Phone":"9152756559"},{"Name":"Rahul Kumar","so":"Nil","Address":"Nil","Phone":"9410880427"}],"armsLicenseHolder":[{"Name":"Nil","so":"Nil","Address":"Nil","Phone":"Nil","Weapon":"Nil"}],"chowkidar":[{"Name":"Nil","so":"Nil","Address":"Nil","Phone":"Nil"}],"councellor":[{"Name":"Dinesh Kumar","so":"Nil","Address":"Defence Colony","Phone":"9219536407"}],"historySheeter":[{"Name":"Nil","so":"Nil","Address":"Nil","Status":"Nil","Phone":"Nil"}],"convictedCriminals":[{"Name":"Nil","so":"Nil","crimeno":"Nil","Section":"Nil","Address":"Nil"}],"crimes5Yrs":[{"Name":"Nil","so":"Nil","crimeno":"Nil","Section":"Nil","Address":"Nil"}],"electionCrimes":[{"Name":"Nil","so":"Nil","crimeno":"Nil","Section":"Nil","Address":"Nil"}],"politician":[{"Name":"Nil","so":"Nil","Address":"Nil","Phone":"Nil"}],"boundDownUnder":"Nil","vulnerabilityDetails":"General","warrantedCriminals":[{"Name":"Nil","so":"Nil","Address":"Nil","Phone":"Nil"}],"condition":"Good"},{"stationID":"GN-13","stationName":"Sanvesh Public School","latitude":"29.0049","longitude":"77.7420","polingCenterPhoto":"../img/mediPanchayat.png","routes":"../img/3.png","collectionPoint":"../img/3.png","population":"Nil","voters":"Nil","villageMohalla":"Minakshi Puram, Laal Park, AWHO Colony , PNT Colony, Radha Garden, Nehru Nagar, Azad Nagar, New Minakshi  Puram","path":"#/menu/tab/medicalDetails","respectedPpl":[{"Name":"Gyanendra Chaudhry","so":"Nil","Address":"Radha Garden","Phone":"9412201788"},{"Name":"Vijay Kumar","so":"Nil","Address":"Radha Garden","Phone":"9720164978"},{"Name":"Surender Chnand","so":"Nil","Address":"Radha Garden","Phone":"9358880029"},{"Name":"Somi Tandan","so":"P.c Tandan","Address":"Radha Garden","Phone":"0121-2620232"},{"Name":"Rajnish Gupta","so":"L.c Gupta","Address":"Radha Garden","Phone":"9412201692"},{"Name":"H.s Chauhan","so":"Bhola Singh","Address":"Radha Garden","Phone":"0121-2620025"}],"retiredGovtSer":[{"Name":"Rajnish Gupta","so":"L.c Gupta","Address":"Radha Garden","Phone":"9412201692"},{"Name":"H.s Chouhan","so":"Bhola Singh","Address":"Radha Garden","Phone":"0121-2620025"},{"Name":"V.k Singh","so":"Nil","Address":"Radha Garden","Phone":"8979966776"},{"Name":"Rajender Prasad Sharma","so":"Kanti Prasad Sharma","Address":"Radha Garden","Phone":"9410232823"}],"neighbourPolling":[{"Name":"Raju","so":"Nil","Address":"Radha Garden","Phone":"9536874619"},{"Name":"Yashveer Singh","so":"Nil","Address":"Radha Garden","Phone":"9837047547"},{"Name":"Gyanendra Chaudhry","so":"Nil","Address":"Radha Garden","Phone":"9412201788"},{"Name":"Sachin Kumar","so":"Nil","Address":"Radha Garden","Phone":"9420273488"}],"armsLicenseHolder":[{"Name":"Nil","so":"Nil","Address":"Nil","Phone":"Nil","Weapon":"Nil"}],"chowkidar":[{"Name":"Nil","so":"Nil","Address":"Nil","Phone":"Nil"}],"councellor":[{"Name":"Dinesh Kumar","so":"Nil","Address":"Defence Colony","Phone":"9219536407"}],"historySheeter":[{"Name":"Nil","so":"Nil","Address":"Nil","Status":"Nil","Phone":"Nil"}],"convictedCriminals":[{"Name":"Nil","so":"Nil","crimeno":"Nil","Section":"Nil","Address":"Nil"}],"crimes5Yrs":[{"Name":"Kapil","so":"Suraj Mal","crimeno":"172/16","Section":"302/307 Ipc","Address":"Buxer"},{"Name":"Monu","so":"Vijay","crimeno":"172/16","Section":"302/307 Ipc","Address":"Buxer"},{"Name":"Anuj Aka Bunty","so":"Mukesh","crimeno":"172/16","Section":"302/307 Ipc","Address":"Buxer"},{"Name":"Bunty","so":"Dharamveer","crimeno":"172/16","Section":"302/307 Ipc","Address":"Buxer"},{"Name":"Pradeep","so":"Nirbhay Sharan","crimeno":"172/16","Section":"302/307 Ipc","Address":"Ram Raj"}],"electionCrimes":[{"Name":"Nil","so":"Nil","crimeno":"Nil","Section":"Nil","Address":"Nil"}],"politician":[{"Name":"Nil","so":"Nil","Address":"Nil","Phone":"Nil"}],"boundDownUnder":"Nil","vulnerabilityDetails":"General","warrantedCriminals":[{"Name":"Nil","so":"Nil","Address":"Nil","Phone":"Nil"}],"condition":"Good"},{"stationID":"GN-14","stationName":"Little Flower Public School","latitude":"29.0103","longitude":"77.7518","polingCenterPhoto":"../img/mediPanchayat.png","routes":"../img/3.png","collectionPoint":"../img/3.png","population":"Nil","voters":"Nil","villageMohalla":"Kaseru Baxer 1,2,3; Yeshoda Kunaj 1,2,3","path":"#/menu/tab/medicalDetails","respectedPpl":[{"Name":"Data Ram","so":"Nil","Address":"Ganga Nagar","Phone":"9639954087"},{"Name":"Dharamveer Shingh","so":"Nil","Address":"Ganga Nagar","Phone":"9720595489"},{"Name":"Rajender Singh","so":"Jagram","Address":"Kasaru Buxer","Phone":"9634652717"},{"Name":"Billu Aka Uday Veer","so":"Rati Ram","Address":"Kasaru Buxer","Phone":"9837803423"},{"Name":"Gaurav","so":"Uday Veer","Address":"Kasaru Buxer","Phone":"9837674949"},{"Name":"Bal Ram","so":"Dhuli Chnad","Address":"Kasaru Buxer","Phone":"7037695856"}],"retiredGovtSer":[{"Name":"Veer Pal Singh","so":"Bal Swrup Yadav","Address":"Kasaru Buxer","Phone":"9927176180"},{"Name":"Ajay Pal Singh","so":"Bhadur Singh","Address":"Kasaru Buxer","Phone":"9411820766"},{"Name":"Yamin","so":"Sabudeen","Address":"Kasaru Buxer","Phone":"Nil"}],"neighbourPolling":[{"Name":"Data Ram","so":"Nil","Address":"Buxer","Phone":"9639954087"},{"Name":"Yashpal","so":"Nil","Address":"Buxer","Phone":"9758119573"},{"Name":"Dharamveer","so":"Nil","Address":"Buxer","Phone":"9720595489"},{"Name":"Ranveer Shingh","so":"Nil","Address":"Buxer","Phone":"8057591818"}],"armsLicenseHolder":[{"Name":"Nil","so":"Nil","Address":"Nil","Phone":"Nil","Weapon":"Nil"}],"chowkidar":[{"Name":"Nil","so":"Nil","Address":"Nil","Phone":"Nil"}],"councellor":[{"Name":"Dinesh Kumar","so":"Nil","Address":"Defence Colony","Phone":"9219536407"}],"historySheeter":[{"Name":"Raju","so":"Attray","Address":"Buxer","Status":"Present","Phone":"Nil"},{"Name":"Jalish","so":"Iqbal","Address":"Buxer","Status":"Present","Phone":"Nil"},{"Name":"Prakesh","so":"Veersingh","Address":"Buxer","Status":"Missing","Phone":"Nil"},{"Name":"Lalit Sharma","so":"Pratap Sharam","Address":"Buxer","Status":"Present","Phone":"Nil"}],"convictedCriminals":[{"Name":"Nil","so":"Nil","crimeno":"Nil","Section":"Nil","Address":"Nil"}],"crimes5Yrs":[{"Name":"Kapil","so":"Suraj Mal","crimeno":"172/16","Section":"302/307 Ipc","Address":"Buxer"},{"Name":"Monu","so":"Vijay","crimeno":"172/16","Section":"302/307 Ipc","Address":"Buxer"},{"Name":"Anuj Aka Bunty","so":"Mukesh","crimeno":"172/16","Section":"302/307 Ipc","Address":"Buxer"},{"Name":"Bunty","so":"Dharamveer","crimeno":"172/16","Section":"302/307 Ipc","Address":"Buxer"},{"Name":"Pradeep","so":"Nirbhay Sharan","crimeno":"172/16","Section":"302/307 Ipc","Address":"Ram Raj"}],"electionCrimes":[{"Name":"Nil","so":"Nil","crimeno":"Nil","Section":"Nil","Address":"Nil"}],"politician":[{"Name":"Nil","so":"Nil","Address":"Nil","Phone":"Nil"}],"boundDownUnder":"Nil","vulnerabilityDetails":"General","warrantedCriminals":[{"Name":"Nil","so":"Nil","Address":"Nil","Phone":"Nil"}],"condition":"Good"},{"stationID":"GN-15","stationName":"Prathmik Vidyalaya Kaseru Buxer","latitude":"29.0105","longitude":"77.7535","polingCenterPhoto":"../img/mediPanchayat.png","routes":"../img/3.png","collectionPoint":"../img/3.png","population":"Nil","voters":"Nil","villageMohalla":"Kaseru Baxer4,5; Punchvati Colony","path":"#/menu/tab/medicalDetails","respectedPpl":[{"Name":"Abdul Salam","so":"Abdul Vasim","Address":"Kaseru Buxer","Phone":"8126391604"},{"Name":"Sidhart Sharma","so":"Suresh Kumar Sharma","Address":"Kaseru Buxer","Phone":"9027623637"},{"Name":"Santh Pal","so":"Bharat Singh","Address":"Kaseru Buxer","Phone":"9719618909"},{"Name":"Kiran Pal","so":"Tilak Ram","Address":"Kaseru Buxer","Phone":"9917489072"},{"Name":"Shanker","so":"Desh Raj Singh","Address":"Kaseru Buxer","Phone":"8006952868"}],"retiredGovtSer":[{"Name":"Hasmudeen","so":"Abdul Sattar","Address":"Kaseru Baxer","Phone":"9897440005"},{"Name":"Rajnish Singh","so":"Kacheru","Address":"Kaseru Baxer","Phone":"9759585291"},{"Name":"Yogender Sharam","so":"Ram Sharan","Address":"Kaseru Baxer","Phone":"Nil"},{"Name":"Mahesh Sharam","so":"Bhukkay Singh","Address":"Kaseru Baxer","Phone":"9259577454"},{"Name":"Yogesh Sharam","so":"Ram Sharan","Address":"Kaseru Baxer","Phone":"Nil"}],"neighbourPolling":[{"Name":"Wakil","so":"Nil","Address":"Buxer","Phone":"9536959831"},{"Name":"Mohd. Khalid","so":"Nil","Address":"Buxer","Phone":"9085632718"},{"Name":"Mohd.sammi","so":"Nil","Address":"Buxer","Phone":"9219191631"}],"armsLicenseHolder":[{"Name":"Nil","so":"Nil","Address":"Nil","Phone":"Nil","Weapon":"Nil"}],"chowkidar":[{"Name":"Nil","so":"Nil","Address":"Nil","Phone":"Nil"}],"councellor":[{"Name":"Dinesh Kumar","so":"Nil","Address":"Defence Colony","Phone":"9219536407"}],"historySheeter":[{"Name":"Amrit Aka Amit","so":"Sukkhan","Address":"Buxer","Status":"Present","Phone":"Nil"},{"Name":"Faizan","so":"Imamul Hak","Address":"Buxer","Status":"Present","Phone":"Nil"}],"convictedCriminals":[{"Name":"Nil","so":"Nil","crimeno":"Nil","Section":"Nil","Address":"Nil"}],"crimes5Yrs":[{"Name":"Nil","so":"Nil","crimeno":"Nil","Section":"Nil","Address":"Nil"}],"electionCrimes":[{"Name":"Nil","so":"Nil","crimeno":"Nil","Section":"Nil","Address":"Nil"}],"politician":[{"Name":"Nil","so":"Nil","Address":"Nil","Phone":"Nil"}],"boundDownUnder":"Nil","vulnerabilityDetails":"General","warrantedCriminals":[{"Name":"Nil","so":"Nil","Address":"Nil","Phone":"Nil"}],"condition":"Good"},{"stationID":"GN-16","stationName":"Sarladevi Vedhyapeth Amera Adipur Road Buxer","latitude":"29.0122","longitude":"77.7499","polingCenterPhoto":"../img/mediPanchayat.png","routes":"../img/3.png","collectionPoint":"../img/3.png","population":"Nil","voters":"Nil","villageMohalla":"Minakshi Puram2,3; Rakshapuram, Ajad Nagar 2, Tilakpuram, Abdul Hamid Gang Buxer, Hanuman Mandir Buxer","path":"#/menu/tab/medicalDetails","respectedPpl":[{"Name":"Aum Pal","so":"Meer Singh","Address":"Kaseru Buxer","Phone":"8307732551"},{"Name":"Vishal","so":"Mul Chnad","Address":"Kaseru Buxer","Phone":"8923365053"},{"Name":"Naresh Kumar","so":"Mul Chnad","Address":"Kaseru Buxer","Phone":"9012032010"},{"Name":"Anil","so":"Sath Pal","Address":"Kaseru Buxer","Phone":"9758532449"},{"Name":"Yash Veer Singh","so":"Chotty Lal","Address":"Kaseru Buxer","Phone":"9837393185"}],"retiredGovtSer":[{"Name":"Anand Sharam","so":"Sukhan","Address":"Kaseru Buxer","Phone":"8810020872"},{"Name":"Mahrnder Sharam","so":"Raja Ram Sharam","Address":"Kaseru Buxer","Phone":"8936951673"}],"neighbourPolling":[{"Name":"Garesh Traders Sonu","so":"Nil","Address":"Buxer","Phone":"8923660624"},{"Name":"Gurpreet Singh","so":"Nil","Address":"Minakshipuram","Phone":"8791285705"},{"Name":"Santh Pal","so":"Nil","Address":"Minakshipuram","Phone":"8192903872"},{"Name":"Narendra Sharma","so":"Nil","Address":"Minakshipuram","Phone":"9548458947"},{"Name":"Bunty","so":"Nil","Address":"Minakshipuram","Phone":"8273598883"}],"armsLicenseHolder":[{"Name":"Nil","so":"Nil","Address":"Nil","Phone":"Nil","Weapon":"Nil"}],"chowkidar":[{"Name":"Nil","so":"Nil","Address":"Nil","Phone":"Nil"}],"councellor":[{"Name":"Dinesh Kumar","so":"Nil","Address":"Defence Colony","Phone":"9219536407"}],"historySheeter":[{"Name":"Nil","so":"Nil","Address":"Nil","Status":"Nil","Phone":"Nil"}],"convictedCriminals":[{"Name":"Nil","so":"Nil","crimeno":"Nil","Section":"Nil","Address":"Nil"}],"crimes5Yrs":[{"Name":"Nil","so":"Nil","crimeno":"Nil","Section":"Nil","Address":"Nil"}],"electionCrimes":[{"Name":"Nil","so":"Nil","crimeno":"Nil","Section":"Nil","Address":"Nil"}],"politician":[{"Name":"Nil","so":"Nil","Address":"Nil","Phone":"Nil"}],"boundDownUnder":"Nil","vulnerabilityDetails":"General","warrantedCriminals":[{"Name":"Nil","so":"Nil","Address":"Nil","Phone":"Nil"}],"condition":"Good"},{"stationID":"GN-17","stationName":"Dr. Ambedker Junior High Scool Lal Park","latitude":"29.0095","longitude":"77.7485","polingCenterPhoto":"../img/mediPanchayat.png","routes":"../img/3.png","collectionPoint":"../img/3.png","population":"Nil","voters":"Nil","villageMohalla":"Lal Park","path":"#/menu/tab/medicalDetails","respectedPpl":[{"Name":"Bhrum Singh","so":"Dal Chnad","Address":"Lal Park","Phone":"9319984636"},{"Name":"Kalu Ram","so":"Hate Ram","Address":"Lal Park","Phone":"9997933761"},{"Name":"Yogesh Kumar","so":"Ganga Ram","Address":"Lal Park","Phone":"9837420964"},{"Name":"Santh Lal","so":"Buday Singh","Address":"Lal Park","Phone":"7534935194"},{"Name":"Rakesh Kumar","so":"Samay Singh","Address":"Lal Park","Phone":"9412663782"}],"retiredGovtSer":[{"Name":"Dharam Singh","so":"Nathu Singh","Address":"Lal Park","Phone":"7088825704"},{"Name":"Bhagvan Das","so":"Shyam Singh","Address":"Lal Park","Phone":"9639181419"},{"Name":"Yogesh Singh","so":"Nil","Address":"Lal Park","Phone":"9411618601"},{"Name":"Suresh Chand Sharam","so":"Nil","Address":"Lal Park","Phone":"9927253031"},{"Name":"Bushan Sharma","so":"Nil","Address":"Lal Park","Phone":"9456010001"},{"Name":"Ashok Sharam","so":"Nil","Address":"Lal Park","Phone":"9639113334"},{"Name":"Inder Palsingh","so":"Nil","Address":"Lal Park","Phone":"9012493946"},{"Name":"Jogrnder Singh","so":"Nil","Address":"Lal Park","Phone":"9927713496"}],"neighbourPolling":[{"Name":"Mahaveer Singh","so":"Nil","Address":"Lalpark","Phone":"9927959927"},{"Name":"Birjesh Kumar","so":"Nil","Address":"Lalpark","Phone":"9917087367"},{"Name":"Dr. Dalchand","so":"Nil","Address":"Lalpark","Phone":"9927246392"},{"Name":"Nayab Singh","so":"Nil","Address":"Lalpark","Phone":"9837189964"},{"Name":"Rajendra Kumar","so":"Nil","Address":"Lalpark","Phone":"9720355755"}],"armsLicenseHolder":[{"Name":"Nil","so":"Nil","Address":"Nil","Phone":"Nil","Weapon":"Nil"}],"chowkidar":[{"Name":"Nil","so":"Nil","Address":"Nil","Phone":"Nil"}],"councellor":[{"Name":"Dinesh Kumar","so":"Nil","Address":"Defence Colony","Phone":"9219536407"}],"historySheeter":[{"Name":"Nil","so":"Nil","Address":"Nil","Status":"Nil","Phone":"Nil"}],"convictedCriminals":[{"Name":"Nil","so":"Nil","crimeno":"Nil","Section":"Nil","Address":"Nil"}],"crimes5Yrs":[{"Name":"Nil","so":"Nil","crimeno":"Nil","Section":"Nil","Address":"Nil"}],"electionCrimes":[{"Name":"Nil","so":"Nil","crimeno":"Nil","Section":"Nil","Address":"Nil"}],"politician":[{"Name":"Nil","so":"Nil","Address":"Nil","Phone":"Nil"}],"boundDownUnder":"Nil","vulnerabilityDetails":"General","warrantedCriminals":[{"Name":"Nil","so":"Nil","Address":"Nil","Phone":"Nil"}],"condition":"Good"}]