[{"stationID":"DG-01","stationName":"J.N. Academy","latitude":"28.9833","longitude":"77.7017","polingCenterPhoto":"/img/mediPanchayat.png","routes":"/img/3.png","collectionPoint":"/img/3.png","population":"Nil","voters":"2950","villageMohalla":"Poorva Ahmad Nagar Querashi Yaan 1st & 2nd","path":"#/menu/tab/medicalDetails","respectedPpl":[{"Name":"Dr. Vakar Ahmad","so":"N/A","Address":"Poorva Ahmad Nagar","Phone":"9997629217"},{"Name":"Mohd. Chand","so":"Mustafa","Address":"Poorva Ahmad Nagar","Phone":"9897290056"},{"Name":"Haji tufail","so":"Bundu","Address":"Poorva Ahmad Nagar","Phone":"9319535922"},{"Name":"Shamshuddin","so":"Yonous","Address":"Poorva Ahmad Nagar","Phone":"9897094377"}],"retiredGovtSer":[{"Name":"Nil","so":"Nil","Address":"Nil","Phone":"Nil"}],"neighbourPolling":[{"Name":"Furkaan ","so":"Dhanni","Address":"Poorva Ahmad Nagar","Phone":"9548431746"},{"Name":"Azaz","so":"Islamuddin","Address":"Poorva Ahmad Nagar","Phone":"9897267126"},{"Name":"Imram","so":"Sameer","Address":"Poorva Ahmad Nagar","Phone":"9837408636"},{"Name":"Shehjad","so":"Mohd.Umar","Address":"Poorva Ahmad Nagar","Phone":"8881624494"},{"Name":"Saleem","so":"BabuDin","Address":"Poorva Ahmad Nagar","Phone":"8430185569"}],"armsLicenseHolder":[{"Name":"Haji Shajad","so":"Shekhwafati","Address":"Poorva Ahmad Nagar","Phone":"Nil","Weapon":"Revolver"},{"Name":"Haji Salauddin","so":"Haji Sahid","Address":"Poorva Ahmad Nagar","Phone":"Nil","Weapon":"Pistol"},{"Name":"Firoz Jamal","so":"Jhakir","Address":"Poorva Ahmad Nagar","Phone":"Nil","Weapon":"Revolver"},{"Name":"Shabuddin","so":"Wahauddin","Address":"Poorva Ahmad Nagar","Phone":"Nil","Weapon":"Sbbl"},{"Name":"Salimuddin","so":"Alimuddin","Address":"Poorva Ahmad Nagar","Phone":"Nil","Weapon":"Sbbl"},{"Name":"Haji Tufail","so":"Bundu","Address":"Poorva Ahmad Nagar","Phone":"Nil","Weapon":"Revolver"},{"Name":"Ayub Querashi","so":"Ziyakub","Address":"Poorva Ahmad Nagar","Phone":"Nil","Weapon":"Revolver"},{"Name":"Afaq","so":"Aqlaq","Address":"Poorva Ahmad Nagar","Phone":"Nil","Weapon":"Revolver"},{"Name":"Saif Ullah","so":"Amanullah","Address":"Poorva Ahmad Nagar","Phone":"Nil","Weapon":"Pistol"}],"chowkidar":[{"Name":"Nil","so":"Nil","Address":"Nil","Phone":"Nil"}],"councellor":[{"Name":"Nazma","so":"Shahid Pahelwan","Address":"Poorva Faiyaz Ali","Phone":"9319292709"}],"historySheeter":[{"Name":"Nafees","so":"Noor Mohd","Address":"Poorva Ahmad Nagar","Status":"Present","Phone":"N/A"},{"Name":"Chand","so":"Yakub","Address":"Poorva Ahmad Nagar","Status":"Jail","Phone":"N/A"},{"Name":"Umar Deen","so":"Imamuddin","Address":"Poorva Ahmad Nagar","Status":"Present","Phone":"N/A"},{"Name":"Shaukat","so":"Latif","Address":"Poorva Ahmad Nagar","Status":"Missing","Phone":"N/A"},{"Name":"Anwar","so":"Gukam Hussain","Address":"Poorva Ahmad Nagar","Status":"Jail","Phone":"N/A"},{"Name":"Anish","so":"Shubraati","Address":"Poorva Ahmad Nagar","Status":"Missing","Phone":"N/A"},{"Name":"Chand","so":"Gum Hussain","Address":"Poorva Ahmad Nagar","Status":"Missing","Phone":"N/A"},{"Name":"Shoyaib","so":"Sajid","Address":"Poorva Ahmad Nagar","Status":"Jail","Phone":"N/A"},{"Name":"Intzaar","so":"Sardar Khan","Address":"Poorva Ahmad Nagar","Status":"Missing","Phone":"N/A"},{"Name":"Waseem","so":"Iqramuddin","Address":"Poorva Ahmad Nagar","Status":"Present","Phone":"N/A"}],"convictedCriminals":[{"Name":"Arif Akatota","so":"Jahiruddin","crimeno":"Nil","Section":"Nil","Address":"Poorva Ahmad Nagar"}],"crimes5Yrs":[{"Name":"Shah Nawaz","so":"Abdul Razzzaq","crimeno":"176/11","Section":"307,323,504,506 Ipc","Address":"Hera Bedi Wali Gali Poorva Faiyaaaz Ali"},{"Name":"Imraan","so":"Shabu","crimeno":"207/11","Section":"307,504,506 Ipc","Address":"Bhopal Ki Kothi Shaym Nagar P/s Lisadi Gate"},{"Name":"Mustaaq/kala","so":"Kyum","crimeno":"27/12.","Section":"308,323,504,506","Address":"Poorva Ahmad Nagar"},{"Name":"Shahzaad","so":"Kayum","crimeno":"27/12.","Section":"308,323,504,506","Address":"Poorva Ahmad Nagar"},{"Name":"Mustqeem","so":"Nasir","crimeno":"27/12.","Section":"308,323,504,506","Address":"Poorva Ahmad Nagar"},{"Name":"Iliyaaz","so":"Nasir","crimeno":"27/12.","Section":"308,323,504,506","Address":"Poorva Ahmad Nagar"},{"Name":"Riyaz","so":"Nasir","crimeno":"27/12.","Section":"308,323,504,506","Address":"Poorva Ahmad Nagar"},{"Name":"Aas Mohd.","so":"Mustaq","crimeno":"27/12.","Section":"308,323,504,506","Address":"Poorva Ahmad Nagar"},{"Name":"Saleem","so":"Sabu","crimeno":"27/12.","Section":"308,323,504,506","Address":"Poorva Ahmad Nagar"}],"electionCrimes":[{"Name":"Nil","so":"Nil","crimeno":"Nil","Section":"Nil","Address":"Nil"}],"politician":[{"Name":"Shamshuddin Querashi ","so":" Yonous Querashi ","Address":" Poorva Ahmad Nagar","Phone":"9897094377"}],"boundDownUnder":"Nil","vulnerabilityDetails":"Critical","warrantedCriminals":[{"Name":"Nil","so":"Nil","Address":"Nil","Phone":"Nil"}],"condition":"Good"},{"stationID":"DG-02","stationName":"Mothersa Zamalul Kuran","latitude":"28.9858","longitude":"77.6998","polingCenterPhoto":"/img/mediPanchayat.png","routes":"/img/3.png","collectionPoint":"/img/3.png","population":"7629","voters":"2543","villageMohalla":"Poorva Ahmad Nagar 3rd & 4th","path":"#/menu/tab/medicalDetails","respectedPpl":[{"Name":"Mohd. Shakir","so":"Mohd. Mustafa","Address":"Poorva Ahmad Nagar","Phone":"9897177676"},{"Name":"Fajlu Pahelwan","so":"N/A","Address":"Poorva Fateh Nagar","Phone":"9897786515"},{"Name":"Umar Daraj/ Baba","so":"N/A","Address":"Smart Kile wale( Kothi yatanas)","Phone":"9897749981"},{"Name":"Rafeq","so":"Karam Ilahi","Address":"Poorva Fateh Nagar","Phone":"9897749981"},{"Name":"Shamshuddin","so":"Yonous","Address":"Kothi Yatanas","Phone":"9897094377"}],"retiredGovtSer":[{"Name":"Nil","so":"Nil","Address":"Nil","Phone":"Nil"}],"neighbourPolling":[{"Name":"Mohd. Iliyas","so":"Siraj Pahelwan","Address":"Poorva Ahmad Nagar","Phone":"9997745093"},{"Name":"Jamaluddin","so":"Kalwa","Address":"Poorva Ahmad Nagar","Phone":"9897303103"},{"Name":"Iqram","so":"Wazir","Address":"Poorva Ahmad Nagar","Phone":"9368373724"},{"Name":"Saleem","so":"Kalwa","Address":"Poorva Ahmad Nagar","Phone":"9760234334"},{"Name":"Chand","so":"Islam","Address":"Poorva Ahmad Nagar","Phone":"9837510035"}],"armsLicenseHolder":[{"Name":"Shaqeel Ahmad","so":"Basir Ahmad","Address":"Kothi Yatanas","Phone":"Nil","Weapon":"Revolver"},{"Name":"Iqbal","so":"Hajir Ishaq","Address":"Kothi Yatanas","Phone":"Nil","Weapon":"Rifle"},{"Name":"Amir","so":"Nawaz Khan","Address":"Kothi Yatanas","Phone":"Nil","Weapon":"Pistol"},{"Name":"Adil","so":"Nawaz Khan","Address":"Kothi Yatanas","Phone":"Nil","Weapon":"Dbbl"},{"Name":"Idris","so":"Yonus","Address":"Nadir Ali Building","Phone":"Nil","Weapon":"Dbbl"},{"Name":"Afaq","so":"Aqlaq","Address":"Jali Kothi","Phone":"Nil","Weapon":"Revolver"},{"Name":"Shahzad","so":"Sattar","Address":"Kothi Yatanas","Phone":"Nil","Weapon":"Revolver"},{"Name":"Nasir","so":"Nadir Ali","Address":"Nadir Ali Company","Phone":"Nil","Weapon":"Dbbl"},{"Name":"Faiz Aftab","so":"Aftab","Address":"Kothi Yatanas","Phone":"Nil","Weapon":"Dbbl"},{"Name":"Majhar","so":"Shahid","Address":"Kothi Yatanas","Phone":"Nil","Weapon":"Pistol"},{"Name":"Aftab","so":"Ishaq","Address":"Kothi Yatanas","Phone":"Nil","Weapon":"Pistol"},{"Name":"Nawaz Khan","so":"Shabnawaz","Address":"Kothi Yatanas","Phone":"Nil","Weapon":"Rifle"},{"Name":"Adil Nawaz","so":"Haq Nawaz","Address":"Kothi Yatanas","Phone":"Nil","Weapon":"Rifle"},{"Name":"Subhan","so":"Idris","Address":"Nadir Ali Building","Phone":"Nil","Weapon":"Sbbl"}],"chowkidar":[{"Name":"Nil","so":"Nil","Address":"Nil","Phone":"Nil"}],"councellor":[{"Name":"Nazma","so":"Shahid Pahelwan","Address":"Poorva Faiyaz Ali","Phone":"9319292709"}],"historySheeter":[{"Name":"Shaqeel/Doda","so":"Haneef","Address":"Poorva Fateh Nagar","Status":"Missing","Phone":"Nil"},{"Name":"Saleem/Gadha","so":"Haneef","Address":"Kothi yatanas","Status":"Present","Phone":"Nil"},{"Name":"Munnan","so":"Zahiruddin","Address":"Kothi yatanas","Status":"Missing","Phone":"Nil"},{"Name":"Idris","so":"Yamin","Address":"Jali Kothi","Status":"Missing","Phone":"Nil"},{"Name":"Saleem/Guddu","so":"Karim Veg","Address":"Poorva Fateh Nagar","Status":"Missing","Phone":"Nil"},{"Name":"Ayub","so":"Habbibullah","Address":"Jali Kothi","Status":"Present","Phone":"Nil"},{"Name":"Kala","so":"nanhe","Address":"Poorva Fateh Nagar","Status":"Present","Phone":"Nil"},{"Name":"Saleem/kala","so":"Yusuf","Address":"Poorva Fateh Nagar","Status":"Present","Phone":"Nil"},{"Name":"Naasir","so":"Samim","Address":"Kothi yatanas","Status":"Missing","Phone":"Nil"}],"convictedCriminals":[{"Name":"Alauddin ","so":" Zahiruddin ","crimeno":"Nil","Section":"Nil","Address":" Kothi yatanas "}],"crimes5Yrs":[{"Name":"Waseem","so":"Abdul Haqeem","crimeno":"292/12","Section":"377ipc","Address":"Kothi Atanas"},{"Name":"Swaleen","so":"Bashir","crimeno":"60/13","Section":"457,380, Ipc","Address":"Poorva Faiyaaaz Ali"},{"Name":"Shokeen","so":"Babu","crimeno":"60/13","Section":"457,380, Ipc","Address":"Maqbara Diggi"},{"Name":"Salmaan/lalla","so":"Izzan Ali/shokat","crimeno":"259/13","Section":"392,411 Ipc","Address":"Ghante Wali Gali Firoz Nagar Bhumiya Pull(meerut)"},{"Name":"Sameer","so":"Noor Mohd.","crimeno":"259/13","Section":"392,411 Ipc","Address":"Ghante Wali Gali Firoz Nagar Bhumiya Pull(meerut)"},{"Name":"Musaheed","so":"Munsi","crimeno":"29/13","Section":"307,324,427,504,506 Ipc","Address":"Soti Ganj P/s Sadar Bazar"},{"Name":"Kalu","so":"Munsi","crimeno":"29/13","Section":"307,324,427,504,506 Ipc","Address":"Soti Ganj P/s Sadar Bazar"},{"Name":"Jawed","so":"Kalu","crimeno":"29/13","Section":"307,324,427,504,506 Ipc","Address":"Soti Ganj P/s Sadar Bazar"},{"Name":"Naweed","so":"Kalu","crimeno":"29/13","Section":"307,324,427,504,506 Ipc","Address":"Soti Ganj P/s Sadar Bazar"},{"Name":"Anees","so":"Rashid","crimeno":"190/13","Section":"308,323,504 Ipc","Address":"Jali Koti"},{"Name":"Rasheed","so":"Bashir","crimeno":"190/13","Section":"308,323,504 Ipc","Address":"Jali Koti"},{"Name":"Asif","so":"Aslam","crimeno":"292/14","Section":"392,411 Ipc","Address":"Chamar Darwaja Poorva Ilahi Baksh"},{"Name":"Amjad","so":"Aslam","crimeno":"292/14","Section":"392,411 Ipc","Address":"Chamar Darwaja Poorva Ilahi Baksh"},{"Name":"Jawed","so":"Yosuf","crimeno":"292/14","Section":"392,411 Ipc","Address":"Chamar Darwaja Poorva Ilahi Baksh"},{"Name":"Shoyaib/nut","so":"Mohd. Sajid","crimeno":"244/14","Section":"307,386,506 Ipc","Address":"Poorva Ahmad Nagar"},{"Name":"Abdul Ahmad","so":"Alam Khan","crimeno":"3/15.","Section":"392,411 Ipc","Address":"Shapir Gate P/s Kotwali"},{"Name":"Farman","so":"Naseem","crimeno":"3/15.","Section":"392,411 Ipc","Address":"Shapir Gate P/s Kotwali"},{"Name":"Gulfaam","so":"Nasruddin","crimeno":"3/15.","Section":"392,411 Ipc","Address":"Shah. Nathan P/s Kotwali"},{"Name":"Iqbaal","so":"Tatbal","crimeno":"208/15","Section":"352,323,325,504,506,452,308 Ipc","Address":"Kothi Atanas"},{"Name":"Monu","so":"Iqbaal","crimeno":"208/15","Section":"352,323,325,504,506,452,308 Ipc","Address":"Kothi Atanas"},{"Name":"Sohail","so":"Iqbaal","crimeno":"208/15","Section":"352,323,325,504,506,452,308 Ipc","Address":"Kothi Atanas"},{"Name":"Faizi","so":"Iqbaal","crimeno":"208/15","Section":"352,323,325,504,506,452,308 Ipc","Address":"Kothi Atanas"}],"electionCrimes":[{"Name":"Nil","so":"Nil","crimeno":"Nil","Section":"Nil","Address":"Nil"}],"politician":[{"Name":"Nil","so":"Nil","Address":"Nil","Phone":"Nil"}],"boundDownUnder":"Nil","vulnerabilityDetails":"Critical","warrantedCriminals":[{"Name":"Nil","so":"Nil","Address":"Nil","Phone":"Nil"}],"condition":"Good"},{"stationID":"DG-03","stationName":"Aggarwal Bhawan Dal Mandi","latitude":"28.9700","longitude":"77.7696","polingCenterPhoto":"/img/mediPanchayat.png","routes":"/img/3.png","collectionPoint":"/img/3.png","population":"3390","voters":"1130","villageMohalla":"Baghpat Gate, Patta Mohalla, Chock Maksood","path":"#/menu/tab/medicalDetails","respectedPpl":[{"Name":"Banwari Lal","so":"Umrao Singh","Address":"Dal Mandi","Phone":"Nil"},{"Name":"Raj Kumar Sharma","so":"Vishnu Dutt Sharma","Address":"Dal Mandi","Phone":"Nil"},{"Name":"Pradeep Kumar","so":"Shyam Bihari","Address":"Dal Mandi","Phone":"Nil"},{"Name":"Ajay Kumar","so":"Murari lal","Address":"Dal Mandi","Phone":"Nil"},{"Name":"Bobby","so":"Bhawar Singh","Address":"Dal Mandi","Phone":"Nil"}],"retiredGovtSer":[{"Name":"Nil","so":"Nil","Address":"Nil","Phone":"Nil"}],"neighbourPolling":[{"Name":"Shri Sanjeev Mittal","so":"Jai Bhagwan Mittal","Address":"Dal Mandi","Phone":"9837273377"},{"Name":"Brij Bhushan","so":"Guru Wachan Singh","Address":"Dal Mandi","Phone":"9837249241"},{"Name":"Pramod","so":"Amar Nath","Address":"Dal Mandi","Phone":"9319314708"},{"Name":"Sanjeev Garg","so":"Mitthan Lal","Address":"Dal Mandi","Phone":"9837889348"},{"Name":"Ashok Kumar","so":"Kanti Prasad","Address":"Dal Mandi","Phone":"9837218309"}],"armsLicenseHolder":[{"Name":"Sandeep Kumar","so":"Shyam Bhagwan","Address":"Dal Mandi","Phone":"Nil","Weapon":"Nil"},{"Name":"Ajay Kumar","so":"Murari lal","Address":"Dal Mandi","Phone":"Nil","Weapon":"Nil"},{"Name":"Jai Bhagwan Mittal","so":"Baleshwar Dayal","Address":"Dal Mandi","Phone":"Nil","Weapon":"Nil"},{"Name":"Vipin Kumar","so":"Mohan Lal","Address":"Dal Mandi","Phone":"Nil","Weapon":"Nil"},{"Name":"Sachin Mittal","so":"Jai Bhagwan Mittal","Address":"Dal Mandi","Phone":"Nil","Weapon":"Nil"},{"Name":"Sandeep","so":"Jai Bhagwan","Address":"Dal Mandi","Phone":"Nil","Weapon":"Nil"},{"Name":"Avnish Goyal","so":"Ratan Lal","Address":"Dal Mandi","Phone":"Nil","Weapon":"Nil"}],"chowkidar":[{"Name":"Nil","so":"Nil","Address":"Nil","Phone":"Nil"}],"councellor":[{"Name":"Sarnishta Bhadana","so":"Nil","Address":"Bharam Puri","Phone":"Nil"}],"historySheeter":[{"Name":"Vijendra Aka pappu","so":"Guruvachan Singh","Address":"Dal Mandi ","Status":"Present","Phone":"N/A"}],"convictedCriminals":[{"Name":"Nil","so":" Nil ","crimeno":"Nil","Section":"Nil","Address":"Nil"}],"crimes5Yrs":[{"Name":"Narendra/robin","so":"Jagdeesh Prasad","crimeno":"265/11","Section":"302,506 Ipc","Address":"Putli Ghar P/s Medical"},{"Name":"Pravven Sharma","so":"Indrajeet Sharma","crimeno":"265/11","Section":"302,506 Ipc","Address":"Indra Puri P/s Bharam Puri"},{"Name":"Alok/ Akshay","so":"Shivaji Bhale Rao","crimeno":"265/11","Section":"302,506 Ipc","Address":"Muthawada Chilari Pune Maharshtra"},{"Name":"Sharad Hari Mohan Mohle","so":"Hiramal Mohle","crimeno":"265/11","Section":"302,506 Ipc","Address":"Mali Nagar Duthari P/s Kothari Pune Maharshtra"},{"Name":"Waseem","so":"Irfan","crimeno":"152/12","Section":"394,411 Ipc","Address":"Nagla Bhusa P/s Niwadi Gzb"},{"Name":"Nofil","so":"Shaqeel","crimeno":"152/12","Section":"394,411 Ipc","Address":"Nagla Bhusa P/s Niwadi Gzb"},{"Name":"Krishan","so":"Nanhe","crimeno":"152/12","Section":"394,411 Ipc","Address":"Dabana Niwadi Gzb"},{"Name":"Deepak","so":"Jannu","crimeno":"152/12","Section":"394,411 Ipc","Address":"Pulesh Suraj Pur Gautam Pur Nagar"},{"Name":"Zubair/zubbi","so":"Mubarik","crimeno":"193/13","Section":"363,376 Ipc 3/4 Pos Co. Act","Address":"Patta Mohalla P/s Delhi Gate Meerut"},{"Name":"Tariq","so":"Shehnawaz","crimeno":"193/13","Section":"363,376 Ipc 3/4 Pos Co. Act","Address":"Durikt Pahelwaan Wali Gali P/s Bharam Puri"},{"Name":"Roshan","so":"Shri Pal Kashwap","crimeno":"145/14","Section":"452,307 Ipc","Address":"Shakoor Nagar P/s Bhojpur Janpad Gzb"},{"Name":"Shanabbar/gabe","so":"Shabir Taili","crimeno":"145/14","Section":"452,307 Ipc","Address":"Shakoor Nagar P/s Bhojpur Janpad Gzb"},{"Name":"Shalu","so":"Alauddin","crimeno":"211/15","Section":"392/411 Ipc","Address":"Gali No.10 Kajoor Wale Ped Ke Pass Shayam Nagar"}],"electionCrimes":[{"Name":"Nil","so":"Nil","crimeno":"Nil","Section":"Nil","Address":"Nil"}],"politician":[{"Name":"Nil","so":"Nil","Address":"Nil","Phone":"Nil"}],"boundDownUnder":"Nil","vulnerabilityDetails":"General","warrantedCriminals":[{"Name":"Nil","so":"Nil","Address":"Nil","Phone":"Nil"}],"condition":"Good"},{"stationID":"DG-04","stationName":"Dev Nagri Inter College","latitude":"28.9789","longitude":"77.6946","polingCenterPhoto":"/img/mediPanchayat.png","routes":"/img/3.png","collectionPoint":"/img/3.png","population":"8880","voters":":2960","villageMohalla":"Poorva Kamboh gate 1st & 2nd, railway Road, Choraha Poorva Deen Dayal","path":"#/menu/tab/medicalDetails","respectedPpl":[{"Name":"Dinesh Kumar","so":"Bhoj Raj","Address":"Juneja Market","Phone":"9897329818"},{"Name":"Sonu","so":"Sumit Prasad","Address":"Juneja Market","Phone":"9819870704"},{"Name":"Gulshan","so":"Daulat Ram","Address":"Poorva Tahir Hussain","Phone":"Nil"},{"Name":"Rashed Ahmad","so":"Wajir Ahmad","Address":"Poorva Tahir Hussain","Phone":"9897816837"},{"Name":"Hori Lal","so":"Sheetal Prasad","Address":"Poorva Tahir Hussain","Phone":"9927144317"}],"retiredGovtSer":[{"Name":"Nil","so":"Nil","Address":"Nil","Phone":"Nil"}],"neighbourPolling":[{"Name":"Kishan Lal","so":"Mani Ram","Address":"Near D.N College Mandir mohhalah","Phone":"9456259747"},{"Name":"Rakesh Kumar","so":"Lt. Mohan Singh","Address":"Near D.N College Mandir mohhalah","Phone":"9927547874"},{"Name":"Ankit Chaushary","so":"Jitendra Singh","Address":"Near D.N College Mandir mohhalah","Phone":"9837292088"},{"Name":"Bhagat Raj","so":"Baljeet Singh","Address":"Near D.N College Mandir mohhalah","Phone":"9258906814"},{"Name":"Niranjan Kumar","so":"Prabhu Dayal","Address":"Near D.N College Mandir mohhalah","Phone":"9319449630"}],"armsLicenseHolder":[{"Name":"Sulkhan Singh","so":"Malkhan Singh","Address":"Kamboh Gate","Phone":"Nil","Weapon":"Pistol"},{"Name":"Asif","so":"Haji Imran","Address":"Kamboh Gate","Phone":"Nil","Weapon":"Revolver"},{"Name":"Guru Vaksh","so":"Saradar Amrish","Address":"Kamboh Gate","Phone":"Nil","Weapon":"SBBL"},{"Name":"Mohd. Israr","so":"Mohd. Rafeq","Address":"Kamboh Gate","Phone":"Nil","Weapon":"Pistol"}],"chowkidar":[{"Name":"Nil","so":"Nil","Address":"Nil","Phone":"Nil"}],"councellor":[{"Name":"Sarnishta Bhadana","so":"Nil","Address":"Bharam Puri","Phone":"Nil"}],"historySheeter":[{"Name":"Nil","so":"Nil","Address":"Nil","Status":"Nil","Phone":"Nil"}],"convictedCriminals":[{"Name":"Nil","so":" Nil ","crimeno":"Nil","Section":"Nil","Address":"Nil"}],"crimes5Yrs":[{"Name":"Nil","so":"Nil","crimeno":"Nil","Section":"Nil","Address":"Nil"}],"electionCrimes":[{"Name":"Nil","so":"Nil","crimeno":"Nil","Section":"Nil","Address":"Nil"}],"politician":[{"Name":"Nil","so":"Nil","Address":"Nil","Phone":"Nil"}],"boundDownUnder":"Nil","vulnerabilityDetails":"General","warrantedCriminals":[{"Name":"Nil","so":"Nil","Address":"Nil","Phone":"Nil"}],"condition":"Good"},{"stationID":"DG-05","stationName":"Dev Nagri Degree College","latitude":"28.9789","longitude":"77.6946","polingCenterPhoto":"/img/mediPanchayat.png","routes":"/img/3.png","collectionPoint":"/img/3.png","population":"10,500","voters":":3500","villageMohalla":"Dev Puri bhati Pura 2nd,3rd,4th,5th , Mohhalah Anand Puri 1st,2nd","path":"#/menu/tab/medicalDetails","respectedPpl":[{"Name":"Budh Prakash","so":"Nanak Chand","Address":"Mandir Mohallah","Phone":"9917743034"},{"Name":"Mahesh Kumar","so":"Shiv Charan Das","Address":"Mandir Mohallah","Phone":"9837680082"},{"Name":"Kishan Lal","so":"Money Ram","Address":"Mandir Mohallah","Phone":"9456259647"},{"Name":"Niranjan Kumar","so":"Lt. Mool Chand","Address":"Mandir Mohallah","Phone":"9319449630"},{"Name":"Ankit Chaudhary","so":"Jitendra Chaudhary","Address":"Mandir Mohallah","Phone":"9837292088"}],"retiredGovtSer":[{"Name":"Nil","so":"Nil","Address":"Nil","Phone":"Nil"}],"neighbourPolling":[{"Name":"Gulshan","so":"Daulat Ram","Address":"Mandir Mohallah","Phone":"9897527108"},{"Name":"Mukesh Kumar","so":"Shiv Charan","Address":"Mandir Mohallah","Phone":"9917230554"},{"Name":"Bablu","so":"Bhagwat Prasad","Address":"Mandir Mohallah","Phone":"9837416205"},{"Name":"Bhagat Raj","so":"Baljeet Singh","Address":"Mandir Mohallah","Phone":"9258906814"},{"Name":"Nand Gopal","so":"Kishori","Address":"Mandir Mohallah","Phone":"9897200793"}],"armsLicenseHolder":[{"Name":"Nil","so":"Nil","Address":"Nil","Phone":"Nil","Weapon":"Nil"}],"chowkidar":[{"Name":"Nil","so":"Nil","Address":"Nil","Phone":"Nil"}],"councellor":[{"Name":"Sarnishta Bhadana","so":"Nil","Address":"Bharam Puri","Phone":"Nil"}],"historySheeter":[{"Name":"Nil","so":"Nil","Address":"Nil","Status":"Nil","Phone":"Nil"}],"convictedCriminals":[{"Name":"Nil","so":" Nil ","crimeno":"Nil","Section":"Nil","Address":"Nil"}],"crimes5Yrs":[{"Name":"Nil","so":"Nil","crimeno":"Nil","Section":"Nil","Address":"Nil"}],"electionCrimes":[{"Name":"Nil","so":"Nil","crimeno":"Nil","Section":"Nil","Address":"Nil"}],"politician":[{"Name":"Nil","so":"Nil","Address":"Nil","Phone":"Nil"}],"boundDownUnder":"Nil","vulnerabilityDetails":"General","warrantedCriminals":[{"Name":"Nil","so":"Nil","Address":"Nil","Phone":"Nil"}],"condition":"Good"},{"stationID":"DG-06","stationName":"Seth B.K Maheshwari Girls Inter College","latitude":"28.9750","longitude":"77.6998","polingCenterPhoto":"/img/mediPanchayat.png","routes":"/img/3.png","collectionPoint":"/img/3.png","population":"10350","voters":":3450","villageMohalla":"Saray Lal Das 1st & 2nd, Ishwar Puri 1st & 2nd","path":"#/menu/tab/medicalDetails","respectedPpl":[{"Name":"Pawan Kumar Verma","so":"Lt. Kali Charan Sharma","Address":"Siray Lal Das","Phone":"9358402357"},{"Name":"Neeraj","so":"Laxmi Chand Verma","Address":"Siray Lal Das","Phone":"Nil"},{"Name":"Dharmendra","so":"Ram Singh","Address":"Siray Lal Das","Phone":"1212402851"},{"Name":"Sardar Singh","so":"Ratan Lal","Address":"Siray Lal Das","Phone":"9412580361"},{"Name":"Lakahan Verma","so":"Sant Kumar Verma","Address":"Siray Lal Das","Phone":"9716216356"}],"retiredGovtSer":[{"Name":"Nil","so":"Nil","Address":"Nil","Phone":"Nil"}],"neighbourPolling":[{"Name":"Predeep ","so":"Ghan Shyam","Address":"Siray Lal Das","Phone":"9897907108"},{"Name":"Vijay Kumar","so":"Prem Narayan","Address":"Siray Lal Das","Phone":"9760497475"},{"Name":"Vinod Kumar","so":"Prem Narayan","Address":"Siray Lal Das","Phone":"9837282987"},{"Name":"Shahid","so":"Noor Mohd","Address":"Siray Lal Das","Phone":"9412256797"},{"Name":"Shadab Zaidi","so":"Abbas Zaidi","Address":"Siray Lal Das","Phone":"9359278412"}],"armsLicenseHolder":[{"Name":"Arun Kumar","so":"Jayanti Prasad","Address":"Siray Lal Das","Phone":"Nil","Weapon":"Pistol"},{"Name":"Vishal Maheshwari","so":"Naran Das Maheshwari","Address":"Siray Lal Das","Phone":"Nil","Weapon":"Revolver"},{"Name":"Ajay Maheshwari","so":"Jain Prasad","Address":"Siray Lal Das","Phone":"Nil","Weapon":"Revolver"},{"Name":"Ravinder Kumar","so":"Braj Bhushan","Address":"Siray Lal Das","Phone":"Nil","Weapon":"Pistol"}],"chowkidar":[{"Name":"Nil","so":"Nil","Address":"Nil","Phone":"Nil"}],"councellor":[{"Name":"Vijay Anand Aggarwal","so":"Nil","Address":"Siray Kher Nagar","Phone":"9837893661"}],"historySheeter":[{"Name":"Fehmood","so":"Mehmood","Address":"Dhobi Wali Gali Siray Lal Das","Status":"Missing","Phone":"Nil"},{"Name":"Farhan","so":"Munna","Address":"Siray Lal Das","Status":"Missing","Phone":"Nil"},{"Name":"Ayub","so":"Sharifuddin","Address":"Siray Lal Das","Status":"Jail","Phone":"Nil"}],"convictedCriminals":[{"Name":"Nil","so":" Nil ","crimeno":"Nil","Section":"Nil","Address":"Nil"}],"crimes5Yrs":[{"Name":"Yogesh","so":"Bhagwan Das","crimeno":"114Aka11","Section":"457,380,411 IPC","Address":"Kasampur PAkaS Kankar Kheda Meerut"},{"Name":"Dinesh Aka Sachin","so":"Gopi","crimeno":"114Aka11","Section":"457,380,411 IPC","Address":"Fool Mandi PAkaS Bharam Puri"},{"Name":"Ajay Aka Rinku","so":"Budh Prakash","crimeno":"114Aka11","Section":"457,380,411 IPC","Address":"Fool Mandi PAkaS Bharam Puri"},{"Name":"Raju","so":"Desh Raj","crimeno":"51Aka13","Section":"452,392,411 IPC","Address":"Lisadi Gao PAkaS Lisadi Gate Meerut"},{"Name":"Bablu","so":"Ram Prasad","crimeno":"51Aka13","Section":"452,392,411 IPC","Address":"Lisadi Gao PAkaS Lisadi Gate Meerut"},{"Name":"Naseem Aka Tunda","so":"Waseer","crimeno":"51Aka13","Section":"452,392,411 IPC","Address":"Shekh Pura Bhawan Pur Meerut"},{"Name":"Amir","so":"Fidali","crimeno":"174Aka14","Section":"392,411,120 B 406 IPC","Address":"Karam Ali PAkaS Kotwali"},{"Name":"Khalid Aka Bhola","so":"Shadat","crimeno":"174Aka14","Section":"392,411,120 B 406 IPC","Address":"Siray Lal Das PAkaS Delhi Gate Meerut"},{"Name":"Ismile","so":"Saddiq","crimeno":"174Aka14","Section":"392,411,120 B 406 IPC","Address":"Mumtaj Nagar PAkaS Bharam Puri Meerut"},{"Name":"Pankaj Malwaiye","so":"Krishan Kumar Malwaiye","crimeno":"105Aka14","Section":"376,323,406,506,504 IPC","Address":"Chipi Tank PAkaS lal Kurti Meerut"}],"electionCrimes":[{"Name":"Nil","so":"Nil","crimeno":"Nil","Section":"Nil","Address":"Nil"}],"politician":[{"Name":"Nil","so":"Nil","Address":"Nil","Phone":"Nil"}],"boundDownUnder":"Nil","vulnerabilityDetails":"Critical","warrantedCriminals":[{"Name":"Nil","so":"Nil","Address":"Nil","Phone":"Nil"}],"condition":"Good"},{"stationID":"DG-07","stationName":"Kher Nagar & Seniour Basic Kanya PathShala Kher Nagar","latitude":"28.9787","longitude":"77.7012","polingCenterPhoto":"/img/mediPanchayat.png","routes":"/img/3.png","collectionPoint":"/img/3.png","population":"10500","voters":":3500","villageMohalla":"Poorva Fateh Nagar, Kothi Atanas,  Kher Nagar Gate","path":"#/menu/tab/medicalDetails","respectedPpl":[{"Name":"Siraj","so":"Safiqullah","Address":"Kher Nagar","Phone":"9897202150"},{"Name":"Nitin","so":"Rajendra","Address":"Kher Nagar","Phone":"9359910709"},{"Name":"Zahiruddin","so":"Mehfooz","Address":"Kher Nagar","Phone":"9412407749"},{"Name":"Afjal","so":"Ahmad","Address":"Kher Nagar","Phone":"9837244598"},{"Name":"Vinod Kumar","so":"N/a","Address":"Kher Nagar","Phone":"9412662724"}],"retiredGovtSer":[{"Name":"Nil","so":"Nil","Address":"Nil","Phone":"Nil"}],"neighbourPolling":[{"Name":"Varkat","so":"Mehar Ilahi","Address":"Kher Nagar","Phone":"9997633312"},{"Name":"Chand ","so":"Mustafa","Address":"Kher Nagar","Phone":"9897298056"},{"Name":"Rafeq","so":"Karam Ilahi","Address":"Kher Nagar","Phone":"9897749981"},{"Name":"Ashok Kumar","so":"Sita Ram","Address":"Kher Nagar","Phone":"Nil"},{"Name":"Murari","so":"Nanhe","Address":"Kher Nagar","Phone":"Nil"},{"Name":"Nasir","so":"Tufail","Address":"Kher Nagar","Phone":"Nil"}],"armsLicenseHolder":[{"Name":"Varkat","so":"Mehar Ilahi","Address":"Kher Nagar","Phone":"9997633312"},{"Name":"Chand ","so":"Mustafa","Address":"Kher Nagar","Phone":"9897298056"},{"Name":"Rafeq","so":"Karam Ilahi","Address":"Kher Nagar","Phone":"9897749981"},{"Name":"Ashok Kumar","so":"Sita Ram","Address":"Kher Nagar","Phone":"Nil"},{"Name":"Murari","so":"Nanhe","Address":"Kher Nagar","Phone":"Nil"},{"Name":"Nasir","so":"Tufail","Address":"Kher Nagar","Phone":"Nil"}],"chowkidar":[{"Name":"Nil","so":"Nil","Address":"Nil","Phone":"Nil"}],"councellor":[{"Name":"Haji Kaka","so":"Nil","Address":"Poorva Ahmad Nagar","Phone":"9897567234"}],"historySheeter":[{"Name":"Nil","so":"Nil","Address":"Nil","Status":"Nil","Phone":"Nil"}],"convictedCriminals":[{"Name":"Amir ","so":" Zahir ","3Status":"Nil","4Address":" Ban Batan Kher Nagar"},{"Name":"Furkan ","so":" Hamid  ","3Status":"Nil","4Address":" Batan Kher Nagar"},{"Name":"Qasim ","so":" Ajhar ","3Status":"Nil","4Address":" Ban Batan Kher Nagar"},{"Name":"Nafees ","so":" Seenu ","3Status":"Nil","4Address":" Ban Batan Kher Nagar"}],"crimes5Yrs":[{"Name":"Mehtab Aka Mohris","so":"Rahees","crimeno":"295/12","Section":"392,411 Ipc","Address":"Kichlu Wala Bagh Mohalla Ladda Wala P/s Kotwali Muzzarfnagar"},{"Name":"Salmaan","so":"Saleem","crimeno":"295/12","Section":"392,411 Ipc","Address":"Kichlu Wala Bagh Mohalla Ladda Wala P/s Kotwali Muzzarfnagar"},{"Name":"Rahees","so":"Taj Mohd.","crimeno":"152/13","Section":"457,380 Ipc","Address":"Kher Nagar"},{"Name":"Sajid","so":"Nafees","crimeno":"152/13","Section":"457,380 Ipc","Address":"Kher Nagar"},{"Name":"Bilal","so":"Chand","crimeno":"152/13","Section":"457,380 Ipc","Address":"Kher Nagar"},{"Name":"Zubair","so":"Shakir","crimeno":"194/15","Section":"457,380 Ipc","Address":"Chune Wali Gali Kher Nagar"},{"Name":"Faizal","so":"Shakir","crimeno":"194/15","Section":"457,380 Ipc","Address":"Chune Wali Gali Kher Nagar"},{"Name":"Shoaiyab","so":"Hasib","crimeno":"194/15","Section":"457,380 Ipc","Address":"Chune Wali Gali Kher Nagar"},{"Name":"Mohseen/billu","so":"Jungsher","crimeno":"194/15","Section":"457,380 Ipc","Address":"Chune Wali Gali Kher Nagar"}],"electionCrimes":[{"Name":"Nil","so":"Nil","crimeno":"Nil","Section":"Nil","Address":"Nil"}],"politician":[{"Name":"Nil","so":"Nil","Address":"Nil","Phone":"Nil"}],"boundDownUnder":"Nil","vulnerabilityDetails":"General","warrantedCriminals":[{"Name":"Nil","so":"Nil","Address":"Nil","Phone":"Nil"}],"condition":"Good"},{"stationID":"DG-08","stationName":"Town Hall Ghanta Ghar","latitude":"28.9787","longitude":"77.7012","polingCenterPhoto":"/img/mediPanchayat.png","routes":"/img/3.png","collectionPoint":"/img/3.png","population":"12600","voters":":4200","villageMohalla":"Poorav Fayaz Ali 1,2,3 & Poorva Hamid Hussain Kothi Atanas-2","path":"#/menu/tab/medicalDetails","respectedPpl":[{"Name":"Shahid Pahelwan","so":"Riyazuddin","Address":"Poorva Fayaz Ali","Phone":"9319292709"},{"Name":"Jabbar","so":"Babudin","Address":"Poorva Fayaz Ali","Phone":"9897640523"},{"Name":"Zahir","so":"Zahuruddin","Address":"Poorva Fayaz Ali","Phone":"9897339581"},{"Name":"Anees","so":"Zafru","Address":"Poorva Fayaz Ali","Phone":"9927116637"}],"retiredGovtSer":[{"Name":"Nil","so":"Nil","Address":"Nil","Phone":"Nil"}],"neighbourPolling":[{"Name":"Ansar","so":"Bashir","Address":"Kothi Atanas","Phone":"9219270584"},{"Name":"Shaan Mohd.","so":"Ayub","Address":"Poorva fayaz Ali","Phone":"9927525813"},{"Name":"Ahsan","so":"babudeen","Address":"Poorva fayaz Ali","Phone":"9897330607"},{"Name":"Bobby","so":"Rehmaan","Address":"Poorva fayaz Ali","Phone":"9837303607"}],"armsLicenseHolder":[{"Name":"Faruq","so":"Mehmood Hasan","Address":"Poorva Fayaz Ali","Phone":"Nil","Weapon":"Rifle"},{"Name":"Rafibul Hussain","so":"Sayyad Mohd.","Address":"Izaznavi","Phone":"Nil","Weapon":"Dbbl"},{"Name":"Sahab Abbas","so":"Iqbal","Address":"Poorva Fayaz Ali","Phone":"Nil","Weapon":"Rifle"},{"Name":"Irfan Maqbool","so":"M.i Hussain","Address":"P.l Sharma Hospital","Phone":"Nil","Weapon":"Dbbl"}],"chowkidar":[{"Name":"Nil","so":"Nil","Address":"Nil","Phone":"Nil"}],"councellor":[{"Name":"Nazma","so":"w/o Shahid","Address":"Nil","Phone":"9319294709"}],"historySheeter":[{"Name":"Aslam","so":"Jamil","Address":"Poorva Fayaz Ali","Status":"Present","Phone":"Nil"},{"Name":"Rahees","so":"Ajijuddin","Address":"Poorva Fayaz Ali","Status":"Present","Phone":"Nil"},{"Name":"Yasin","so":"Yamin","Address":"Poorva Fayaz Ali","Status":"Present","Phone":"Nil"}],"convictedCriminals":[{"Name":"Nil","so":"Nil","3Status":"Nil","4Address":"Nil"}],"crimes5Yrs":[{"Name":"Nil","so":"Nil","crimeno":"Nil","Section":"Nil","Address":"Nil"}],"electionCrimes":[{"Name":"Nil","so":"Nil","crimeno":"Nil","Section":"Nil","Address":"Nil"}],"politician":[{"Name":"Nil","so":"Nil","Address":"Nil","Phone":"Nil"}],"boundDownUnder":"Nil","vulnerabilityDetails":"Critical","warrantedCriminals":[{"Name":"Nil","so":"Nil","Address":"Nil","Phone":"Nil"}],"condition":"Good"},{"stationID":"DG-09","stationName":"Faiz Ayam Inter College","latitude":"28.9854","longitude":"77.6965","polingCenterPhoto":"/img/mediPanchayat.png","routes":"/img/3.png","collectionPoint":"/img/3.png","population":"12600","voters":":4200","villageMohalla":"Kothi Atanas 3rd , Poorva Hafiz Abdul Karim 1st,2nd,3rd","path":"#/menu/tab/medicalDetails","respectedPpl":[{"Name":"Abdul Hamid","so":"Dashir Ahmad","Address":"Kothi Atanas","Phone":"9837556464"},{"Name":"Irfan","so":"Mohd. Iliyas","Address":"Kothi Atanas","Phone":"9358708740"},{"Name":"Shaan Mohd.","so":"Ayub","Address":"Kothi Atanas","Phone":"9927525813"}],"retiredGovtSer":[{"Name":"Nil","so":"Nil","Address":"Nil","Phone":"Nil"}],"neighbourPolling":[{"Name":"Dr. Vakar","so":"Nil","Address":"Kothi Atanas","Phone":"9997744911"},{"Name":"Ansar","so":"Basir Ahmad","Address":"Burus Mohallah","Phone":"9219270584"},{"Name":"Shahnawaz","so":"Shayeed","Address":"Burus Mohallah","Phone":"9319122040"},{"Name":"Sahed Ahmad","so":"Sabbbir Ahmad","Address":"Burus Mohallah","Phone":"9368286125"},{"Name":"Kudrat Tulla","so":"Inayat Tulla","Address":"Burus Mohallah","Phone":"9837375860"}],"armsLicenseHolder":[{"Name":"Iqbal","so":"Ishaq","Address":"Kothi Atanas","Phone":"Nil","Weapon":"Rifle"},{"Name":"Amir","so":"Nawaz Khan","Address":"Kothi Atanas","Phone":"Nil","Weapon":"Pistol"},{"Name":"Adil","so":"Nawaz Khan","Address":"Kothi Atanas","Phone":"Nil","Weapon":"Dbbl"},{"Name":"Saleem","so":"Nadir Ali","Address":"Nadir Ali Building","Phone":"Nil","Weapon":"Dbbl"}],"chowkidar":[{"Name":"Nil","so":"Nil","Address":"Nil","Phone":"Nil"}],"councellor":[{"Name":"Nazma","so":"w/o Shahid","Address":"Nil","Phone":"9319294709"}],"historySheeter":[{"Name":"Nil","so":"Nil","Address":"Nil","Status":"Nil","Phone":"Nil"}],"convictedCriminals":[{"Name":"Nil","so":"Nil","3Status":"Nil","4Address":"Nil"}],"crimes5Yrs":[{"Name":"Rasheed","so":"Munsi","crimeno":"126/14","Section":"307506 Ipc","Address":"Kotla Purani Chungi Hapur Kotwali"},{"Name":"Kamil/nahed","so":"Deen Mohd.","crimeno":"152/15","Section":"302 Ipc","Address":"Shah Khasa P.s Kotwali Meerut"},{"Name":"Sabauddin","so":"Wahabuddin","crimeno":"152/15","Section":"302 Ipc","Address":"Katta Road Shahpir Gate P.s Kotwali"},{"Name":"Altmash","so":"Mohd. Abid","crimeno":"152/15","Section":"302 Ipc","Address":"Shapir Jadid P.s Kotwali"},{"Name":"Aman Ansari","so":"Faizan Ansari","crimeno":"152/15","Section":"302 Ipc","Address":"Shapir Gate P.s Kotwali"}],"electionCrimes":[{"Name":"Nil","so":"Nil","crimeno":"Nil","Section":"Nil","Address":"Nil"}],"politician":[{"Name":"Nil","so":"Nil","Address":"Nil","Phone":"Nil"}],"boundDownUnder":"Nil","vulnerabilityDetails":"General","warrantedCriminals":[{"Name":"Nil","so":"Nil","Address":"Nil","Phone":"Nil"}],"condition":"Good"},{"stationID":"DG-10","stationName":"Dharam Shala Lala Dharam Das Trust Kamboh gate Ghanta Ghar","latitude":"28.9793","longitude":"77.6976","polingCenterPhoto":"/img/mediPanchayat.png","routes":"/img/3.png","collectionPoint":"/img/3.png","population":"8550","voters":":2850","villageMohalla":"Badhshah Rudka, Kotla, Kanun Goyan","path":"#/menu/tab/medicalDetails","respectedPpl":[{"Name":"Harish Kumar Kakkad","so":"Prem Kumar","Address":"Badhshah Rudka","Phone":"Nil"},{"Name":"Layik Ahmad","so":"Abdul Wahid","Address":"Kotla","Phone":"Nil"},{"Name":"Ajij","so":"Gulfam","Address":"Kotla","Phone":"Nil"},{"Name":"Narayan Singh","so":"Duli Chand","Address":"Kotla","Phone":"Nil"}],"retiredGovtSer":[{"Name":"Nil","so":"Nil","Address":"Nil","Phone":"Nil"}],"neighbourPolling":[{"Name":"Pradeep Kumar","so":"Sohan Lal","Address":"Kamboh Gate","Phone":"7417524187"},{"Name":"Balram","so":"Dal Chand","Address":"Kotla","Phone":"Nil"},{"Name":"Aslam","so":"Bashir","Address":"Badhshah Rudka","Phone":"Nil"},{"Name":"Sushil","so":"Keval Ram","Address":"Kamboh Gate","Phone":"Nil"}],"armsLicenseHolder":[{"Name":"Raj Kishor Sharma","so":"Om Prakash Sharma","Address":"Kotla","Phone":"Nil","Weapon":"SBBL"},{"Name":"Ashraf Ali","so":"Siyatu Kajam","Address":"Kotla","Phone":"Nil","Weapon":"Rifle"},{"Name":"AtirPur Hasam","so":"Saafiqul Hasam","Address":"Kotla","Phone":"Nil","Weapon":"DBBL"},{"Name":"Rakesh Mohan","so":"Mahesh Chand","Address":"Kotla","Phone":"Nil","Weapon":"DBBL"},{"Name":"Nijam Salmani","so":"Riyazuddin","Address":"Kotla","Phone":"Nil","Weapon":"DBBL"}],"chowkidar":[{"Name":"Nil","so":"Nil","Address":"Nil","Phone":"Nil"}],"councellor":[{"Name":"Sharmishtha Bhadana","so":"Nil","Address":"Bharam Puri","Phone":"Nil"}],"historySheeter":[{"Name":"Mehraj Aka Chand","so":"Zahiruddin","Address":"Kotla","Status":"Dead","Phone":"Nil"},{"Name":"Shah Alam","so":"Iftkar","Address":"Kotla","Status":"Dead","Phone":"Nil"},{"Name":"Mohd. Mustafa","so":"Zamil Ahmad","Address":"Kotla","Status":"Missing","Phone":"Nil"},{"Name":"Islamuddin","so":"Goglu","Address":"Kotla","Status":"Missing","Phone":"Nil"},{"Name":"Shyam Singh","so":"Sohan Lal","Address":"Kotla","Status":"Missing","Phone":"Nil"}],"convictedCriminals":[{"Name":"Haqimuddin","so":"Salamuddin","3Status":"Nil","4Address":"Kotla"}],"crimes5Yrs":[{"Name":"Sachin Bansal","so":"Ajay Bansal","crimeno":"313/11","Section":"323,504,506,308 IPC","Address":"Gupta Colony P.S, T.p Nagar"},{"Name":"Rakesh Mohan","so":"Brij Bhushan","crimeno":"313/11","Section":"323,504,506,308 IPC","Address":"Shiv Shankar Colony P.S Bharampuri"},{"Name":"Parvej Aka Dabbu","so":"Munfaid","crimeno":"104/14","Section":"302/34 IPC","Address":"Dhobi Wali Gali Kotla"},{"Name":"Jawed AkaGuddu","so":"Munfaid","crimeno":"104/14","Section":"302/34 IPC","Address":"Dhobi Wali Gali Kotla"},{"Name":"Shoaib","so":"Yonous","crimeno":"104/14","Section":"302/34 IPC","Address":"Dhobi Wali Gali Kotla"},{"Name":"Shri Mati Wakeela","so":"w/o Munfaid","crimeno":"104/14","Section":"302/34 IPC","Address":"Dhobi Wali Gali Kotla"}],"electionCrimes":[{"Name":"Nil","so":"Nil","crimeno":"Nil","Section":"Nil","Address":"Nil"}],"politician":[{"Name":"Nil","so":"Nil","Address":"Nil","Phone":"Nil"}],"boundDownUnder":"Nil","vulnerabilityDetails":"General","warrantedCriminals":[{"Name":"Nil","so":"Nil","Address":"Nil","Phone":"Nil"}],"condition":"Good"},{"stationID":"DG-11","stationName":"Ucch Prathmik Vidhyalay Bajaja Bazar","latitude":"28.9762","longitude":"77.7004","polingCenterPhoto":"/img/mediPanchayat.png","routes":"/img/3.png","collectionPoint":"/img/3.png","population":"2880","voters":":960","villageMohalla":"Holi Chock Kagji Bajar, Malviyay Chock Shesh Mahal","path":"#/menu/tab/medicalDetails","respectedPpl":[{"Name":"Rajkumar","so":"Mukand Lal","Address":"Neel gali","Phone":"9837248242"},{"Name":"Gulzar","so":"Mansoor Hasan","Address":"Kachis Saray","Phone":"Nil"},{"Name":"Pramod Kumar","so":"Kishan Lal","Address":"Thater wala","Phone":"9358611813"},{"Name":"Mukesh ","so":"Duli Chand","Address":"Thater wala","Phone":"9897082847"}],"retiredGovtSer":[{"Name":"Nil","so":"Nil","Address":"Nil","Phone":"Nil"}],"neighbourPolling":[{"Name":"Krishan Mohan Gupta","so":"Om Prakash","Address":"Sarafa Bazar","Phone":"9897300400"},{"Name":"Amrish aggarwal","so":"Nil","Address":"Sarafa Bazar","Phone":"9897032332"},{"Name":"Mehmood","so":"Iqbal","Address":"Sarafa Bazar","Phone":"1212790424"},{"Name":"Anand jain","so":"Jaswant Jain","Address":"Sarafa Bazar","Phone":"9319406777"},{"Name":"Alok Kumar","so":"Dayal Singh","Address":"Sarafa Bazar","Phone":"9358902125"}],"armsLicenseHolder":[{"Name":"Rajat Gupta","so":"Arun Kumar","Address":"Kagji Bazar","Phone":"Nil","Weapon":"Revolver"},{"Name":"Sant Kumar Verma","so":"Khem Chand Verma","Address":"Kagji Bazar","Phone":"Nil","Weapon":"Pistol"},{"Name":"Ankur Bansal","so":"Rajendra Bansal","Address":"Kagji Bazar","Phone":"Nil","Weapon":"Rifle"},{"Name":"Praveen Kumar","so":"Shiv charan","Address":"Kagji Bazar","Phone":"Nil","Weapon":"Revolver"}],"chowkidar":[{"Name":"Nil","so":"Nil","Address":"Nil","Phone":"Nil"}],"councellor":[{"Name":"Vijay Anand","so":"Nil","Address":"Nil","Phone":"9837893661"}],"historySheeter":[{"Name":"Bablu","so":"Kanti Prasad","Address":"Sheesh Mahal","Status":"Jail","Phone":"N/a"}],"convictedCriminals":[{"Name":"Nil","so":"Nil","3Status":"Nil","4Address":"Nil"}],"crimes5Yrs":[{"Name":"Nil","so":"Nil","crimeno":"Nil","Section":"Nil","Address":"Nil"}],"electionCrimes":[{"Name":"Nil","so":"Nil","crimeno":"Nil","Section":"Nil","Address":"Nil"}],"politician":[{"Name":"Nil","so":"Nil","Address":"Nil","Phone":"Nil"}],"boundDownUnder":"Nil","vulnerabilityDetails":"General","warrantedCriminals":[{"Name":"Nil","so":"Nil","Address":"Nil","Phone":"Nil"}],"condition":"Good"},{"stationID":"DG-12","stationName":"Spring Dales School Kher Nagar","latitude":"28.9788","longitude":" 77.7013","polingCenterPhoto":"/img/mediPanchayat.png","routes":"/img/3.png","collectionPoint":"/img/3.png","population":"8580","voters":"2860","villageMohalla":"Kher Nagar 1st,2nd 3rd","path":"#/menu/tab/medicalDetails","respectedPpl":[{"Name":"Rajkumar","so":"Mukand Lal","Address":"Neel gali","Phone":"9837248242"},{"Name":"Gulzar","so":"Mansoor Hasan","Address":"Kachis Saray","Phone":"Nil"},{"Name":"Pramod Kumar","so":"Kishan Lal","Address":"Thater wala","Phone":"9358611813"},{"Name":"Mukesh ","so":"Duli Chand","Address":"Thater wala","Phone":"9897082847"}],"retiredGovtSer":[{"Name":"Nil","so":"Nil","Address":"Nil","Phone":"Nil"}],"neighbourPolling":[{"Name":"Krishan Mohan Gupta","so":"Om Prakash","Address":"Sarafa Bazar","Phone":"9897300400"},{"Name":"Amrish aggarwal","so":"Nil","Address":"Sarafa Bazar","Phone":"9897032332"},{"Name":"Mehmood","so":"Iqbal","Address":"Sarafa Bazar","Phone":"1212790424"},{"Name":"Anand jain","so":"Jaswant Jain","Address":"Sarafa Bazar","Phone":"9319406777"},{"Name":"Alok Kumar","so":"Dayal Singh","Address":"Sarafa Bazar","Phone":"9358902125"}],"armsLicenseHolder":[{"Name":"Rajat Gupta","so":"Arun Kumar","Address":"Kagji Bazar","Phone":"Nil","Weapon":"Revolver"},{"Name":"Sant Kumar Verma","so":"Khem Chand Verma","Address":"Kagji Bazar","Phone":"Nil","Weapon":"Pistol"},{"Name":"Ankur Bansal","so":"Rajendra Bansal","Address":"Kagji Bazar","Phone":"Nil","Weapon":"Rifle"},{"Name":"Praveen Kumar","so":"Shiv charan","Address":"Kagji Bazar","Phone":"Nil","Weapon":"Revolver"}],"chowkidar":[{"Name":"Nil","so":"Nil","Address":"Nil","Phone":"Nil"}],"councellor":[{"Name":"Vijay Anand","so":"Vishwanath Aggarwal","Address":"Nil","Phone":"9837893661"}],"historySheeter":[{"Name":"Bablu","so":"Kanti Prasad","Address":"Sheesh Mahal","Status":"Jail","Phone":"N/a"}],"convictedCriminals":[{"Name":"Nil","so":"Nil","3Status":"Nil","4Address":"Nil"}],"crimes5Yrs":[{"Name":"Nil","so":"Nil","crimeno":"Nil","Section":"Nil","Address":"Nil"}],"electionCrimes":[{"Name":"Nil","so":"Nil","crimeno":"Nil","Section":"Nil","Address":"Nil"}],"politician":[{"Name":"Nil","so":"Nil","Address":"Nil","Phone":"Nil"}],"boundDownUnder":"Nil","vulnerabilityDetails":"General","warrantedCriminals":[{"Name":"Nil","so":"Nil","Address":"Nil","Phone":"Nil"}],"condition":"Good"},{"stationID":"DG-13","stationName":"Kanya Ustar Prathmik Vidhyalay nanak Chand Trust Jatav Gate","latitude":"28.9750","longitude":"77.6997","polingCenterPhoto":"/img/mediPanchayat.png","routes":"/img/3.png","collectionPoint":"/img/3.png","population":"Nil","voters":":1720","villageMohalla":"Karam Ali 2,3","path":"#/menu/tab/medicalDetails","respectedPpl":[{"Name":"Rashid","so":"Haji Fareed","Address":"Saray Lal Das","Phone":"9897292335"},{"Name":"Faruq","so":"Rahat Ali","Address":"Saray Lal Das","Phone":"9758252236"},{"Name":"Chetan Dutt Sharma","so":"Dwwarika Prasad","Address":"Saray Lal Das","Phone":"9837350319"},{"Name":"Sadab","so":"Abbas Zaidi","Address":"Saray Lal Das","Phone":"9359278962"}],"retiredGovtSer":[{"Name":"Nil","so":"Nil","Address":"Nil","Phone":"Nil"}],"neighbourPolling":[{"Name":"Shadab","so":"Abbas Zaidi","Address":"Siray lal Das","Phone":"Nil"},{"Name":"Sirajuddin","so":"Nizamuddin","Address":"Siray lal Das","Phone":"Nil"},{"Name":"Anwar ","so":"Shehzad","Address":"Siray lal Das","Phone":"Nil"},{"Name":"Jitendra","so":"Kirti Verma","Address":"Siray lal Das","Phone":"Nil"},{"Name":"Sajid","so":"Shobat","Address":"Siray lal Das","Phone":"Nil"}],"armsLicenseHolder":[{"Name":"Chandra Prasad Kaushik","so":"S.p Kaushik","Address":"Thater Wala","Phone":"Nil","Weapon":"DBBl"},{"Name":"Jitendra Verma","so":"K.P Verma","Address":"Thater Wala","Phone":"Nil","Weapon":"Revolver"}],"chowkidar":[{"Name":"Nil","so":"Nil","Address":"Nil","Phone":"Nil"}],"councellor":[{"Name":"Vijay Anand","so":"Vishwanath Aggarwal","Address":"Nil","Phone":"9837893661"}],"historySheeter":[{"Name":"Nil","so":"Nil","Address":"Nil","Status":"Nil","Phone":"Nil"}],"convictedCriminals":[{"Name":"Nil","so":"Nil","3Status":"Nil","4Address":"Nil"}],"crimes5Yrs":[{"Name":"Nil","so":"Nil","crimeno":"Nil","Section":"Nil","Address":"Nil"}],"electionCrimes":[{"Name":"Nil","so":"Nil","crimeno":"Nil","Section":"Nil","Address":"Nil"}],"politician":[{"Name":"Nil","so":"Nil","Address":"Nil","Phone":"Nil"}],"boundDownUnder":"Nil","vulnerabilityDetails":"General","warrantedCriminals":[{"Name":"Nil","so":"Nil","Address":"Nil","Phone":"Nil"}],"condition":"Good"},{"stationID":"DG-14","stationName":"Church City Jr. High School Thater wala","latitude":"28.9787","longitude":"77.7694","polingCenterPhoto":"/img/mediPanchayat.png","routes":"/img/3.png","collectionPoint":"/img/3.png","population":"5040","voters":":1680","villageMohalla":"Thater Wala, 1,2 Bajaja Bazar","path":"#/menu/tab/medicalDetails","respectedPpl":[{"Name":"Subash Chand","so":"Ramji Lal","Address":"Thater wala","Phone":"Nil"},{"Name":"Pramod Kumar","so":"Kishan Lal","Address":"Thater wala","Phone":"9358611813"},{"Name":"Mukesh Kumar","so":"Duli Chand","Address":"Thater wala","Phone":"9897082847"},{"Name":"Dheeraj","so":"Rajendra Singh","Address":"Thater wala","Phone":"Nil"}],"retiredGovtSer":[{"Name":"Nil","so":"Nil","Address":"Nil","Phone":"Nil"}],"neighbourPolling":[{"Name":"Chandra Prakash","so":"S.P Kaushik","Address":"Thater Wala","Phone":"Nil"},{"Name":"Satya Prakash","so":"Lt. Chaju Mal","Address":"Thater Wala","Phone":"9837414510"},{"Name":"Shabir Ali","so":"Haji Manjoor","Address":"Thater Wala","Phone":"Nil"},{"Name":"Parmod","so":"Kishan Lal","Address":"Thater Wala","Phone":"9358611813"},{"Name":"Mukesh Kumar","so":"Duli Chand","Address":"Thater Wala","Phone":"9897082847"}],"armsLicenseHolder":[{"Name":"Subash Chandra","so":"Udal Singh","Address":"Sarafa Bazar","Phone":"Nil","Weapon":"Pistol"},{"Name":"Atul Kumar Verma","so":"Dharam Veer Singh","Address":"Kachis Ray Saraf Bazar","Phone":"Nil","Weapon":"Pistol"},{"Name":"Narendra Kumar Gupta","so":"Ajari Lal","Address":"New Sarafa Bazar","Phone":"Nil","Weapon":"Revolver"},{"Name":"Ankur Bansal","so":"Rajendra Bansal","Address":"Sarafa Bazar","Phone":"Nil","Weapon":"Rifle"},{"Name":"Pandu Rang","so":"Hariba Jhabre","Address":"Sarafa Bazar","Phone":"Nil","Weapon":"Dbbl"}],"chowkidar":[{"Name":"Nil","so":"Nil","Address":"Nil","Phone":"Nil"}],"councellor":[{"Name":"Vijay Anand","so":"Vishwanath Aggarwal","Address":"Nil","Phone":"9837893661"}],"historySheeter":[{"Name":"Nil","so":"Nil","Address":"Nil","Status":"Nil","Phone":"Nil"}],"convictedCriminals":[{"Name":"Nil","so":"Nil","3Status":"Nil","4Address":"Nil"}],"crimes5Yrs":[{"Name":"Nil","so":"Nil","crimeno":"Nil","Section":"Nil","Address":"Nil"}],"electionCrimes":[{"Name":"Nil","so":"Nil","crimeno":"Nil","Section":"Nil","Address":"Nil"}],"politician":[{"Name":"Nil","so":"Nil","Address":"Nil","Phone":"Nil"}],"boundDownUnder":"Nil","vulnerabilityDetails":"General","warrantedCriminals":[{"Name":"Nil","so":"Nil","Address":"Nil","Phone":"Nil"}],"condition":"Good"},{"stationID":"DG-15","stationName":"Nagar Palika School Kanun Gyan Kher Nagar","latitude":"28.9772","longitude":"77.76996","polingCenterPhoto":"/img/mediPanchayat.png","routes":"/img/3.png","collectionPoint":"/img/3.png","population":"5160","voters":"::1720","villageMohalla":"Kanun Gyan, Tambo Gate, Kher Nagar","path":"#/menu/tab/medicalDetails","respectedPpl":[{"Name":"Girish Kumar","so":"Satya Prakash","Address":"Kanun Gyan","Phone":"0121-242187"},{"Name":"Parag aggarwal","so":"Narendra Aggarwal","Address":"Kanun Gyan","Phone":"Nil"},{"Name":"Manish Kansal","so":"Vinod Kansal","Address":"Kanun Gyan","Phone":"9319541148"},{"Name":"Mukesh Kumar","so":"J.P Gupta","Address":"Kanun Gyan","Phone":"Nil"},{"Name":"Nitin Gupta ","so":"Devendra Kumar","Address":"Kanun Gyan","Phone":"9837192780"}],"retiredGovtSer":[{"Name":"Nil","so":"Nil","Address":"Nil","Phone":"Nil"}],"neighbourPolling":[{"Name":"Nitin Sharma","so":"Lt. Rajendra Sharma","Address":"Kanun Gyan","Phone":"9359910709"},{"Name":"Pankaj Sharma","so":"Brij Bhushan Sharma","Address":"Kanun Gyan","Phone":"0121-2523448"},{"Name":"Manish Rastogi","so":"Ashok Kumar Rastogi","Address":"Kanun Gyan","Phone":"9927830771"},{"Name":"Sagar Rastogi","so":"Ashok Kumar Rastogi","Address":"Kanun Gyan","Phone":"9719111909"},{"Name":"Chetan Bajaj","so":"Lt. Shri Darshan Lal","Address":"Kanun Gyan","Phone":"9358269493"}],"armsLicenseHolder":[{"Name":"Mohd. Hasan","so":"Fateh Mohd.","Address":"Chauda Kuwa Kanun Gyan","Phone":"Nil","Weapon":"Rifle"},{"Name":"Brij Bhushan Sharma","so":"Shri Charan Sharma","Address":"Kanun Gyan","Phone":"Nil","Weapon":"Revolver"},{"Name":"Girish Kumar","so":"Satya Prakash","Address":"Kanun Gyan","Phone":"Nil","Weapon":"DBBL"},{"Name":"Sarafaz","so":"Mohd. Hussain","Address":"Kanun Gyan","Phone":"Nil","Weapon":"Revolver"},{"Name":"Parag Aggarwal","so":"Naresh Kumar Aggarwal","Address":"Kanun Gyan","Phone":"Nil","Weapon":"Revolver"}],"chowkidar":[{"Name":"Nil","so":"Nil","Address":"Nil","Phone":"Nil"}],"councellor":[{"Name":"Vijay Anand","so":"Vishwanath Aggarwal","Address":"Nil","Phone":"9837893661"}],"historySheeter":[{"Name":"Nil","so":"Nil","Address":"Nil","Status":"Nil","Phone":"Nil"}],"convictedCriminals":[{"Name":"Nil","so":"Nil","3Status":"Nil","4Address":"Nil"}],"crimes5Yrs":[{"Name":"Nil","so":"Nil","crimeno":"Nil","Section":"Nil","Address":"Nil"}],"electionCrimes":[{"Name":"Nil","so":"Nil","crimeno":"Nil","Section":"Nil","Address":"Nil"}],"politician":[{"Name":"Nil","so":"Nil","Address":"Nil","Phone":"Nil"}],"boundDownUnder":"Nil","vulnerabilityDetails":"General","warrantedCriminals":[{"Name":"Nil","so":"Nil","Address":"Nil","Phone":"Nil"}],"condition":"Good"},{"stationID":"DG-16","stationName":"Dharam Shala Maid Rajput","latitude":"28.9771","longitude":"77.6998","polingCenterPhoto":"/img/mediPanchayat.png","routes":"/img/3.png","collectionPoint":"/img/3.png","population":"4950","voters":"1650","villageMohalla":"Chatta Ali Raja, Lala Ka Bazar, Valley Bazar Ucha Neel Gali","path":"#/menu/tab/medicalDetails","respectedPpl":[{"Name":"Vijay Anand","so":"Vishwanath aggarwal","Address":"Kagji Bazar","Phone":"9837893661"},{"Name":"Sarvesh Kumar","so":"Kanti Prasad","Address":"Sarafa Bazar","Phone":"9837009993"},{"Name":"Trilok Chand","so":"Ashok Kumar","Address":"Kachis Ray","Phone":"9719487539"},{"Name":"Naresh Maheshwari","so":"Pooran Chand Maheshwari","Address":"Sarafa Bazar","Phone":"9359908025"}],"retiredGovtSer":[{"Name":"Nil","so":"Nil","Address":"Nil","Phone":"Nil"}],"neighbourPolling":[{"Name":"Sunil","so":"Ram Bharose Lal","Address":"Neel Gali","Phone":"9759038574"},{"Name":"Vikas","so":"Kali Ram","Address":"Neel Gali","Phone":"7895368479"},{"Name":"Anop Aggarwal","so":"Jitendra Aggarwal","Address":"Neel Gali","Phone":"9760322449"},{"Name":"Vijay Lal Verma","so":"Kali Ram","Address":"Neel Gali","Phone":"7895368479"},{"Name":"Sanjeev Aggarwal","so":"Shyam Bihari","Address":"Neel Gali","Phone":"9319446680"}],"armsLicenseHolder":[{"Name":"Roop Kishor","so":"Suresh Chand","Address":"Ucha Neel Gali","Phone":"Nil","Weapon":"Pistol"},{"Name":"Anurag Rastogi","so":"Ratan Lal Rastogi","Address":"Ucha Neel Gali","Phone":"Nil","Weapon":"Pistol"},{"Name":"Rinku Aggarwal","so":"Rakesh Aggarwal","Address":"Ucha Neel Gali","Phone":"Nil","Weapon":"DBBL"},{"Name":"Waseem","so":"Nisar","Address":"Ucha Neel Gali","Phone":"Nil","Weapon":"Pistol"},{"Name":"Tahir","so":"Aapa","Address":"Ucha Neel Gali","Phone":"Nil","Weapon":"DBBL"}],"chowkidar":[{"Name":"Nil","so":"Nil","Address":"Nil","Phone":"Nil"}],"councellor":[{"Name":"Vijay Anand","so":"Vishwanath Aggarwal","Address":"Nil","Phone":"9837893661"}],"historySheeter":[{"Name":"Deepak","so":"Satyal Pal","Address":"Neel Gali","Status":"Dead","Phone":"N/a"},{"Name":"Arvind","so":"Om Prakash","Address":"Lala Ka Bazar","Status":"Present","Phone":"N/a"}],"convictedCriminals":[{"Name":"Nil","so":"Nil","3Status":"Nil","4Address":"Nil"}],"crimes5Yrs":[{"Name":"Titu/ Jitendra","so":"Ved Prakash","crimeno":"257/11","Section":"457,380 Ipc","Address":"Jatti Wada"}],"electionCrimes":[{"Name":"Nil","so":"Nil","crimeno":"Nil","Section":"Nil","Address":"Nil"}],"politician":[{"Name":"Nil","so":"Nil","Address":"Nil","Phone":"Nil"}],"boundDownUnder":"Nil","vulnerabilityDetails":"General","warrantedCriminals":[{"Name":"Nil","so":"Nil","Address":"Nil","Phone":"Nil"}],"condition":"Good"},{"stationID":"DG-17","stationName":"Pandit Ganga Ram Dharam Shala Kesar Ganj","latitude":"28.9848","longitude":"77.6958","polingCenterPhoto":"/img/mediPanchayat.png","routes":"/img/3.png","collectionPoint":"/img/3.png","population":"5550","voters":"1850","villageMohalla":"Karamat Ali, Ronak Pura 1,2 Kesar Ganj","path":"#/menu/tab/medicalDetails","respectedPpl":[{"Name":"Jaan Mohd.","so":"Almudin","Address":"Poorva Hamid Hussain","Phone":"9456036818"},{"Name":"Javed","so":"Mustaq","Address":"Poorva Hamid Hussain","Phone":"9358487386"},{"Name":"Mobin","so":"Babu Pahelwaan","Address":"Kesar Ganj","Phone":"9358793909"},{"Name":"Nafees","so":"Abdul Saqoor","Address":"Kesar Ganj","Phone":"9758235596"},{"Name":"Nafees","so":"Abdul Raees","Address":"Kesar Ganj","Phone":"9837876824"}],"retiredGovtSer":[{"Name":"Nil","so":"Nil","Address":"Nil","Phone":"Nil"}],"neighbourPolling":[{"Name":"Somi Singh","so":"Jogendra Singh","Address":"Kesar Ganj","Phone":"Nil"},{"Name":"Arun Kumar","so":"Devi Dayal Gupta","Address":"Kesar Ganj","Phone":"9897467774"},{"Name":"Dinesh","so":"Kishan Swaroop","Address":"Kesar Ganj","Phone":"Nil"},{"Name":"Parveen","so":"Mukut Bihari","Address":"Kesar Ganj","Phone":"Nil"},{"Name":"Govind","so":"Shyam Lal","Address":"Kesar Ganj","Phone":"Nil"}],"armsLicenseHolder":[{"Name":"Dinesh","so":"Kishan Swaroop","Address":"Kesar Ganj","Phone":"Nil","Weapon":"Revolver"},{"Name":"Somi Singh","so":"Jogendra Singh","Address":"Kesar Ganj","Phone":"Nil","Weapon":"DBBL"},{"Name":"Pramod","so":"Om pRakash","Address":"Kesar Ganj","Phone":"Nil","Weapon":"DBBL"},{"Name":"Govind","so":"Shyam Lal","Address":"Kesar Ganj","Phone":"Nil","Weapon":"DBBL"},{"Name":"Parveen","so":"Mukut Bihari","Address":"Kesar Ganj","Phone":"Nil","Weapon":"Revolver"},{"Name":"Faruq","so":"Mehmood","Address":"Poorva Fayaz ali","Phone":"Nil","Weapon":"Rifle"},{"Name":"Rafigul Hasan","so":"Azaz Navi","Address":"Poorva Fayaz ali","Phone":"Nil","Weapon":"DBBL"}],"chowkidar":[{"Name":"Nil","so":"Nil","Address":"Nil","Phone":"Nil"}],"councellor":[{"Name":"Nazma","so":"Vishwanath Aggarwal","Address":"Nil","Phone":"9319292709"}],"historySheeter":[{"Name":"Nil","so":"Nil","Address":"Nil","Status":"Nil","Phone":"Nil"}],"convictedCriminals":[{"Name":"Nil","so":"Nil","3Status":"Nil","4Address":"Nil"}],"crimes5Yrs":[{"Name":"Nil","so":"Nil","crimeno":"Nil","Section":"Nil","Address":"Nil"}],"electionCrimes":[{"Name":"Nil","so":"Nil","crimeno":"Nil","Section":"Nil","Address":"Nil"}],"politician":[{"Name":"Nil","so":"Nil","Address":"Nil","Phone":"Nil"}],"boundDownUnder":"Nil","vulnerabilityDetails":"General","warrantedCriminals":[{"Name":"Nil","so":"Nil","Address":"Nil","Phone":"Nil"}],"condition":"Good"}]