[
  {
    "stationID": "TPN-01",
    "stationName": "Star Public School Rohat Road (Anup Nagar Fajalpur)",
    "latitude": "28.9879",
    "longitude": "77.6652",
    "polingCenterPhoto": "../img/mediPanchayat.png",
    "routes": "../img/3.png",
    "collectionPoint": "../img/3.png",
    "population": "Nil",
    "voters": "1775",
    "villageMohalla": "New Basti, Keishna Coloney,Fazulpur Main Road, Vikas Puri,New Coloney Harvansh Vehar, Ram Vati Puram",
    "path": "#/menu/tab/medicalDetails",
    "respectedPpl": [
      {
        "Name": "Bharat Saini",
        "so": "Nil",
        "Address": "Rohata Road",
        "Phone": "9456055645"
      },
      {
        "Name": "Hasmuku Deen ",
        "so": "Nil",
        "Address": "Rohata Road",
        "Phone": "9358555595"
      },
      {
        "Name": "Firoz Seffi",
        "so": "Nil",
        "Address": "Rohata Road",
        "Phone": "9358424702"
      },
      {
        "Name": "Venod Kumar",
        "so": "Nil",
        "Address": "Rohata Road",
        "Phone": "9997690282"
      },
      {
        "Name": "Hrish Kumar",
        "so": "Nil",
        "Address": "Rohata Road",
        "Phone": "9897128562"
      },
      {
        "Name": "Sanjay Tyagi",
        "so": "Nil",
        "Address": "Rohata Road",
        "Phone": "9258569317"
      }
    ],
    "retiredGovtSer": [
      {
        "Name": "Raj Pal Singh",
        "so": "Nil",
        "Address": "Rohata Road",
        "Phone": "9557404509"
      },
      {
        "Name": "Bhupendra Singh",
        "so": "Nil",
        "Address": "Rohata Road",
        "Phone": "9412630339"
      },
      {
        "Name": "Mahanand ",
        "so": "Nil",
        "Address": "Rohata Road",
        "Phone": "9760138501"
      },
      {
        "Name": "Rajveer Singh",
        "so": "Nil",
        "Address": "Rohata Road",
        "Phone": "9837603832"
      },
      {
        "Name": "Bajrej Raj Singh",
        "so": "Nil",
        "Address": "Rohata Road",
        "Phone": "9412859465"
      }
    ],
    "neighbourPolling": [
      {
        "Name": "Bhupender ",
        "so": "Bhavar Singh",
        "Address": "Rohata Road",
        "Phone": "8810096815"
      },
      {
        "Name": "Jatan Veer",
        "so": "Vead Singh",
        "Address": "Rohata Road",
        "Phone": "9927208954"
      },
      {
        "Name": "Amit ",
        "so": "Subash Chand",
        "Address": "Rohata Road",
        "Phone": "9639063726"
      },
      {
        "Name": "Arsad ",
        "so": "Uneus",
        "Address": "Rohata Road",
        "Phone": "9719202949"
      },
      {
        "Name": "Dr. Uneus Khan",
        "so": "Ramjan Ali ",
        "Address": "Rohata Road",
        "Phone": "9837336850"
      }
    ],
    "armsLicenseHolder": [
      {
        "Name": "Ajay Kumar",
        "so": "Surender Pal",
        "Address": "Rohata road",
        "Phone": "Nil",
        "Weapon": "Revolver"
      },
      {
        "Name": "Aum Singh ",
        "so": "Chol Singh",
        "Address": "Rohata road",
        "Phone": "Nil",
        "Weapon": "SBBL"
      },
      {
        "Name": "Dev Kumar ",
        "so": "Vikram Singh",
        "Address": "Rohata road",
        "Phone": "Nil",
        "Weapon": "Riffil"
      },
      {
        "Name": "Ravender Kumar",
        "so": "Ganga Prasad",
        "Address": "Rohata road",
        "Phone": "Nil",
        "Weapon": "DBBL"
      },
      {
        "Name": "Har Prasad ",
        "so": "Amar singh",
        "Address": "Rohata road",
        "Phone": "Nil",
        "Weapon": "Riffil/SBBL"
      },
      {
        "Name": "Pawan Kumar",
        "so": "Jagat Singh",
        "Address": "Rohata road",
        "Phone": "Nil",
        "Weapon": "Revolver"
      },
      {
        "Name": "Vijay Kumar ",
        "so": "Ram Krishan ",
        "Address": "Rohata road",
        "Phone": "Nil",
        "Weapon": "Revolver"
      },
      {
        "Name": "Aftab ",
        "so": "Smile",
        "Address": "Rohata road",
        "Phone": "Nil",
        "Weapon": "DBBL"
      },
      {
        "Name": "Anish ",
        "so": "Waquimundeen ",
        "Address": "Rohata road",
        "Phone": "Nil",
        "Weapon": "SBBL"
      },
      {
        "Name": "Jagveer ",
        "so": "Vilak Singh",
        "Address": "Rohata road",
        "Phone": "Nil",
        "Weapon": "SBBL"
      }
    ],
    "chowkidar": [
      {
        "Name": "Nil",
        "so": "Nil",
        "Address": "Nil",
        "Phone": "Nil"
      }
    ],
    "councellor": [
      {
        "Name": "Rishi Pal ",
        "so": "Sabasadh ",
        "Address": "Rohata Road",
        "Phone": "9427011632"
      }
    ],
    "historySheeter": [
      {
        "Name": "Suraj Vali ",
        "so": "Sukhveer Singh",
        "Address": "Anup Nagar Fazal Pur",
        "Status": "Missing",
        "Phone": "Nil"
      }
    ],
    "convictedCriminals": [
      {
        "Name": "Nil",
        "so": "Nil",
        "Address": "Nil",
        "crimeno": "Nil",
        "section": "Nil"
      }
    ],
    "crimes5Yrs": [
      {
        "Name": "Nil",
        "so": "Nil",
        "crimeno": "Nil",
        "Section": "Nil",
        "Address": "Nil"
      }
    ],
    "electionCrimes": [
      {
        "Name": "Nil",
        "so": "Nil",
        "crimeno": "Nil",
        "Section": "Nil",
        "Address": "Nil"
      }
    ],
    "politician": [
      {
        "Name": "Nil",
        "so": "Nil",
        "Address": "Nil",
        "Phone": "Nil"
      }
    ],
    "boundDownUnder": "Nil",
    "vulnerabilityDetails": "General",
    "warrantedCriminals": [
      {
        "Name": "Nil",
        "so": "Nil",
        "Address": "Nil",
        "Phone": "Nil"
      }
    ],
    "condition": "Good"
  },
  {
    "stationID": "TPN-02",
    "stationName": "KK Academy Sarasvati Vihar Rohat Road",
    "latitude": " 28.9832",
    "longitude": " 77.6688",
    "polingCenterPhoto": "../img/mediPanchayat.png",
    "routes": "../img/3.png",
    "collectionPoint": "../img/3.png",
    "population": "Nil",
    "voters": "1215",
    "villageMohalla": "Srasvati Vihar 1,2,3,4",
    "path": "#/menu/tab/medicalDetails",
    "respectedPpl": [
      {
        "Name": "Raju Bhaiya",
        "so": "Nil",
        "Address": "Sarasvati Vihar",
        "Phone": "9412208409"
      },
      {
        "Name": "Raj Kumar Chauhan",
        "so": "Nil",
        "Address": "Sarasvati Vihar",
        "Phone": "7409586706"
      },
      {
        "Name": "Vishamber Singh",
        "so": "Nil",
        "Address": "Sarasvati Vihar",
        "Phone": "9634349298"
      },
      {
        "Name": "Ramu",
        "so": "Nil",
        "Address": "Sarasvati Vihar",
        "Phone": "9639000059"
      },
      {
        "Name": "Manish",
        "so": "Nil",
        "Address": "Sarasvati Vihar",
        "Phone": "9837247388"
      }
    ],
    "retiredGovtSer": [
      {
        "Name": "Raj Kumar Chauhan",
        "so": "Nil",
        "Address": "Sarasvati Vihar",
        "Phone": "7409586706"
      },
      {
        "Name": "S.S Bhati ",
        "so": "Nil",
        "Address": "Sarasvati Vihar",
        "Phone": "9791666216"
      },
      {
        "Name": "Charan Singh",
        "so": "Nil",
        "Address": "Sarasvati Vihar",
        "Phone": "9837510406"
      },
      {
        "Name": "Uphadeya",
        "so": "Nil",
        "Address": "Sarasvati Vihar",
        "Phone": "8171992648"
      }
    ],
    "neighbourPolling": [
      {
        "Name": "Roinal ",
        "so": "Nil",
        "Address": "Sarasvati Vihar",
        "Phone": "8791776635"
      },
      {
        "Name": "Dr.Krishan Kumar Verma",
        "so": "Nil",
        "Address": "Sarasvati Vihar",
        "Phone": "8126152617"
      },
      {
        "Name": "Alokh Verma ",
        "so": "Nil",
        "Address": "Sarasvati Vihar",
        "Phone": "8057440999"
      },
      {
        "Name": "Amit Sharma",
        "so": "Nil",
        "Address": "Sarasvati Vihar",
        "Phone": "9536528420"
      },
      {
        "Name": "Ashish Sharma",
        "so": "Nil",
        "Address": "Sarasvati Vihar",
        "Phone": "8006951251"
      }
    ],
    "armsLicenseHolder": [
      {
        "Name": "Khajan Singh",
        "so": "Nand Lal",
        "Address": "Sarasvati Vihar",
        "Phone": "Nil",
        "Weapon": "SBBL"
      },
      {
        "Name": "Aum Dat Sharma",
        "so": "Ram chand Sharma",
        "Address": "Sarasvati Vihar",
        "Phone": "Nil",
        "Weapon": "SBBL"
      },
      {
        "Name": "sharadha Ram ",
        "so": "Mehar Chand ",
        "Address": "Sarasvati Vihar",
        "Phone": "Nil",
        "Weapon": "SBBL"
      },
      {
        "Name": "Shidh Raj ",
        "so": "Ram singh",
        "Address": "Sarasvati Vihar",
        "Phone": "Nil",
        "Weapon": "SBBL"
      },
      {
        "Name": "Ajay Yadav ",
        "so": "Khajan Singh",
        "Address": "Sarasvati Vihar",
        "Phone": "Nil",
        "Weapon": "SBBL"
      },
      {
        "Name": "Venod Kumar ",
        "so": "Raj Pal ",
        "Address": "Sarasvati Vihar",
        "Phone": "Nil",
        "Weapon": "Revolver"
      },
      {
        "Name": "Bharat Singh",
        "so": "Charan Singh",
        "Address": "Sarasvati Vihar",
        "Phone": "Nil",
        "Weapon": "SBBL"
      },
      {
        "Name": "Raj Kumar ",
        "so": "Mangatu",
        "Address": "Sarasvati Vihar",
        "Phone": "Nil",
        "Weapon": "DBBL"
      },
      {
        "Name": "Sher Singh",
        "so": "Shoba Ram",
        "Address": "Sarasvati Vihar",
        "Phone": "Nil",
        "Weapon": "Pistel"
      },
      {
        "Name": "Vimal kumar ",
        "so": "Hera lal",
        "Address": "Sarasvati Vihar",
        "Phone": "Nil",
        "Weapon": "Riffel"
      }
    ],
    "chowkidar": [
      {
        "Name": "Nil",
        "so": "Nil",
        "Address": "Nil",
        "Phone": "Nil"
      }
    ],
    "councellor": [
      {
        "Name": "Parmanand Dhiya",
        "so": "Parshad ",
        "Address": "Gola Bud",
        "Phone": "9837032708"
      },
      {
        "Name": "madhur",
        "so": "Raj kumar",
        "Address": "Gola Bud",
        "Phone": "9412208409"
      }
    ],
    "historySheeter": [
      {
        "Name": "Nil",
        "so": "Nil",
        "Address": "Nil",
        "Status": "Nil",
        "Phone": "Nil"
      }
    ],
    "convictedCriminals": [
      {
        "Name": "Nil",
        "so": "Nil",
        "Address": "Nil",
        "crimeno": "Nil",
        "section": "Nil"
      }
    ],
    "crimes5Yrs": [
      {
        "Name": "Nil",
        "so": "Nil",
        "crimeno": "Nil",
        "Section": "Nil",
        "Address": "Nil"
      }
    ],
    "electionCrimes": [
      {
        "Name": "Nil ",
        "so": "Nil",
        "crimeno": "Nil",
        "Section": "Nil",
        "Address": "Nil"
      }
    ],
    "politician": [
      {
        "Name": "Raju",
        "so": "Nil",
        "Address": "Nil",
        "Phone": "9412208409"
      }
    ],
    "boundDownUnder": "Nil",
    "vulnerabilityDetails": "General",
    "warrantedCriminals": [
      {
        "Name": "Nil",
        "so": "Nil",
        "Address": "Nil",
        "Phone": "Nil"
      }
    ],
    "condition": "Good"
  },
  {
    "stationID": "TPN-03",
    "stationName": "Prathmil Vedhyal AurangShahpur Golabud",
    "latitude": "28.9812",
    "longitude": " 77.6648",
    "polingCenterPhoto": "../img/mediPanchayat.png",
    "routes": "../img/3.png",
    "collectionPoint": "../img/3.png",
    "population": "Nil",
    "voters": "5553",
    "villageMohalla": "Auranghshahpur,Gagan Vihar , Shanti Kunj, Shalimar Garden , Sidhart Nagar, Dilaver Palas, Gokul Vihar",
    "path": "#/menu/tab/medicalDetails",
    "respectedPpl": [
      {
        "Name": "Anil Saini ",
        "so": "Nil",
        "Address": "Golabud",
        "Phone": "7830000525"
      },
      {
        "Name": "Bharat Saini",
        "so": "Nil",
        "Address": "Golabud",
        "Phone": "9456055645"
      },
      {
        "Name": "Narendar Sain",
        "so": "Nil",
        "Address": "Golabud",
        "Phone": "9927181037"
      },
      {
        "Name": "Mohd. Tazer ",
        "so": "Nil",
        "Address": "Golabud",
        "Phone": "7037776678"
      },
      {
        "Name": "Mohd. Anish",
        "so": "Nil",
        "Address": "Golabud",
        "Phone": "9897326786"
      }
    ],
    "retiredGovtSer": [
      {
        "Name": "Sorhan lal verma",
        "so": "Nil",
        "Address": "Golabud",
        "Phone": "8791765568"
      },
      {
        "Name": "Gopal master ji",
        "so": "Nil",
        "Address": "Golabud",
        "Phone": "8439227214"
      },
      {
        "Name": "D.l rajor",
        "so": "Nil",
        "Address": "Golabud",
        "Phone": "9808383408"
      },
      {
        "Name": "Rajveer singh",
        "so": "Nil",
        "Address": "Golabud",
        "Phone": "9319038939"
      }
    ],
    "neighbourPolling": [
      {
        "Name": "Bharat Saini",
        "so": "Nil",
        "Address": "Golabud",
        "Phone": "9456055645"
      },
      {
        "Name": "Anil Saini",
        "so": "Nil",
        "Address": "Golabud",
        "Phone": "7830000525"
      },
      {
        "Name": "Jagveer Saini",
        "so": "Nil",
        "Address": "Golabud",
        "Phone": "7078225845"
      },
      {
        "Name": "Rajesh Prajapati",
        "so": "Nil",
        "Address": "Golabud",
        "Phone": "7895573346"
      },
      {
        "Name": "Davender Prajapati",
        "so": "Nil",
        "Address": "Golabud",
        "Phone": "9634734033"
      }
    ],
    "armsLicenseHolder": [
      {
        "Name": "Surander Pal",
        "so": "Jagver Singh",
        "Address": "Gokul Vihar",
        "Phone": "Nil",
        "Weapon": "Revolver"
      },
      {
        "Name": "Venod Kumar",
        "so": "Sukhver Singh",
        "Address": "Gokul Vihar",
        "Phone": "Nil",
        "Weapon": "Revolver"
      },
      {
        "Name": "Subash Chand",
        "so": "Vila Singh",
        "Address": "Gokul Vihar",
        "Phone": "Nil",
        "Weapon": "Sbbl"
      },
      {
        "Name": "Rakesh Kumar",
        "so": "Mahender Singh",
        "Address": "Shanti Kunj",
        "Phone": "Nil",
        "Weapon": "Dbbl"
      },
      {
        "Name": "Manoj Kumar",
        "so": "Shabh Singh",
        "Address": "Shanti Kunj",
        "Phone": "Nil",
        "Weapon": "Revolver"
      },
      {
        "Name": "Ram Nivs",
        "so": "Chnadra Prakash",
        "Address": "Shanti Kunj",
        "Phone": "Nil",
        "Weapon": "Revolver"
      },
      {
        "Name": "Durga Prasad",
        "so": "Aditeya",
        "Address": "Golabud",
        "Phone": "Nil",
        "Weapon": "Revolver"
      },
      {
        "Name": "Semsher Ahemad",
        "so": "Noor Ahmed",
        "Address": "Golabud",
        "Phone": "Nil",
        "Weapon": "Dbbl"
      },
      {
        "Name": "Braj Sain",
        "so": "Bal Veer",
        "Address": "Golabud",
        "Phone": "Nil",
        "Weapon": "Dbbl"
      },
      {
        "Name": "Aum Kar",
        "so": "Bhanu Singh",
        "Address": "Golabud",
        "Phone": "Nil",
        "Weapon": "Pestil"
      },
      {
        "Name": "Ram Krishan Yogi",
        "so": "Mahavati",
        "Address": "Golabud",
        "Phone": "Nil",
        "Weapon": "Dbbl"
      },
      {
        "Name": "Ajay Mittal",
        "so": "Khem Chad",
        "Address": "Golabud",
        "Phone": "Nil",
        "Weapon": "Pestil"
      },
      {
        "Name": "Shabaudeen",
        "so": "Babu Kha",
        "Address": "Golabud",
        "Phone": "Nil",
        "Weapon": "Riffel"
      },
      {
        "Name": "Ishvar Prasad",
        "so": "Chiranji Lal",
        "Address": "Golabud",
        "Phone": "Nil",
        "Weapon": "Dbbl"
      }
    ],
    "chowkidar": [
      {
        "Name": "Nil",
        "so": "Nil",
        "Address": "Nil",
        "Phone": "Nil"
      }
    ],
    "councellor": [
      {
        "Name": "Parmanand Dhiya",
        "so": "Parshad ",
        "Address": "Gola Bud",
        "Phone": "9837032708"
      },
      {
        "Name": "Madhur",
        "so": "Raj kumar",
        "Address": "Gola Bud",
        "Phone": "9412208409"
      }
    ],
    "historySheeter": [
      {
        "Name": "Shabuden Aka Sabu",
        "so": "Babu Kha",
        "Address": "Golabud",
        "Status": "Present",
        "Phone": "Nil"
      },
      {
        "Name": "Shankar",
        "so": "Chandra Bali",
        "Address": "Shekhpura",
        "Status": "Present",
        "Phone": "Nil"
      },
      {
        "Name": "Jojo Aka Venod",
        "so": "Bhopal",
        "Address": "Golabud",
        "Status": "Present",
        "Phone": "Nil"
      },
      {
        "Name": "Pankaj Aka Raju",
        "so": "Mukesh Kumar",
        "Address": "Golabud",
        "Status": "Jail",
        "Phone": "Nil"
      },
      {
        "Name": "Anil Vihari",
        "so": "Nain Singh",
        "Address": "Golabud",
        "Status": "Missing",
        "Phone": "Nil"
      },
      {
        "Name": "Ajad Aka Peter",
        "so": "Ghasita",
        "Address": "Golabud",
        "Status": "Missing",
        "Phone": "Nil"
      },
      {
        "Name": "Lakhan Lal Aka Lakkhi",
        "so": "Desh Raj",
        "Address": "Golabud",
        "Status": "Missing",
        "Phone": "Nil"
      },
      {
        "Name": "Davender Aka Pummy",
        "so": "Raj Kumar",
        "Address": "Pushpvihar",
        "Status": "Missing",
        "Phone": "Nil"
      }
    ],
    "convictedCriminals": [
      {
        "Name": "Chand",
        "so": "Bablu",
        "Status": "Nil",
        "Address": "Near Mata Mandir Jawhar Nagar"
      },
      {
        "Name": "Rohit Sharma",
        "so": "Birju",
        "Status": "Nil",
        "Address": "Sainik Vihar Rohata Road"
      }
    ],
    "crimes5Yrs": [
      {
        "Name": "Nil",
        "so": "Nil",
        "crimeno": "Nil",
        "Section": "Nil",
        "Address": "Nil"
      }
    ],
    "electionCrimes": [
      {
        "Name": "Nil ",
        "so": "Nil",
        "crimeno": "Nil",
        "Section": "Nil",
        "Address": "Nil"
      }
    ],
    "politician": [
      {
        "Name": "Bharat Saini",
        "so": "Nil",
        "Address": "Nil",
        "Phone": "9456055645"
      },
      {
        "Name": "Anil Saini",
        "so": "Nil",
        "Address": "Nil",
        "Phone": "7830000525"
      },
      {
        "Name": "Deepak Sharma",
        "so": "Nil",
        "Address": "Nil",
        "Phone": "9837527559"
      }
    ],
    "boundDownUnder": "Nil",
    "vulnerabilityDetails": "General",
    "warrantedCriminals": [
      {
        "Name": "Nil",
        "so": "Nil",
        "Address": "Nil",
        "Phone": "Nil"
      }
    ],
    "condition": "Good"
  },
  {
    "stationID": "TPN-04",
    "stationName": "Dr. BR Ambedker Balika Shiksha Sadan Aurangshpur Golabud",
    "latitude": " 28.9833",
    "longitude": "77.6668",
    "polingCenterPhoto": "../img/mediPanchayat.png",
    "routes": "../img/3.png",
    "collectionPoint": "../img/3.png",
    "population": "Nil",
    "voters": "2238",
    "villageMohalla": "Auranghshahpur,Gagan Vihar , Shanti Kunj, Shalimar Garden , Sidhart Nagar, Dilaver Palas, Gokul Vihar",
    "path": "#/menu/tab/medicalDetails",
    "respectedPpl": [
      {
        "Name": "Hasmukden",
        "so": "Nil",
        "Address": "Golabud",
        "Phone": "9358555595"
      },
      {
        "Name": "Firoj Sefi",
        "so": "Nil",
        "Address": "Golabud",
        "Phone": "9358424702"
      },
      {
        "Name": "Bharat Saini",
        "so": "Nil",
        "Address": "Golabud",
        "Phone": "9456055695"
      },
      {
        "Name": "Braj Sain Sagar",
        "so": "Nil",
        "Address": "Golabud",
        "Phone": "9897923309"
      },
      {
        "Name": "Venod Kumar",
        "so": "Nil",
        "Address": "Golabud",
        "Phone": "9997690282"
      },
      {
        "Name": "Harish Kumar",
        "so": "Nil",
        "Address": "Golabud",
        "Phone": "9897128562"
      }
    ],
    "retiredGovtSer": [
      {
        "Name": "Girval Singh",
        "so": "Nil",
        "Address": "Golabud",
        "Phone": "9319413757"
      },
      {
        "Name": "Maniram",
        "so": "Nil",
        "Address": "Golabud",
        "Phone": "9997802078"
      },
      {
        "Name": "Ganga Sharan",
        "so": "Nil",
        "Address": "Golabud",
        "Phone": "9451523347"
      },
      {
        "Name": "Begraj",
        "so": "Nil",
        "Address": "Golabud",
        "Phone": "9897432778"
      }
    ],
    "neighbourPolling": [
      {
        "Name": "Dharam Raj",
        "so": "Nil",
        "Address": "Aurangshahpur Golabud",
        "Phone": "9045568234"
      },
      {
        "Name": "Braj Sain",
        "so": "Nil",
        "Address": "Aurangshahpur Golabud",
        "Phone": "9897923309"
      },
      {
        "Name": "Ramesh",
        "so": "Nil",
        "Address": "Aurangshahpur Golabud",
        "Phone": "9456087962"
      },
      {
        "Name": "Kanehya",
        "so": "Nil",
        "Address": "Aurangshahpur Golabud",
        "Phone": "9634122281"
      },
      {
        "Name": "Ravi",
        "so": "Nil",
        "Address": "Aurangshahpur Golabud",
        "Phone": "9627502624"
      }
    ],
    "armsLicenseHolder": [
      {
        "Name": "Prem Chand",
        "so": "Suraj Ban",
        "Address": "Dilaver Palas",
        "Phone": "Nil",
        "Weapon": "Sbbl"
      },
      {
        "Name": "Vikas",
        "so": "Jagdish",
        "Address": "Dilaver Palas",
        "Phone": "Nil",
        "Weapon": "Sbbl"
      },
      {
        "Name": "Amit Mittal",
        "so": "Babu Ram",
        "Address": "Golabud",
        "Phone": "Nil",
        "Weapon": "Pistel"
      },
      {
        "Name": "Mirazuden",
        "so": "Meetu",
        "Address": "Golabud",
        "Phone": "Nil",
        "Weapon": "Pistel"
      },
      {
        "Name": "Firoj",
        "so": "Faimuden",
        "Address": "Golabud",
        "Phone": "Nil",
        "Weapon": "Pistel"
      },
      {
        "Name": "Ajay Sen",
        "so": "Sukhver",
        "Address": "Golabud",
        "Phone": "Nil",
        "Weapon": "Revolver"
      },
      {
        "Name": "Aditey Sain",
        "so": "Sukhver",
        "Address": "Golabud",
        "Phone": "Nil",
        "Weapon": "Revolver"
      },
      {
        "Name": "Aum Prakash",
        "so": "Kalu Ram",
        "Address": "Golabud",
        "Phone": "Nil",
        "Weapon": "Dbbl"
      },
      {
        "Name": "Deyanend",
        "so": "Ganga Sehya",
        "Address": "Golabud",
        "Phone": "Nil",
        "Weapon": "Sbbl"
      },
      {
        "Name": "Braj Pal Singh",
        "so": "Sanavat",
        "Address": "Golabud",
        "Phone": "Nil",
        "Weapon": "Revolver"
      }
    ],
    "chowkidar": [
      {
        "Name": "Nil",
        "so": "Nil",
        "Address": "Nil",
        "Phone": "Nil"
      }
    ],
    "councellor": [
      {
        "Name": "Parmanand Dhiya",
        "so": "Parshad ",
        "Address": "Gola Bud",
        "Phone": "9837032708"
      },
      {
        "Name": "Madhur",
        "so": "Raj kumar",
        "Address": "Gola Bud",
        "Phone": "9412208409"
      }
    ],
    "historySheeter": [
      {
        "Name": "Shabuden Aka Sabu",
        "so": "Babu Kha",
        "Address": "Golabud",
        "Status": "Present",
        "Phone": "Nil"
      },
      {
        "Name": "Shankar",
        "so": "Chandra Bali",
        "Address": "Shekhpura",
        "Status": "Present",
        "Phone": "Nil"
      },
      {
        "Name": "Jojo Aka Venod",
        "so": "Bhopal",
        "Address": "Golabud",
        "Status": "Present",
        "Phone": "Nil"
      },
      {
        "Name": "Pankaj Aka Raju",
        "so": "Mukesh Kumar",
        "Address": "Golabud",
        "Status": "Jail",
        "Phone": "Nil"
      },
      {
        "Name": "Anil Vihari",
        "so": "Nain Singh",
        "Address": "Golabud",
        "Status": "Missing",
        "Phone": "Nil"
      },
      {
        "Name": "Ajad Aka Peter",
        "so": "Ghasita",
        "Address": "Golabud",
        "Status": "Missing",
        "Phone": "Nil"
      },
      {
        "Name": "Lakhan Lal Aka Lakkhi",
        "so": "Desh Raj",
        "Address": "Golabud",
        "Status": "Missing",
        "Phone": "Nil"
      },
      {
        "Name": "Davender Aka Pummy",
        "so": "Raj Kumar",
        "Address": "Pushpvihar",
        "Status": "Missing",
        "Phone": "Nil"
      }
    ],
    "convictedCriminals": [
      {
        "Name": "Chand",
        "so": "Bablu",
        "Status": "Nil",
        "Address": "Near Mata Mandir Jawhar Nagar"
      },
      {
        "Name": "Rohit Sharma",
        "so": "Birju",
        "Status": "Nil",
        "Address": "Sainik Vihar Rohata Road"
      }
    ],
    "crimes5Yrs": [
      {
        "Name": "Rahul",
        "so": "Mangat",
        "crimeno": "261/15",
        "Section": "363/366/376 Ipc 7/8 Posco Act",
        "Address": "Golabud"
      }
    ],
    "electionCrimes": [
      {
        "Name": "Nil ",
        "so": "Nil",
        "crimeno": "Nil",
        "Section": "Nil",
        "Address": "Nil"
      }
    ],
    "politician": [
      {
        "Name": "Ramish",
        "so": "Nil",
        "Address": "Nil",
        "Phone": "9456087962"
      },
      {
        "Name": "Braj Sain Sagar",
        "so": "Nil",
        "Address": "Nil",
        "Phone": "9897923309"
      },
      {
        "Name": "Firoj Sefi",
        "so": "Nil",
        "Address": "Nil",
        "Phone": "9358424702"
      }
    ],
    "boundDownUnder": "Nil",
    "vulnerabilityDetails": "General",
    "warrantedCriminals": [
      {
        "Name": "Nil",
        "so": "Nil",
        "Address": "Nil",
        "Phone": "Nil"
      }
    ],
    "condition": "Good"
  },
  {
    "stationID": "TPN-05",
    "stationName": "SG Higher Secondey School Sekhpura",
    "latitude": "28.9746",
    "longitude": " 77.6686",
    "polingCenterPhoto": "../img/mediPanchayat.png",
    "routes": "../img/3.png",
    "collectionPoint": "../img/3.png",
    "population": "Nil",
    "voters": "3335",
    "villageMohalla": "Shekhpura 1,2,3 Pushpvihar",
    "path": "#/menu/tab/medicalDetails",
    "respectedPpl": [
      {
        "Name": "Sachin Gupta",
        "so": "Nil",
        "Address": "Shekhpura",
        "Phone": "9319316728"
      },
      {
        "Name": "Deepak Gupta",
        "so": "Nil",
        "Address": "Shekhpura",
        "Phone": "9411905398"
      },
      {
        "Name": "Ganesh",
        "so": "Nil",
        "Address": "Shekhpura",
        "Phone": "9897115657"
      },
      {
        "Name": "Raj Kumar Prajapati",
        "so": "Nil",
        "Address": "Shekhpura",
        "Phone": "9045923995"
      },
      {
        "Name": "Anil Sharma",
        "so": "Nil",
        "Address": "Shekhpura",
        "Phone": "9259360297"
      },
      {
        "Name": "Amit Sharma",
        "so": "Nil",
        "Address": "Shekhpura",
        "Phone": "9897109034"
      }
    ],
    "retiredGovtSer": [
      {
        "Name": "Krishan Pal Yadav",
        "so": "Nil",
        "Address": "Shekhpura",
        "Phone": "7417897950"
      },
      {
        "Name": "Shtver Singh",
        "so": "Nil",
        "Address": "Shekhpura",
        "Phone": "9917801201"
      },
      {
        "Name": "Naresh Kumar",
        "so": "Nil",
        "Address": "Shekhpura",
        "Phone": "9457181760"
      },
      {
        "Name": "Dineshver Singh",
        "so": "Nil",
        "Address": "Shekhpura",
        "Phone": "9411823046"
      }
    ],
    "neighbourPolling": [
      {
        "Name": "Sachin Gupta",
        "so": "Nil",
        "Address": "Shekh Pura",
        "Phone": "9319316725"
      },
      {
        "Name": "Suraj Kumar",
        "so": "Nil",
        "Address": "Shekh Pura",
        "Phone": "7520123631"
      },
      {
        "Name": "Sunny",
        "so": "Nil",
        "Address": "Shekh Pura",
        "Phone": "8791159963"
      },
      {
        "Name": "Radhay Shyam",
        "so": "Nil",
        "Address": "Shekh Pura",
        "Phone": "9837565493"
      },
      {
        "Name": "Puran Chand",
        "so": "Nil",
        "Address": "Shekh Pura",
        "Phone": "9568372581"
      }
    ],
    "armsLicenseHolder": [
      {
        "Name": "Swami Atama Devdhan",
        "so": "Ram Karan",
        "Address": "Shekhpura",
        "Phone": "Nil",
        "Weapon": "Dbbl"
      },
      {
        "Name": "Sanjeev Kumar ",
        "so": "Giri Raj",
        "Address": "Shekhpura",
        "Phone": "Nil",
        "Weapon": "Revolver"
      },
      {
        "Name": "Ajeet Singh",
        "so": "Chatar Singh",
        "Address": "Shekhpura",
        "Phone": "Nil",
        "Weapon": "Pestil"
      },
      {
        "Name": "Taman Rana ",
        "so": "Suresh Chand",
        "Address": "Pushpvihar",
        "Phone": "Nil",
        "Weapon": "Riffel"
      }
    ],
    "chowkidar": [
      {
        "Name": "Nil",
        "so": "Nil",
        "Address": "Nil",
        "Phone": "Nil"
      }
    ],
    "councellor": [
      {
        "Name": "Parmanand Dhiya",
        "so": "Parshad ",
        "Address": "Gola Bud",
        "Phone": "9837032708"
      },
      {
        "Name": "Madhur",
        "so": "Raj kumar",
        "Address": "Gola Bud",
        "Phone": "9412208409"
      }
    ],
    "historySheeter": [
      {
        "Name": "Shanker ",
        "so": "Chander Bali ",
        "Address": "Shekhpura",
        "Status": "Present ",
        "Phone": "Nil"
      },
      {
        "Name": "Davender Aka Pummy",
        "so": "Raj Kumar",
        "Address": "Pushpvihar",
        "Status": "Missing",
        "Phone": "Nil"
      }
    ],
    "convictedCriminals": [
      {
        "Name": "Chand",
        "so": "Bablu",
        "Status": "Nil",
        "Address": "Near Mata Mandir Jawhar Nagar"
      },
      {
        "Name": "Rohit Sharma",
        "so": "Birju",
        "Status": "Nil",
        "Address": "Sainik Vihar Rohata Road"
      }
    ],
    "crimes5Yrs": [
      {
        "Name": "Nil",
        "so": "Nil",
        "crimeno": "Nil",
        "Section": "Nil",
        "Address": "Nil"
      }
    ],
    "electionCrimes": [
      {
        "Name": "Nil ",
        "so": "Nil",
        "crimeno": "Nil",
        "Section": "Nil",
        "Address": "Nil"
      }
    ],
    "politician": [
      {
        "Name": "Vanti ",
        "so": "Nil",
        "Address": "Nil",
        "Phone": "Nil"
      },
      {
        "Name": "Sachin Gupta",
        "so": "Nil",
        "Address": "Nil",
        "Phone": "9319316785"
      },
      {
        "Name": "Ganesh Singhal",
        "so": "Nil",
        "Address": "Nil",
        "Phone": "9897115657"
      },
      {
        "Name": "Rajkumar Prajapati",
        "so": "Nil",
        "Address": "Nil",
        "Phone": "9045923995"
      }
    ],
    "boundDownUnder": "30",
    "vulnerabilityDetails": "General",
    "warrantedCriminals": [
      {
        "Name": "Nil",
        "so": "Nil",
        "Address": "Nil",
        "Phone": "Nil"
      }
    ],
    "condition": "Good"
  },
  {
    "stationID": "TPN-06",
    "stationName": "Kalavati Jounier High School Bhola Road Meerut",
    "latitude": "28.9754",
    "longitude": "77.6581",
    "polingCenterPhoto": "../img/mediPanchayat.png",
    "routes": "../img/3.png",
    "collectionPoint": "../img/3.png",
    "population": "Nil",
    "voters": "4743",
    "villageMohalla": "Keishana Puram , Rishi Nagar, Ramesh Vihar, Ganga Coloney, Ratan nagar, Shiv Kunj ,Chaudhry Coloney",
    "path": "#/menu/tab/medicalDetails",
    "respectedPpl": [
      {
        "Name": "Dr. Arjun Singh",
        "so": "Nil",
        "Address": "Krishana Puram",
        "Phone": "8126773810"
      },
      {
        "Name": "Ram Kumar Bhati",
        "so": "Nil",
        "Address": "Krishana Puram",
        "Phone": "9897498837"
      },
      {
        "Name": "Davender Chaprana",
        "so": "Nil",
        "Address": "Krishana Puram",
        "Phone": "9997412512"
      },
      {
        "Name": "Har Pal Singh Yadav",
        "so": "Nil",
        "Address": "Krishana Puram",
        "Phone": "9319809398"
      },
      {
        "Name": "Pradeep Kumar Dhama",
        "so": "Nil",
        "Address": "Krishana Puram",
        "Phone": "7060111436"
      },
      {
        "Name": "Amardep Sharam",
        "so": "Nil",
        "Address": "Krishana Puram",
        "Phone": "7060650024"
      },
      {
        "Name": "Ajay Kumar Sharam",
        "so": "Nil",
        "Address": "Krishana Puram",
        "Phone": "9927121247"
      }
    ],
    "retiredGovtSer": [
      {
        "Name": "Ashok Kumar Sharma",
        "so": "Nil",
        "Address": "Krishana Puram",
        "Phone": "9719997592"
      },
      {
        "Name": "Ram Kumar Sharam",
        "so": "Nil",
        "Address": "Krishana Puram",
        "Phone": "Nil"
      },
      {
        "Name": "Rajpal Sharam",
        "so": "Nil",
        "Address": "Krishana Puram",
        "Phone": "Nil"
      },
      {
        "Name": "Vedpal Sain",
        "so": "Nil",
        "Address": "Krishana Puram",
        "Phone": "Nil"
      }
    ],
    "neighbourPolling": [
      {
        "Name": "Harpal Singh ",
        "so": "Nil",
        "Address": "Shiv Kunj Coloney",
        "Phone": "9319809398"
      },
      {
        "Name": "Pradeep Dhama",
        "so": "Nil",
        "Address": "Krishana Puram",
        "Phone": "7060111436"
      },
      {
        "Name": "Amardep ",
        "so": "Nil",
        "Address": "Krishana Puram",
        "Phone": "7060650024"
      },
      {
        "Name": "Ram Kumar ",
        "so": "Nil",
        "Address": "Krishana Puram",
        "Phone": "9897498837"
      },
      {
        "Name": "Raj Kumar Aka Raju ",
        "so": "Nil",
        "Address": "Krishana Puram",
        "Phone": "9897463249"
      }
    ],
    "armsLicenseHolder": [
      {
        "Name": "Ashok Kumar Sharma",
        "so": "Devi Chand Sharma",
        "Address": "Ram Vatika ",
        "Phone": "9027627638",
        "Weapon": "DBBL"
      }
    ],
    "chowkidar": [
      {
        "Name": "Nil",
        "so": "Nil",
        "Address": "Nil",
        "Phone": "Nil"
      }
    ],
    "councellor": [
      {
        "Name": "Praven Rahi ",
        "so": "Nil",
        "Address": "Sabsadh",
        "Phone": "Nil"
      },
      {
        "Name": "Manju Rani",
        "so": "Nil",
        "Address": "Sabsadh",
        "Phone": "9997412512"
      }
    ],
    "historySheeter": [
      {
        "Name": "Kripa Ram ",
        "so": "Sukhver Jaat",
        "Address": "Bhavad P.s Kirone, Bagpath",
        "Status": "Present (ganga Coloney Meerut)",
        "Phone": "Nil"
      },
      {
        "Name": "Brajver ",
        "so": "Hareya  Jaat",
        "Address": "Ratan Nagar Bhola Road",
        "Status": "Present (ganga Coloney Meerut)",
        "Phone": "Nil"
      }
    ],
    "convictedCriminals": [
      {
        "Name": "Ashok Kumar ",
        "so": "Mahaver Singh",
        "Status": "Nil",
        "Address": "Ratan Nagar"
      }
    ],
    "crimes5Yrs": [
      {
        "Name": "Nil",
        "so": "Nil",
        "crimeno": "Nil",
        "Section": "Nil",
        "Address": "Nil"
      }
    ],
    "electionCrimes": [
      {
        "Name": "Nil ",
        "so": "Nil",
        "crimeno": "Nil",
        "Section": "Nil",
        "Address": "Nil"
      }
    ],
    "politician": [
      {
        "Name": "Nil ",
        "so": "Nil",
        "Address": "Nil",
        "Phone": "Nil"
      }
    ],
    "boundDownUnder": "Nil",
    "vulnerabilityDetails": "General",
    "warrantedCriminals": [
      {
        "Name": "Nil",
        "so": "Nil",
        "Address": "Nil",
        "Phone": "Nil"
      }
    ],
    "condition": "Good"
  },
  {
    "stationID": "TPN-07",
    "stationName": "Milineum Public School Bagpath Road",
    "latitude": "28.9707",
    "longitude": "77.6603",
    "polingCenterPhoto": "../img/mediPanchayat.png",
    "routes": "../img/3.png",
    "collectionPoint": "../img/3.png",
    "population": "Nil",
    "voters": "5395",
    "villageMohalla": "Nagar 1,2,3,4,  Chaudhry Coloney, Chandra Shaker Coloney, ",
    "path": "#/menu/tab/medicalDetails",
    "respectedPpl": [
      {
        "Name": "Dr. Arjun Singh",
        "so": "Nil",
        "Address": "Krishana Puram",
        "Phone": "8126773810"
      },
      {
        "Name": "Ram Kumar Bhati",
        "so": "Nil",
        "Address": "Krishana Puram",
        "Phone": "9897498837"
      },
      {
        "Name": "Davender Chaprana",
        "so": "Nil",
        "Address": "Krishana Puram",
        "Phone": "9997412512"
      },
      {
        "Name": "Har Pal Singh Yadav",
        "so": "Nil",
        "Address": "Krishana Puram",
        "Phone": "9319809398"
      },
      {
        "Name": "Pradeep Kumar Dhama",
        "so": "Nil",
        "Address": "Krishana Puram",
        "Phone": "7060111436"
      },
      {
        "Name": "Amardep Sharam",
        "so": "Nil",
        "Address": "Krishana Puram",
        "Phone": "7060650024"
      },
      {
        "Name": "Ajay Kumar Sharam",
        "so": "Nil",
        "Address": "Krishana Puram",
        "Phone": "9927121247"
      }
    ],
    "retiredGovtSer": [
      {
        "Name": "Harender Lakha",
        "so": "Nil",
        "Address": "Multan Nagar",
        "Phone": "9457300555"
      },
      {
        "Name": "Radhay Shyam Sharam",
        "so": "Nil",
        "Address": "Multan Nagar",
        "Phone": "Nil"
      },
      {
        "Name": "Shiv Charan Sharma",
        "so": "Nil",
        "Address": "Multan Nagar",
        "Phone": "Nil"
      },
      {
        "Name": "Ved Prakash Sharma",
        "so": "Nil",
        "Address": "Multan Nagar",
        "Phone": "Nil"
      },
      {
        "Name": "Sath Prakash Sharma",
        "so": "Nil",
        "Address": "Multan Nagar",
        "Phone": "Nil"
      }
    ],
    "neighbourPolling": [
      {
        "Name": "Virender Singh",
        "so": "Nil",
        "Address": "Multan Nagar",
        "Phone": "9359008162"
      },
      {
        "Name": "Davender Singh",
        "so": "Nil",
        "Address": "Multan Nagar",
        "Phone": "9997412512"
      },
      {
        "Name": "Pradeep Kumar",
        "so": "Nil",
        "Address": "Multan Nagar",
        "Phone": "7060111436"
      },
      {
        "Name": "Sachin Kumar",
        "so": "Nil",
        "Address": "Multan Nagar",
        "Phone": "9358963512"
      },
      {
        "Name": "Arjun Sharam",
        "so": "Nil",
        "Address": "Multan Nagar",
        "Phone": "8126773810"
      }
    ],
    "armsLicenseHolder": [
      {
        "Name": "Sanjay Bhardwaj",
        "so": "Ramvaran Singh",
        "Address": "Multan Nagar",
        "Phone": "Nil",
        "Weapon": "Dbbl"
      },
      {
        "Name": "Premer Singh",
        "so": "Anup Singh",
        "Address": "Multan Nagar",
        "Phone": "Nil",
        "Weapon": "Dbbl"
      },
      {
        "Name": "Ashok Kumar Goel",
        "so": "Ratan Kumar Goel",
        "Address": "Multan Nagar",
        "Phone": "Nil",
        "Weapon": "Dbbl"
      },
      {
        "Name": "Snhey",
        "so": "Kishor Twari",
        "Address": "Multan Nagar",
        "Phone": "Nil",
        "Weapon": "Dbbl"
      },
      {
        "Name": "Sanjay Bhardwaj",
        "so": "Rajpal Sharma",
        "Address": "Multan Nagar",
        "Phone": "Nil",
        "Weapon": "Riffel"
      },
      {
        "Name": "Dharam Pal",
        "so": "Natthu",
        "Address": "Multan Nagar",
        "Phone": "Nil",
        "Weapon": "Dbbl"
      },
      {
        "Name": "Amrish Kumar",
        "so": "Ramesh Chand Sharam",
        "Address": "Multan Nagar",
        "Phone": "Nil",
        "Weapon": "Dbbl/Riffel"
      },
      {
        "Name": "Krishan Pal",
        "so": "Narayan Singh",
        "Address": "Multan Nagar",
        "Phone": "Nil",
        "Weapon": "Revolver"
      },
      {
        "Name": "Sunil Kumar",
        "so": "Kailash Chand Bansal",
        "Address": "Multan Nagar",
        "Phone": "Nil",
        "Weapon": "Revolver"
      }
    ],
    "chowkidar": [
      {
        "Name": "Nil",
        "so": "Nil",
        "Address": "Nil",
        "Phone": "Nil"
      }
    ],
    "councellor": [
      {
        "Name": "Praven Rahi ",
        "so": "Nil",
        "Address": "Sabsadh",
        "Phone": "Nil"
      },
      {
        "Name": "Manju Rani",
        "so": "Nil",
        "Address": "Sabsadh",
        "Phone": "9997412512"
      }
    ],
    "historySheeter": [
      {
        "Name": "Bharatver",
        "so": "Hariya",
        "Address": "Bhola Road T.p Nagar",
        "Status": "Present",
        "Phone": "Nil"
      },
      {
        "Name": "Brajver",
        "so": "Hariya Jaat",
        "Address": "Bhola Road T.p Nagar",
        "Status": "Present",
        "Phone": "Nil"
      },
      {
        "Name": "Ramchandra Aka Ramay",
        "so": "Khaneya Lal",
        "Address": "Kishanpura",
        "Status": "Missing",
        "Phone": "Nil"
      },
      {
        "Name": "Harvansh Aka Kuppan",
        "so": "Mehander Singh",
        "Address": "Multan Nagar",
        "Status": "Missing",
        "Phone": "Nil"
      },
      {
        "Name": "Raju Aka Rajkumar",
        "so": "Shri Pal Singh",
        "Address": "Multan Nagar",
        "Status": "Missing",
        "Phone": "Nil"
      }
    ],
    "convictedCriminals": [
      {
        "Name": "Ashok Kumar ",
        "so": "Mahaver Singh",
        "Status": "Nil",
        "Address": "Ratan Nagar"
      }
    ],
    "crimes5Yrs": [
      {
        "Name": "Nil",
        "so": "Nil",
        "crimeno": "Nil",
        "Section": "Nil",
        "Address": "Nil"
      }
    ],
    "electionCrimes": [
      {
        "Name": "Rajeev",
        "so": "Murai Lal",
        "crimeno": "280/13",
        "Section": "376 K  Ipc",
        "Address": "Multan Nagar"
      },
      {
        "Name": "Gaurav",
        "so": "Ramveer",
        "crimeno": "317/13",
        "Section": "354 (a) 452/376/511/504/506 Ipc",
        "Address": "Multan Nagar"
      },
      {
        "Name": "Nitin",
        "so": "Budh Prakash",
        "crimeno": "317/13",
        "Section": "354 (a) 452/376/511/504/506 Ipc",
        "Address": "Multan Nagar"
      },
      {
        "Name": "Buntey",
        "so": "Budh Prakash",
        "crimeno": "317/13",
        "Section": "354 (a) 452/376/511/504/506 Ipc",
        "Address": "Multan Nagar"
      }
    ],
    "politician": [
      {
        "Name": "Nil ",
        "so": "Nil",
        "Address": "Nil",
        "Phone": "Nil"
      }
    ],
    "boundDownUnder": "Nil",
    "vulnerabilityDetails": "General",
    "warrantedCriminals": [
      {
        "Name": "Nil",
        "so": "Nil",
        "Address": "Nil",
        "Phone": "Nil"
      }
    ],
    "condition": "Good"
  },
  {
    "stationID": "TPN-08",
    "stationName": "Prathmik Vedhyela Nagar Chatera Multan Nagar",
    "latitude": " 28.9712",
    "longitude": " 77.6643",
    "polingCenterPhoto": "../img/mediPanchayat.png",
    "routes": "../img/3.png",
    "collectionPoint": "../img/3.png",
    "population": "Nil",
    "voters": "2175",
    "villageMohalla": "Multan Nagar 5,6",
    "path": "#/menu/tab/medicalDetails",
    "respectedPpl": [
      {
        "Name": "Verender Kumar Singh",
        "so": "Nil",
        "Address": "Multan Nagar",
        "Phone": "9359008162"
      },
      {
        "Name": "Arjun Sharam",
        "so": "Nil",
        "Address": "Multan Nagar",
        "Phone": "9258168565"
      },
      {
        "Name": "Kulpeep Agarwal",
        "so": "Nil",
        "Address": "Multan Nagar",
        "Phone": "Nil"
      },
      {
        "Name": "Ram Kumar",
        "so": "Nil",
        "Address": "Multan Nagar",
        "Phone": "Nil"
      },
      {
        "Name": "Davender Singh",
        "so": "Nil",
        "Address": "Multan Nagar",
        "Phone": "9997412512"
      }
    ],
    "retiredGovtSer": [
      {
        "Name": "Nil",
        "so": "Nil",
        "Address": "Nil",
        "Phone": "Nil"
      }
    ],
    "neighbourPolling": [
      {
        "Name": "Verender Sharam",
        "so": "Nil",
        "Address": "Multan Nagar",
        "Phone": "9359008162"
      },
      {
        "Name": "Rajju Sharam",
        "so": "Nil",
        "Address": "Multan Nagar",
        "Phone": "9410899000"
      },
      {
        "Name": "Arjun Sharam",
        "so": "Nil",
        "Address": "Multan Nagar",
        "Phone": "9280168565"
      },
      {
        "Name": "Davender Singh",
        "so": "Nil",
        "Address": "Multan Nagar",
        "Phone": "9997412512"
      }
    ],
    "armsLicenseHolder": [
      {
        "Name": "Sanjay Bhardwaj",
        "so": "Ram Pal Sharam",
        "Address": "Multan Nagar",
        "Phone": "Nil",
        "Weapon": "Dbbl"
      },
      {
        "Name": "Snehay Kumar Tiwari",
        "so": "Nandkishor Tiwari",
        "Address": "Multan Nagar",
        "Phone": "Nil",
        "Weapon": "Dbbl"
      },
      {
        "Name": "Amrish Kumar",
        "so": "Ramesh Chand",
        "Address": "Multan Nagar",
        "Phone": "Nil",
        "Weapon": "Riffel"
      },
      {
        "Name": "Ashok Kumar",
        "so": "Devichand",
        "Address": "Ram Vatika",
        "Phone": "Nil",
        "Weapon": "Dbbl"
      },
      {
        "Name": "Abhishekh Bhardwaj",
        "so": "Naresh Sharam",
        "Address": "Multan Nagar",
        "Phone": "Nil",
        "Weapon": "Pistel"
      },
      {
        "Name": "Brujnanden Sharam",
        "so": "Chandan Lal Sharma",
        "Address": "Multan Nagar",
        "Phone": "Nil",
        "Weapon": "Dbbl"
      },
      {
        "Name": "Verender Singh",
        "so": "Ved Prakash",
        "Address": "Multan Nagar",
        "Phone": "Nil",
        "Weapon": "Riffel"
      }
    ],
    "chowkidar": [
      {
        "Name": "Nil",
        "so": "Nil",
        "Address": "Nil",
        "Phone": "Nil"
      }
    ],
    "councellor": [
      {
        "Name": "Praven Rahi ",
        "so": "Nil",
        "Address": "Sabsadh",
        "Phone": "Nil"
      },
      {
        "Name": "Manju Rani",
        "so": "Nil",
        "Address": "Sabsadh",
        "Phone": "9997412512"
      }
    ],
    "historySheeter": [
      {
        "Name": "Harvansh Aka Kuppan",
        "so": "Mahender Singh",
        "Address": "Multan Nagar",
        "Status": "Missing",
        "Phone": "Nil"
      },
      {
        "Name": "Raju Aka Rajkumar",
        "so": "Shri Pal",
        "Address": "Multan Nagar",
        "Status": "Missing",
        "Phone": "Nil"
      }
    ],
    "convictedCriminals": [
      {
        "Name": "Nil",
        "so": "Nil",
        "Status": "Nil",
        "Address": "Nil"
      }
    ],
    "crimes5Yrs": [
      {
        "Name": "Durgesh Sharam",
        "so": "Ram Krishan",
        "crimeno": "370/14",
        "Section": "147/148/149/307/504/507 Ipc",
        "Address": "Multan Nagar"
      },
      {
        "Name": "Sunil",
        "so": "Ram Krishan",
        "crimeno": "370/14",
        "Section": "147/148/149/307/504/507 Ipc",
        "Address": "Multan Nagar"
      },
      {
        "Name": "Sudanshu Aka Sunny",
        "so": "Anil Sharma",
        "crimeno": "370/14",
        "Section": "147/148/149/307/504/507 Ipc",
        "Address": "Multan Nagar"
      }
    ],
    "electionCrimes": [
      {
        "Name": "Nil",
        "so": "Nil",
        "crimeno": "Nil",
        "Section": "Nil",
        "Address": "Nil"
      }
    ],
    "politician": [
      {
        "Name": "Nil ",
        "so": "Nil",
        "Address": "Nil",
        "Phone": "Nil"
      }
    ],
    "boundDownUnder": "Nil",
    "vulnerabilityDetails": "General",
    "warrantedCriminals": [
      {
        "Name": "Nil",
        "so": "Nil",
        "Address": "Nil",
        "Phone": "Nil"
      }
    ],
    "condition": "Good"
  },
  {
    "stationID": "TPN-09",
    "stationName": "Shyedh Mamgal Pandey Inter College New Krishan Pura Bagpath Road",
    "latitude": "28.973",
    "longitude": " 77.6700",
    "polingCenterPhoto": "../img/mediPanchayat.png",
    "routes": "../img/3.png",
    "collectionPoint": "../img/3.png",
    "population": "Nil",
    "voters": "4081",
    "villageMohalla": "Krishan Pura 1,2,3 New Krishan Pura 1,2,3,4,",
    "path": "#/menu/tab/medicalDetails",
    "respectedPpl": [
      {
        "Name": "Daya Ram",
        "so": "Nil",
        "Address": "New Krishan Pura",
        "Phone": "8439058201"
      },
      {
        "Name": "Venod Kumar",
        "so": "Nil",
        "Address": "New Krishan Pura",
        "Phone": "8273883758"
      },
      {
        "Name": "Juget Singh",
        "so": "Nil",
        "Address": "New Krishan Pura",
        "Phone": "9358757236"
      },
      {
        "Name": "Vilmal Kumar",
        "so": "Nil",
        "Address": "New Krishan Pura",
        "Phone": "9639461277"
      },
      {
        "Name": "Rakesh Kumar",
        "so": "Nil",
        "Address": "New Krishan Pura",
        "Phone": "8979887220"
      },
      {
        "Name": "Venod Kumar",
        "so": "Nil",
        "Address": "New Krishan Pura",
        "Phone": "8533997298"
      }
    ],
    "retiredGovtSer": [
      {
        "Name": "Ganga Sharan Sharam",
        "so": "Matadheen Sharam",
        "Address": "New Kishan Pura",
        "Phone": "Nil"
      },
      {
        "Name": "Vermanand Verma",
        "so": "Raghuver Singh Verma",
        "Address": "Kishanpura",
        "Phone": "9927212151"
      }
    ],
    "neighbourPolling": [
      {
        "Name": "Vimal ",
        "so": "Amar Singh",
        "Address": "New Kishanpura",
        "Phone": "9639461277"
      },
      {
        "Name": "Rakesh Kumar",
        "so": "Phool Singh",
        "Address": "New Kishanpura",
        "Phone": "8979886220"
      },
      {
        "Name": "Vijay ",
        "so": "Hari Singh",
        "Address": "New Kishanpura",
        "Phone": "7078438333"
      },
      {
        "Name": "Jatin ",
        "so": "Dharam Pla",
        "Address": "New Kishanpura",
        "Phone": "8272897618"
      },
      {
        "Name": "Venod ",
        "so": "Mangay Ram",
        "Address": "New Kishanpura",
        "Phone": "7533993228"
      }
    ],
    "armsLicenseHolder": [
      {
        "Name": "Preveen Kumar",
        "so": "Niranjan Singh",
        "Address": "Kishan Pura",
        "Phone": "Nil",
        "Weapon": "Dbbl"
      },
      {
        "Name": "Sandeep Kumar",
        "so": "Sath Pal Singh",
        "Address": "Kishan Pura",
        "Phone": "Nil",
        "Weapon": "Dbbl"
      },
      {
        "Name": "Prannath Sharam",
        "so": "Jay Sri Ram Sharam",
        "Address": "Kishan Pura",
        "Phone": "Nil",
        "Weapon": "Sbbl"
      },
      {
        "Name": "Shubash Malik",
        "so": "Illum Singh",
        "Address": "Kishan Pura",
        "Phone": "Nil",
        "Weapon": "Riffel"
      },
      {
        "Name": "Ramdas Yadav",
        "so": "Nihal Singh",
        "Address": "New Kishan Pura",
        "Phone": "Nil",
        "Weapon": "Riffel"
      },
      {
        "Name": "Sudheer Kumar",
        "so": "Mahender Singh Tyagi",
        "Address": "Kishan Pura",
        "Phone": "Nil",
        "Weapon": "Revolver"
      }
    ],
    "chowkidar": [
      {
        "Name": "Nil",
        "so": "Nil",
        "Address": "Nil",
        "Phone": "Nil"
      }
    ],
    "councellor": [
      {
        "Name": "Venodh Kumar",
        "so": "Nil",
        "Address": "New Kishan Pura",
        "Phone": "8273883758"
      },
      {
        "Name": "Mukesh Kumar Singhal ",
        "so": "Nil",
        "Address": "New Kishan Pura",
        "Phone": "983705227"
      }
    ],
    "historySheeter": [
      {
        "Name": "Ram Chandra Aka Ramay",
        "so": "Kahaneya Lal",
        "Address": "Kishan Purra",
        "Status": "Missing",
        "Phone": "Nil"
      },
      {
        "Name": "Amit Goel Aka Neetu",
        "so": "Shiv Kuma R",
        "Address": "Kishan Pura",
        "Status": "Missing",
        "Phone": "Nil"
      },
      {
        "Name": "Anil",
        "so": "Shyam Lal",
        "Address": "Kishan Pura",
        "Status": "Missing",
        "Phone": "Nil"
      },
      {
        "Name": "Ramdas",
        "so": "Hukum Singh",
        "Address": "Kishan Pura",
        "Status": "Missing",
        "Phone": "Nil"
      }
    ],
    "convictedCriminals": [
      {
        "Name": "Nil",
        "so": "Nil",
        "Status": "Nil",
        "Address": "Nil"
      }
    ],
    "crimes5Yrs": [
      {
        "Name": "Rahul",
        "so": "Jay Prakesh",
        "crimeno": "43/13",
        "Section": "394 Ipc",
        "Address": "Kishan Puar"
      }
    ],
    "electionCrimes": [
      {
        "Name": "Nil",
        "so": "Nil",
        "crimeno": "Nil",
        "Section": "Nil",
        "Address": "Nil"
      }
    ],
    "politician": [
      {
        "Name": "Nil ",
        "so": "Nil",
        "Address": "Nil",
        "Phone": "Nil"
      }
    ],
    "boundDownUnder": "Nil",
    "vulnerabilityDetails": "General",
    "warrantedCriminals": [
      {
        "Name": "Nil",
        "so": "Nil",
        "Address": "Nil",
        "Phone": "Nil"
      }
    ],
    "condition": "Good"
  },
  {
    "stationID": "TPN-10",
    "stationName": "Prathmik Vedhyal Chanmdra Lock Sabun Gaudam",
    "latitude": "28.9701",
    "longitude": "77.6636",
    "polingCenterPhoto": "../img/mediPanchayat.png",
    "routes": "../img/3.png",
    "collectionPoint": "../img/3.png",
    "population": "Nil",
    "voters": "3455",
    "villageMohalla": "Sabun Gaudam 1,2, Chandra Lock 1,2,3",
    "path": "#/menu/tab/medicalDetails",
    "respectedPpl": [
      {
        "Name": "Veer Singh Bansal",
        "so": "Harswarup Bansal",
        "Address": "Chandra Lock",
        "Phone": "9359170241"
      },
      {
        "Name": "Ramesh Uppedhya",
        "so": "Ramfal",
        "Address": "Chandra Lock",
        "Phone": "9219884979"
      },
      {
        "Name": "Umesh Gupta",
        "so": "Prem Chand",
        "Address": "Chandra Lock",
        "Phone": "7417818234"
      },
      {
        "Name": "Dr. Pradeep",
        "so": "Bhrum Dutt",
        "Address": "Chandra Lock",
        "Phone": "9411023615"
      },
      {
        "Name": "Dr. Bijender Tyagi",
        "so": "Ramchandra",
        "Address": "Chandra Lock",
        "Phone": "9837034627"
      }
    ],
    "retiredGovtSer": [
      {
        "Name": "Nil",
        "so": "Nil",
        "Address": "Nil",
        "Phone": "Nil"
      }
    ],
    "neighbourPolling": [
      {
        "Name": "Gagender",
        "so": "Aum Prakesh Bhatya",
        "Address": "Chandra Lock",
        "Phone": "9368054157"
      },
      {
        "Name": "Dev Bhatya",
        "so": "Jitender Bhatya",
        "Address": "Chandra Lock",
        "Phone": "7317555100"
      },
      {
        "Name": "Niten",
        "so": "Anil Gupta",
        "Address": "Chandra Lock",
        "Phone": "8534864578"
      },
      {
        "Name": "Mangay Chaudhry",
        "so": "Gagey Singh",
        "Address": "Chandra Lock",
        "Phone": "9568335549"
      },
      {
        "Name": "Raj Kumar",
        "so": "Preetam Lal",
        "Address": "Chandra Lock",
        "Phone": "9897202145"
      }
    ],
    "armsLicenseHolder": [
      {
        "Name": "Vihal Narang",
        "so": "Baldev Kishan",
        "Address": "Chandra Lock",
        "Phone": "Nil",
        "Weapon": "Pistel"
      },
      {
        "Name": "Pradeep Kumar Choudhry",
        "so": "Jay Prakash",
        "Address": "Sabun Gaudam",
        "Phone": "Nil",
        "Weapon": "Dbbl"
      },
      {
        "Name": "Sunder Singh",
        "so": "Tikaram",
        "Address": "Chandra Lock",
        "Phone": "Nil",
        "Weapon": "Dbbl"
      },
      {
        "Name": "Anil Kumar Choudhry",
        "so": "Jay Prakash",
        "Address": "Sabun Gaudam",
        "Phone": "Nil",
        "Weapon": "Revolver"
      }
    ],
    "chowkidar": [
      {
        "Name": "Nil",
        "so": "Nil",
        "Address": "Nil",
        "Phone": "Nil"
      }
    ],
    "councellor": [
      {
        "Name": "Venodh Kumar",
        "so": "Nil",
        "Address": "New Kishan Pura",
        "Phone": "8273883758"
      },
      {
        "Name": "Mukesh Kumar Singhal ",
        "so": "Nil",
        "Address": "New Kishan Pura",
        "Phone": "983705227"
      }
    ],
    "historySheeter": [
      {
        "Name": "Ajay Kumar",
        "so": "Ram Pal",
        "Address": "Sabun Gaudam Chandra Lock",
        "Status": "Missing",
        "Phone": "Nil"
      },
      {
        "Name": "Khercha Aka Rajvati",
        "so": "Ram Kishan",
        "Address": "Chandra Lock",
        "Status": "Present",
        "Phone": "Nil"
      },
      {
        "Name": "Aasha",
        "so": "Vijendar",
        "Address": "Chandra Lock",
        "Status": "Present",
        "Phone": "Nil"
      },
      {
        "Name": "Sumeer",
        "so": "Hardat",
        "Address": "Chandra Lock",
        "Status": "Present",
        "Phone": "Nil"
      }
    ],
    "convictedCriminals": [
      {
        "Name": "Nil",
        "so": "Nil",
        "Status": "Nil",
        "Address": "Nil"
      }
    ],
    "crimes5Yrs": [
      {
        "Name": "Rahul",
        "so": "Jay Prakesh",
        "crimeno": "43/13",
        "Section": "394 Ipc",
        "Address": "Kishan Puar"
      }
    ],
    "electionCrimes": [
      {
        "Name": "Nil",
        "so": "Nil",
        "crimeno": "Nil",
        "Section": "Nil",
        "Address": "Nil"
      }
    ],
    "politician": [
      {
        "Name": "Mukesh Singhal",
        "so": "Nil",
        "Address": "Nil",
        "Phone": "9837050227"
      },
      {
        "Name": "Venod Uppedhya",
        "so": "Nil",
        "Address": "Nil",
        "Phone": "8273883758"
      },
      {
        "Name": "Ramesh Uppadehya",
        "so": "Nil",
        "Address": "Nil",
        "Phone": "9219884979"
      },
      {
        "Name": "Dr.pradeep",
        "so": "Nil",
        "Address": "Nil",
        "Phone": "9411023615"
      },
      {
        "Name": "Dr.prem Kumar",
        "so": "Nil",
        "Address": "Nil",
        "Phone": "9837100412"
      }
    ],
    "boundDownUnder": "Nil",
    "vulnerabilityDetails": "General",
    "warrantedCriminals": [
      {
        "Name": "Nil",
        "so": "Nil",
        "Address": "Nil",
        "Phone": "Nil"
      }
    ],
    "condition": "Good"
  },
  {
    "stationID": "TPN-11",
    "stationName": "Santh Vivekananed Inter College Chandra Lock Sabun Gaudam",
    "latitude": "28.9664",
    "longitude": "77.6737",
    "polingCenterPhoto": "../img/mediPanchayat.png",
    "routes": "../img/3.png",
    "collectionPoint": "../img/3.png",
    "population": "Nil",
    "voters": "5160",
    "villageMohalla": "Chandra Lock, Indrapuram ,Uttam Nagar 1,2, Nandan Nagar, Dev Kunj, Gulmoher Park , Jawara Nagar, Naval Vihal Coloney",
    "path": "#/menu/tab/medicalDetails",
    "respectedPpl": [
      {
        "Name": "Sanjeev Giri ",
        "so": "Balver Giri",
        "Address": "Chandra Lock",
        "Phone": "7351695868"
      },
      {
        "Name": "Salek Chand",
        "so": "Babu Lal",
        "Address": "Chandra Lock",
        "Phone": "9259265119"
      },
      {
        "Name": "Amit ",
        "so": "Dhakkan Lal",
        "Address": "Chandra Lock",
        "Phone": "9837119992"
      },
      {
        "Name": "Sonu Sagar",
        "so": "Harkes Singh",
        "Address": "Chandra Lock",
        "Phone": "8755176818"
      },
      {
        "Name": "Sunil ",
        "so": "Raj Pal",
        "Address": "Chandra Lock",
        "Phone": "9634993699"
      }
    ],
    "retiredGovtSer": [
      {
        "Name": "Bharamanend ",
        "so": "Raghuver Singh",
        "Address": "Uttam Nagar",
        "Phone": "9927212151"
      }
    ],
    "neighbourPolling": [
      {
        "Name": "Balver Giri",
        "so": "Mahaver",
        "Address": "Chandra Lock",
        "Phone": "8273348491"
      },
      {
        "Name": "Amit Mittal",
        "so": "Ram Kishor Mittal",
        "Address": "Chandra Lock",
        "Phone": "9012574409"
      },
      {
        "Name": "Shripal",
        "so": "Shanker Lal",
        "Address": "Chandra Lock",
        "Phone": "9897717009"
      },
      {
        "Name": "Pinku",
        "so": "Kishan Singh",
        "Address": "Chandra Lock",
        "Phone": "9759259589"
      },
      {
        "Name": "Maamraj",
        "so": "Kudey Ram",
        "Address": "Chandra Lock",
        "Phone": "9917290771"
      }
    ],
    "armsLicenseHolder": [
      {
        "Name": "Anil Kumar",
        "so": "Jay Prakash",
        "Address": "Sabun Gaudam",
        "Phone": "Nil",
        "Weapon": "REVOLVER"
      },
      {
        "Name": "Pradeep Kumar",
        "so": "Jay Prakash",
        "Address": "Sabun Gaudam",
        "Phone": "Nil",
        "Weapon": "DBBL"
      },
      {
        "Name": "Neeraj",
        "so": "Ram Prasad",
        "Address": "Uttam Nagar",
        "Phone": "Nil",
        "Weapon": "DBBL"
      },
      {
        "Name": "Sanjev Kumar",
        "so": "Ram Prasad",
        "Address": "Uttam Nagar",
        "Phone": "Nil",
        "Weapon": "RIFFEL"
      },
      {
        "Name": "Naveen Kumar Sharam",
        "so": "Ramesh Chand",
        "Address": "Uttam Nagar",
        "Phone": "Nil",
        "Weapon": "REVOLVER"
      },
      {
        "Name": "Harpal Sharam",
        "so": "Gyan Singh",
        "Address": "Jawala Nagar",
        "Phone": "Nil",
        "Weapon": "DBBL"
      },
      {
        "Name": "Dr. Satveer Singh",
        "so": "Preetam Singh",
        "Address": "Jawala Nagar",
        "Phone": "Nil",
        "Weapon": "DBBL"
      },
      {
        "Name": "Surender Kumar",
        "so": "Mahender Singh",
        "Address": "Jawala Nagar",
        "Phone": "Nil",
        "Weapon": "RIFFEL"
      },
      {
        "Name": "Sanjay Goel",
        "so": "Vikas Goel",
        "Address": "Jawala Nagar",
        "Phone": "Nil",
        "Weapon": "DBBL"
      },
      {
        "Name": "Dr. Shushiul Kumar",
        "so": "Shashi Kant",
        "Address": "Jawala Nagar",
        "Phone": "Nil",
        "Weapon": "SBBL"
      },
      {
        "Name": "Asha Ram",
        "so": "Kacheru",
        "Address": "Indra Puram",
        "Phone": "Nil",
        "Weapon": "DBBL"
      }
    ],
    "chowkidar": [
      {
        "Name": "Nil",
        "so": "Nil",
        "Address": "Nil",
        "Phone": "Nil"
      }
    ],
    "councellor": [
      {
        "Name": "Venodh Kumar",
        "so": "Nil",
        "Address": "New Kishan Pura",
        "Phone": "8273883758"
      },
      {
        "Name": "Mukesh Kumar Singhal ",
        "so": "Nil",
        "Address": "New Kishan Pura",
        "Phone": "983705227"
      }
    ],
    "historySheeter": [
      {
        "Name": "Ajay Kumar",
        "so": "Ram Pal",
        "Address": "Sabun Gaudam Chandra Lock",
        "Status": "Missing",
        "Phone": "Nil"
      },
      {
        "Name": "Khercha Aka Rajvati",
        "so": "Ram Kishan",
        "Address": "Chandra Lock",
        "Status": "Present",
        "Phone": "Nil"
      },
      {
        "Name": "Aasha",
        "so": "Vijendar",
        "Address": "Chandra Lock",
        "Status": "Present",
        "Phone": "Nil"
      },
      {
        "Name": "Sumeer",
        "so": "Hardat",
        "Address": "Chandra Lock",
        "Status": "Present",
        "Phone": "Nil"
      }
    ],
    "convictedCriminals": [
      {
        "Name": "Sunil Kumar",
        "so": "Kishan Pal Singh",
        "Status": "Nil",
        "Address": "Jawala Nagar"
      }
    ],
    "crimes5Yrs": [
      {
        "Name": "Nil",
        "so": "Nil",
        "crimeno": "Nil",
        "Section": "Nil",
        "Address": "Nil"
      }
    ],
    "electionCrimes": [
      {
        "Name": "Nil",
        "so": "Nil",
        "crimeno": "Nil",
        "Section": "Nil",
        "Address": "Nil"
      }
    ],
    "politician": [
      {
        "Name": "Mukesh Singhal",
        "so": "Nil",
        "Address": "Nil",
        "Phone": "9837050227"
      },
      {
        "Name": "Venod Uppedhya",
        "so": "Nil",
        "Address": "Nil",
        "Phone": "8273883758"
      },
      {
        "Name": "Ramesh Uppadehya",
        "so": "Nil",
        "Address": "Nil",
        "Phone": "9219884979"
      },
      {
        "Name": "Dr.pradeep",
        "so": "Nil",
        "Address": "Nil",
        "Phone": "9411023615"
      },
      {
        "Name": "Dr.prem Kumar",
        "so": "Nil",
        "Address": "Nil",
        "Phone": "9837100412"
      }
    ],
    "boundDownUnder": "Nil",
    "vulnerabilityDetails": "General",
    "warrantedCriminals": [
      {
        "Name": "Nil",
        "so": "Nil",
        "Address": "Nil",
        "Phone": "Nil"
      }
    ],
    "condition": "Good"
  },
  {
    "stationID": "TPN-12",
    "stationName": "Gautam Higher Secondery School Uttam Nagar",
    "latitude": "28.9668",
    "longitude": "77.6765",
    "polingCenterPhoto": "../img/mediPanchayat.png",
    "routes": "../img/3.png",
    "collectionPoint": "../img/3.png",
    "population": "Nil",
    "voters": "1179",
    "villageMohalla": "Basant Kunj, Raghukul Vihar, Santh Vihar,Banvari Vatika",
    "path": "#/menu/tab/medicalDetails",
    "respectedPpl": [
      {
        "Name": "Shri Pal",
        "so": "Shanker Lal",
        "Address": "Uttam Nagar",
        "Phone": "9897717009"
      },
      {
        "Name": "Mahesh",
        "so": "Babu Lal",
        "Address": "Uttam Nagar",
        "Phone": "9927277029"
      },
      {
        "Name": "Mohit Kumar",
        "so": "Rakesh Kumar",
        "Address": "Uttam Nagar",
        "Phone": "8474991891"
      },
      {
        "Name": "Hariom",
        "so": "Dharam Pal",
        "Address": "Uttam Nagar",
        "Phone": "9837664103"
      },
      {
        "Name": "Ramesh",
        "so": "Dharam Pal",
        "Address": "Uttam Nagar",
        "Phone": "8449746788"
      }
    ],
    "retiredGovtSer": [
      {
        "Name": "Bharamanend ",
        "so": "Raghuver Singh",
        "Address": "Uttam Nagar",
        "Phone": "9927212151"
      }
    ],
    "neighbourPolling": [
      {
        "Name": "Sanjeev Kumar",
        "so": "Asha Ram",
        "Address": "Uttamnagar",
        "Phone": "9761024560"
      },
      {
        "Name": "Subash Chand",
        "so": "Nanak Chand",
        "Address": "Uttamnagar",
        "Phone": "8171310469"
      },
      {
        "Name": "Arun Jindal",
        "so": "Satender Kumar",
        "Address": "Uttamnagar",
        "Phone": "9654651580"
      },
      {
        "Name": "Rajeev",
        "so": "Suraj Bahan",
        "Address": "Uttamnagar",
        "Phone": "9720117321"
      },
      {
        "Name": "Ashok Kumar",
        "so": "Santh Ram Gautam",
        "Address": "Uttamnagar",
        "Phone": "9897760910"
      }
    ],
    "armsLicenseHolder": [
      {
        "Name": "Deheraj Kumar",
        "so": "Ramprasad",
        "Address": "Uttam Nagar",
        "Phone": "Nil",
        "Weapon": "DBBL"
      },
      {
        "Name": "Sanjeev Kumar",
        "so": "Ram Prasad",
        "Address": "Uttam Nagar",
        "Phone": "Nil",
        "Weapon": "RIFFEL"
      },
      {
        "Name": "Manish Kapoor",
        "so": "Bishumber Lal",
        "Address": "Basant Kunj",
        "Phone": "Nil",
        "Weapon": "RIFFEL"
      },
      {
        "Name": "Lalit Kumar",
        "so": "K.r Singh",
        "Address": "Basant Kunj",
        "Phone": "Nil",
        "Weapon": "REVOLVER"
      },
      {
        "Name": "Rahul Gupta",
        "so": "Subash Chand",
        "Address": "Banvari Vatika",
        "Phone": "Nil",
        "Weapon": "REVOLVER"
      },
      {
        "Name": "Puneet",
        "so": "Dinesh Kumar",
        "Address": "Raghukul Vihar",
        "Phone": "Nil",
        "Weapon": "REVOLVER/RIFFEL"
      },
      {
        "Name": "Sanjay Kumar Jindal",
        "so": "Shri Pal",
        "Address": "Raghukul Vihar",
        "Phone": "Nil",
        "Weapon": "RIFFEL"
      },
      {
        "Name": "Ajay Kumar",
        "so": "Shri Chand",
        "Address": "Raghukul Vihar",
        "Phone": "Nil",
        "Weapon": "PESTIL"
      },
      {
        "Name": "Rajnish Kumar Gupta",
        "so": "Aum Prakesh",
        "Address": "Raghukul Vihar",
        "Phone": "Nil",
        "Weapon": "REVOLVER"
      }
    ],
    "chowkidar": [
      {
        "Name": "Nil",
        "so": "Nil",
        "Address": "Nil",
        "Phone": "Nil"
      }
    ],
    "councellor": [
      {
        "Name": "Ashok Pradhan",
        "so": "Nil",
        "Address": "Nil",
        "Phone": "9358406564"
      },
      {
        "Name": "Pradeep kumar Gupta Aka Pinki",
        "so": "Nil",
        "Address": "Nil",
        "Phone": "Nil"
      }
    ],
    "historySheeter": [
      {
        "Name": "Bulay",
        "so": "Budh Prakash",
        "Address": "Transport Nagar",
        "Status": "Present",
        "Phone": "Nil"
      },
      {
        "Name": "Raja Ram",
        "so": "Lakhi Ram Yadav",
        "Address": "Yadav Goods Carear",
        "Status": "Present",
        "Phone": "Nil"
      }
    ],
    "convictedCriminals": [
      {
        "Name": "Sunil Kumar",
        "so": "Kishan Pal Singh",
        "Status": "Nil",
        "Address": "Jawala Nagar"
      }
    ],
    "crimes5Yrs": [
      {
        "Name": "Nil",
        "so": "Nil",
        "crimeno": "Nil",
        "Section": "Nil",
        "Address": "Nil"
      }
    ],
    "electionCrimes": [
      {
        "Name": "Nil",
        "so": "Nil",
        "crimeno": "Nil",
        "Section": "Nil",
        "Address": "Nil"
      }
    ],
    "politician": [
      {
        "Name": "Netera Pal Singh",
        "so": "Nil",
        "Address": "Nil",
        "Phone": "9058842247"
      },
      {
        "Name": "Satender Kumar",
        "so": "Nil",
        "Address": "Nil",
        "Phone": "9927266178"
      },
      {
        "Name": "Rajesver Tyagi",
        "so": "Nil",
        "Address": "Nil",
        "Phone": "9012950022"
      }
    ],
    "boundDownUnder": "Nil",
    "vulnerabilityDetails": "General",
    "warrantedCriminals": [
      {
        "Name": "Nil",
        "so": "Nil",
        "Address": "Nil",
        "Phone": "Nil"
      }
    ],
    "condition": "Good"
  },
  {
    "stationID": "TPN-13",
    "stationName": "Littel Wards Play School Raghukul Vihar Near Basant Kunj",
    "latitude": "28.9683",
    "longitude": "77.6781",
    "polingCenterPhoto": "../img/mediPanchayat.png",
    "routes": "../img/3.png",
    "collectionPoint": "../img/3.png",
    "population": "Nil",
    "voters": "463",
    "villageMohalla": "Nandan Nagar",
    "path": "#/menu/tab/medicalDetails",
    "respectedPpl": [
      {
        "Name": "Pawan Mittal ",
        "so": "Devkaran Mittal",
        "Address": "Santh Vihar",
        "Phone": "9412203612"
      },
      {
        "Name": "Subash Chand Gupta",
        "so": "Vedya Sharan Gupta",
        "Address": "Santh Vihar",
        "Phone": "9412201716"
      },
      {
        "Name": "Permod Garg",
        "so": "Rajender Prasad Garg",
        "Address": "Santh Vihar",
        "Phone": "9412200385"
      },
      {
        "Name": "Rahul Mittal",
        "so": "Rajender Prasad Garg",
        "Address": "Basant Kunj",
        "Phone": "9837044802"
      },
      {
        "Name": "B.l Kapoor",
        "so": "Chaman Lal Kapoor",
        "Address": "Basant Kunj",
        "Phone": "9412201780"
      }
    ],
    "retiredGovtSer": [
      {
        "Name": "Nil ",
        "so": "Nil",
        "Address": "Nil",
        "Phone": "Nil"
      }
    ],
    "neighbourPolling": [
      {
        "Name": "Rekha ",
        "so": "Pradeep Kumar",
        "Address": "Raghukul Vihar",
        "Phone": "8533977377"
      },
      {
        "Name": "Bansi Lal",
        "so": "Jeevan Das",
        "Address": "Raghukul Vihar",
        "Phone": "9319318384"
      },
      {
        "Name": "Sanyam Arora",
        "so": "Jugal Kishor Arora",
        "Address": "Raghukul Vihar",
        "Phone": "9639345678"
      },
      {
        "Name": "Dharmender Arora",
        "so": "Dharam Pal Arora",
        "Address": "Raghukul Vihar",
        "Phone": "9997123277"
      },
      {
        "Name": "Vijay ",
        "so": "Ratan Lal",
        "Address": "Raghukul Vihar",
        "Phone": "9756614526"
      }
    ],
    "armsLicenseHolder": [
      {
        "Name": "Manish Kapoor",
        "so": "Bishamber Lal",
        "Address": "Basantkunj ",
        "Phone": "Nil",
        "Weapon": "RIFFEL"
      },
      {
        "Name": "Mukesh Kumar Jain ",
        "so": "Hukum Singh",
        "Address": "Basantkunj ",
        "Phone": "Nil",
        "Weapon": "RIFFEL"
      },
      {
        "Name": "Mahesh Pal Tyagi",
        "so": "Sher Singh",
        "Address": "Nandan Nagar",
        "Phone": "Nil",
        "Weapon": "REVOLVER"
      },
      {
        "Name": "Mukesh Kumar Sharma",
        "so": "Deyanand Sharma",
        "Address": "Nandan Nagar",
        "Phone": "Nil",
        "Weapon": "RIFFEL"
      },
      {
        "Name": "Amit Yadav ",
        "so": "Achal Singh",
        "Address": "Nandan Nagar",
        "Phone": "Nil",
        "Weapon": "REVOLVER"
      },
      {
        "Name": "Pankaj Tyagi ",
        "so": "Mehader Singh",
        "Address": "Nandan Nagar",
        "Phone": "Nil",
        "Weapon": "REVOLVER"
      }
    ],
    "chowkidar": [
      {
        "Name": "Nil",
        "so": "Nil",
        "Address": "Nil",
        "Phone": "Nil"
      }
    ],
    "councellor": [
      {
        "Name": "Ashok Pradhan",
        "so": "Nil",
        "Address": "Nil",
        "Phone": "9358406564"
      },
      {
        "Name": "Pradeep kumar Gupta Aka Pinki",
        "so": "Nil",
        "Address": "Nil",
        "Phone": "Nil"
      }
    ],
    "historySheeter": [
      {
        "Name": "Nil",
        "so": "Nil",
        "Address": "Nil",
        "Status": "Nil",
        "Phone": "Nil"
      }
    ],
    "convictedCriminals": [
      {
        "Name": "Nil",
        "so": "Nil",
        "Status": "Nil",
        "Address": "Nil"
      }
    ],
    "crimes5Yrs": [
      {
        "Name": "Nil",
        "so": "Nil",
        "crimeno": "Nil",
        "Section": "Nil",
        "Address": "Nil"
      }
    ],
    "electionCrimes": [
      {
        "Name": "Nil",
        "so": "Nil",
        "crimeno": "Nil",
        "Section": "Nil",
        "Address": "Nil"
      }
    ],
    "politician": [
      {
        "Name": "Nil",
        "so": "Nil",
        "Address": "Nil",
        "Phone": "Nil"
      }
    ],
    "boundDownUnder": "Nil",
    "vulnerabilityDetails": "General",
    "warrantedCriminals": [
      {
        "Name": "Nil",
        "so": "Nil",
        "Address": "Nil",
        "Phone": "Nil"
      }
    ],
    "condition": "Good"
  },
  {
    "stationID": "TPN-14",
    "stationName": "Pathmik Vedhyal Sundra Aka Putha",
    "latitude": "28.9440",
    "longitude": "77.6559",
    "polingCenterPhoto": "../img/mediPanchayat.png",
    "routes": "../img/3.png",
    "collectionPoint": "../img/3.png",
    "population": "Nil",
    "voters": "3103",
    "villageMohalla": "AundSa Aka Putha 1,2,3, Vedvias Puri, Shushant City",
    "path": "#/menu/tab/medicalDetails",
    "respectedPpl": [
      {
        "Name": "Kenehya Lal",
        "so": "Nathu Singh",
        "Address": "Sundhara",
        "Phone": "Nil"
      },
      {
        "Name": "Mukesh Kumar",
        "so": "Budh Singh",
        "Address": "Sundhara",
        "Phone": "9759320014"
      },
      {
        "Name": "Anil Kumar",
        "so": "Bhoop Singh",
        "Address": "Sundhara",
        "Phone": "9358886131"
      },
      {
        "Name": "Yash Pal Singh",
        "so": "Tilakram",
        "Address": "Sundhara",
        "Phone": "9927548211"
      },
      {
        "Name": "Yogesh Kumar",
        "so": "Mehakar Singh",
        "Address": "Sundhara",
        "Phone": "9759292553"
      }
    ],
    "retiredGovtSer": [
      {
        "Name": "Nil ",
        "so": "Nil",
        "Address": "Nil",
        "Phone": "Nil"
      }
    ],
    "neighbourPolling": [
      {
        "Name": "Jagpal Singh",
        "so": "Ramchander Singh",
        "Address": "Sundhar Aka Putha",
        "Phone": "Nil"
      },
      {
        "Name": "Nijam ",
        "so": "Ramjane",
        "Address": "Sundhar Aka Putha",
        "Phone": "Nil"
      },
      {
        "Name": "Sahu ",
        "so": "Sherdeen ",
        "Address": "Sundhar Aka Putha",
        "Phone": "Nil"
      },
      {
        "Name": "Guddu",
        "so": "Kacheru",
        "Address": "Sundhar Aka Putha",
        "Phone": "Nil"
      },
      {
        "Name": "Mehabder Singh",
        "so": "Hari Singh",
        "Address": "Sundhar Aka Putha",
        "Phone": "Nil"
      }
    ],
    "armsLicenseHolder": [
      {
        "Name": "Jaget Singh",
        "so": "Swaraj Singh",
        "Address": "Putha",
        "Phone": "Nil",
        "Weapon": "DBBL"
      },
      {
        "Name": "Jagedish Kumar",
        "so": "Dharam Singh",
        "Address": "Putha",
        "Phone": "Nil",
        "Weapon": "REVOLVER"
      },
      {
        "Name": "Sanjay ",
        "so": "Raghuveer ",
        "Address": "Putha",
        "Phone": "Nil",
        "Weapon": "RIFFEL"
      },
      {
        "Name": "Shushil Kumar",
        "so": "Kawal Ram",
        "Address": "Putha",
        "Phone": "Nil",
        "Weapon": "REVOLVER"
      },
      {
        "Name": "Raki ",
        "so": "Surjeet",
        "Address": "Putha",
        "Phone": "Nil",
        "Weapon": "REVOLVER"
      },
      {
        "Name": "Deepak Kumar",
        "so": "Rakesh Kumar",
        "Address": "Putha",
        "Phone": "Nil",
        "Weapon": "REVOLVER"
      },
      {
        "Name": "Vikas ",
        "so": "Phool Singh",
        "Address": "Putha",
        "Phone": "Nil",
        "Weapon": "DBBL"
      },
      {
        "Name": "Nitin Kumar ",
        "so": "Devkaran",
        "Address": "Putha",
        "Phone": "Nil",
        "Weapon": "PISTEL"
      },
      {
        "Name": "Maniaum",
        "so": "Ram Pal",
        "Address": "Putha",
        "Phone": "Nil",
        "Weapon": "SBBL"
      }
    ],
    "chowkidar": [
      {
        "Name": "Nil",
        "so": "Nil",
        "Address": "Nil",
        "Phone": "Nil"
      }
    ],
    "councellor": [
      {
        "Name": "Gagender Singh",
        "so": "Nil",
        "Address": "Kundea",
        "Phone": "9336635546"
      },
      {
        "Name": "Malti Devi",
        "so": "Nil",
        "Address": "Kundea",
        "Phone": "9319840210"
      }
    ],
    "historySheeter": [
      {
        "Name": "Nil",
        "so": "Nil",
        "Address": "Nil",
        "Status": "Nil",
        "Phone": "Nil"
      }
    ],
    "convictedCriminals": [
      {
        "Name": "Nil",
        "so": "Nil",
        "Status": "Nil",
        "Address": "Nil"
      }
    ],
    "crimes5Yrs": [
      {
        "Name": "Niraj Kali Jatav",
        "so": "Nil",
        "crimeno": "187/16",
        "Section": "302 Ipc V 3(2)5 Sc/st Act",
        "Address": "Nil"
      },
      {
        "Name": "Ankit Gujjar ",
        "so": "Prashadi",
        "crimeno": "187/16",
        "Section": "302 Ipc V 3(2)5 Sc/st Act",
        "Address": "Putha"
      },
      {
        "Name": "Ankit Gujjar ",
        "so": "Prashadi",
        "crimeno": "585/14",
        "Section": "307ipc/354 A Ipc",
        "Address": "Putha"
      },
      {
        "Name": "Sagar ",
        "so": "Dharam Pal",
        "crimeno": "585/14",
        "Section": "307ipc/354 A Ipc",
        "Address": "Putha"
      },
      {
        "Name": "Ajeet ",
        "so": "Jagmal",
        "crimeno": "208/14",
        "Section": "364/376/392/342/504/506 Ipc",
        "Address": "Putha"
      },
      {
        "Name": "Bablu ",
        "so": "Jagmal",
        "crimeno": "208/14",
        "Section": "364/376/392/342/504/506 Ipc",
        "Address": "Putha"
      },
      {
        "Name": "Dinker Aka Bhura",
        "so": "Jaggu",
        "crimeno": "208/14",
        "Section": "364/376/392/342/504/506 Ipc",
        "Address": "Putha"
      }
    ],
    "electionCrimes": [
      {
        "Name": "Nil",
        "so": "Nil",
        "crimeno": "Nil",
        "Section": "Nil",
        "Address": "Nil"
      }
    ],
    "politician": [
      {
        "Name": "Nil",
        "so": "Nil",
        "Address": "Nil",
        "Phone": "Nil"
      }
    ],
    "boundDownUnder": "Nil",
    "vulnerabilityDetails": "General",
    "warrantedCriminals": [
      {
        "Name": "Nil",
        "so": "Nil",
        "Address": "Nil",
        "Phone": "Nil"
      }
    ],
    "condition": "Good"
  },
  {
    "stationID": "TPN-15",
    "stationName": "Prathmik Vedhyal Maleyana",
    "latitude": "28.9629",
    "longitude": "77.6601",
    "polingCenterPhoto": "../img/mediPanchayat.png",
    "routes": "../img/3.png",
    "collectionPoint": "../img/3.png",
    "population": "Nil",
    "voters": "4719",
    "villageMohalla": "Maleyana 1,2,3,4",
    "path": "#/menu/tab/medicalDetails",
    "respectedPpl": [
      {
        "Name": "Aum Prakash ",
        "so": "Nil",
        "Address": "Maleyana",
        "Phone": "8273321777"
      },
      {
        "Name": "Amar Singh",
        "so": "Nil",
        "Address": "Maleyana",
        "Phone": "9219766283"
      },
      {
        "Name": "Sunil ",
        "so": "Nil",
        "Address": "Maleyana",
        "Phone": "8533965735"
      },
      {
        "Name": "Chaman Singh",
        "so": "Nil",
        "Address": "Maleyana",
        "Phone": "9760529377"
      },
      {
        "Name": "Nickey",
        "so": "Deya Ram",
        "Address": "Maleyana",
        "Phone": "8958916106"
      }
    ],
    "retiredGovtSer": [
      {
        "Name": "Nil ",
        "so": "Nil",
        "Address": "Nil",
        "Phone": "Nil"
      }
    ],
    "neighbourPolling": [
      {
        "Name": "Raj Pal Singh",
        "so": "Kamal Singh",
        "Address": "Maleyana",
        "Phone": "8273191234"
      },
      {
        "Name": "Shiv Kumar ",
        "so": "Bhagvan Saha",
        "Address": "Maleyana",
        "Phone": "8057033276"
      },
      {
        "Name": "Krishan Pal",
        "so": "Tikaram",
        "Address": "Maleyana",
        "Phone": "8126900669"
      },
      {
        "Name": "Birum",
        "so": "Maam Chnad",
        "Address": "Maleyana",
        "Phone": "Nil"
      },
      {
        "Name": "Verender Kumar",
        "so": "Nil",
        "Address": "Maleyana",
        "Phone": "9319099827"
      }
    ],
    "armsLicenseHolder": [
      {
        "Name": "Anil Chanddha",
        "so": "Krishan Lal Chaddha",
        "Address": "Maleyana",
        "Phone": "Nil",
        "Weapon": "PESTIL"
      },
      {
        "Name": "Umesh Kumar",
        "so": "Munshi Lal",
        "Address": "Maleyana",
        "Phone": "Nil",
        "Weapon": "DBBL"
      },
      {
        "Name": "Hari Singh",
        "so": "Dalu",
        "Address": "Maleyana",
        "Phone": "Nil",
        "Weapon": "PESTIL"
      },
      {
        "Name": "Mangu Ram Bharti ",
        "so": "Chotan Lal",
        "Address": "Maleyana",
        "Phone": "Nil",
        "Weapon": "DBBL/RIFFEL/PESTIL"
      },
      {
        "Name": "Amit Choudhry ",
        "so": "Dharam Pal",
        "Address": "Maleyana",
        "Phone": "Nil",
        "Weapon": "PESTIL"
      },
      {
        "Name": "Ashok Kumar ",
        "so": "Chaman Lal",
        "Address": "Maleyana",
        "Phone": "Nil",
        "Weapon": "DBBL/REVOLVER"
      },
      {
        "Name": "Bassir ",
        "so": "Mehaboob Kha",
        "Address": "Maleyana",
        "Phone": "Nil",
        "Weapon": "DBBL"
      }
    ],
    "chowkidar": [
      {
        "Name": "Nil",
        "so": "Nil",
        "Address": "Nil",
        "Phone": "Nil"
      }
    ],
    "councellor": [
      {
        "Name": "Naresh Kumar",
        "so": "Nil",
        "Address": "Maleyana",
        "Phone": "9634939097"
      },
      {
        "Name": "Ravender Singh Verma",
        "so": "Nil",
        "Address": "Maleyana",
        "Phone": "989775139"
      }
    ],
    "historySheeter": [
      {
        "Name": "Sarvan Aka Papu",
        "so": "Hardath Aka Hatti",
        "Address": "Maleyana",
        "Status": "Jail",
        "Phone": "Nil"
      },
      {
        "Name": "Chotey ",
        "so": "Ajmal Aka Majeed",
        "Address": "Maleyana",
        "Status": "Jail",
        "Phone": "Nil"
      },
      {
        "Name": "Surender ",
        "so": "Kanti Pradad Gaddereya",
        "Address": "Maleyana",
        "Status": "Jail",
        "Phone": "Nil"
      },
      {
        "Name": "Surender ",
        "so": "Amichand",
        "Address": "Maleyana",
        "Status": "Missing",
        "Phone": "Nil"
      },
      {
        "Name": "Monu Sharma Aka Vikas",
        "so": "Narender",
        "Address": "Maleyana",
        "Status": "Missing",
        "Phone": "Nil"
      },
      {
        "Name": "Pawan ",
        "so": "Murari Lal",
        "Address": "Maleyana",
        "Status": "Present",
        "Phone": "Nil"
      },
      {
        "Name": "Baby Aka Sala",
        "so": "Mohan Lal",
        "Address": "Maleyana",
        "Status": "Missing",
        "Phone": "Nil"
      }
    ],
    "convictedCriminals": [
      {
        "Name": "Pawan Pal",
        "so": " Jay Pal",
        "Status": "Nil",
        "Address": "Maleyana"
      },
      {
        "Name": "Arun Kumar",
        "so": " Bablu",
        "Status": "Nil",
        "Address": "Maleyana"
      },
      {
        "Name": "Amit Kumar",
        "so": " Mukesh Kumar",
        "Status": "Nil",
        "Address": "Maleyana"
      }
    ],
    "crimes5Yrs": [
      {
        "Name": "Nil",
        "so": "Nil",
        "crimeno": "Nil",
        "Section": "Nil",
        "Address": "Nil"
      }
    ],
    "electionCrimes": [
      {
        "Name": "Nil",
        "so": "Nil",
        "crimeno": "Nil",
        "Section": "Nil",
        "Address": "Nil"
      }
    ],
    "politician": [
      {
        "Name": "Nil",
        "so": "Nil",
        "Address": "Nil",
        "Phone": "Nil"
      }
    ],
    "boundDownUnder": "Nil",
    "vulnerabilityDetails": "General",
    "warrantedCriminals": [
      {
        "Name": "Nil",
        "so": "Nil",
        "Address": "Nil",
        "Phone": "Nil"
      }
    ],
    "condition": "Good"
  },
  {
    "stationID": "TPN-16",
    "stationName": "Prathmik Vedhyela No.2 Holi Cholk Mleyana",
    "latitude": "28.9658",
    "longitude": "77.6654",
    "polingCenterPhoto": "../img/mediPanchayat.png",
    "routes": "../img/3.png",
    "collectionPoint": "../img/3.png",
    "population": "Nil",
    "voters": "1512",
    "villageMohalla": "Maleyana 5,6,",
    "path": "#/menu/tab/medicalDetails",
    "respectedPpl": [
      {
        "Name": "Tarachand",
        "so": "Nil",
        "Address": "Maleyana",
        "Phone": "9720230023"
      },
      {
        "Name": "Guddu Choudhary",
        "so": "Nil",
        "Address": "Maleyana",
        "Phone": "9837206192"
      },
      {
        "Name": "Umesh Kumar Sharma",
        "so": "Nil",
        "Address": "Maleyana",
        "Phone": "9427286970"
      },
      {
        "Name": "Anil Sharma",
        "so": "Nil",
        "Address": "Maleyana",
        "Phone": "9027942448"
      },
      {
        "Name": "Pradeep Garg",
        "so": "Nil",
        "Address": "Maleyana",
        "Phone": "Nil"
      },
      {
        "Name": "Ashu Sharma",
        "so": "Nil",
        "Address": "Maleyana",
        "Phone": "9837272386"
      }
    ],
    "retiredGovtSer": [
      {
        "Name": "Nil ",
        "so": "Nil",
        "Address": "Nil",
        "Phone": "Nil"
      }
    ],
    "neighbourPolling": [
      {
        "Name": "Lakhmi Chand",
        "so": "Nil",
        "Address": "Maleyana",
        "Phone": "9457230444"
      },
      {
        "Name": "Aum Lal",
        "so": "Nil",
        "Address": "Maleyana",
        "Phone": "9760434352"
      },
      {
        "Name": "Anand Prakesh",
        "so": "Nil",
        "Address": "Maleyana",
        "Phone": "7417681579"
      },
      {
        "Name": "Ram Sevak",
        "so": "Nil",
        "Address": "Maleyana",
        "Phone": "9358436604"
      },
      {
        "Name": "Aum Kar Singh",
        "so": "Nil",
        "Address": "Maleyana",
        "Phone": "9897704626"
      }
    ],
    "armsLicenseHolder": [
      {
        "Name": "Kendra Prakash",
        "so": "Musshadi Lal",
        "Address": "Maleyana",
        "Phone": "Nil",
        "Weapon": "RIFFEL"
      },
      {
        "Name": "Raj Kumar",
        "so": "Salekh Chand",
        "Address": "Maleyana",
        "Phone": "Nil",
        "Weapon": "REVOLVER"
      },
      {
        "Name": "Pawan Garg ",
        "so": "Aum Prakash Gar",
        "Address": "Maleyana",
        "Phone": "Nil",
        "Weapon": "REVOLVER"
      },
      {
        "Name": "Raman Kumar",
        "so": "Aum Prakash Gar",
        "Address": "Maleyana",
        "Phone": "Nil",
        "Weapon": "REVOLVER"
      },
      {
        "Name": "Nerender Kumar Garg",
        "so": "Surender Garg",
        "Address": "Maleyana",
        "Phone": "Nil",
        "Weapon": "RIFFEL"
      },
      {
        "Name": "Sandeep Kumar",
        "so": "Chaman Lal Garg",
        "Address": "Maleyana",
        "Phone": "Nil",
        "Weapon": "DBBL"
      },
      {
        "Name": "Raj Kumar Gupta",
        "so": "Deya Chand Gupta",
        "Address": "Maleyana",
        "Phone": "Nil",
        "Weapon": "SOLD "
      },
      {
        "Name": "Charan Singh",
        "so": "Hari Singh",
        "Address": "Maleyana",
        "Phone": "Nil",
        "Weapon": "DBBL"
      }
    ],
    "chowkidar": [
      {
        "Name": "Nil",
        "so": "Nil",
        "Address": "Nil",
        "Phone": "Nil"
      }
    ],
    "councellor": [
      {
        "Name": "Naresh Kumar",
        "so": "Nil",
        "Address": "Maleyana",
        "Phone": "9634939097"
      },
      {
        "Name": "Ravender Singh Verma",
        "so": "Nil",
        "Address": "Maleyana",
        "Phone": "989775139"
      }
    ],
    "historySheeter": [
      {
        "Name": "Sarvan Aka Papu",
        "so": "Hardath Aka Hatti",
        "Address": "Maleyana",
        "Status": "Jail",
        "Phone": "Nil"
      },
      {
        "Name": "Chotey ",
        "so": "Ajmal Aka Majeed",
        "Address": "Maleyana",
        "Status": "Jail",
        "Phone": "Nil"
      },
      {
        "Name": "Surender ",
        "so": "Kanti Pradad Gaddereya",
        "Address": "Maleyana",
        "Status": "Jail",
        "Phone": "Nil"
      },
      {
        "Name": "Surender ",
        "so": "Amichand",
        "Address": "Maleyana",
        "Status": "Missing",
        "Phone": "Nil"
      },
      {
        "Name": "Monu Sharma Aka Vikas",
        "so": "Narender",
        "Address": "Maleyana",
        "Status": "Missing",
        "Phone": "Nil"
      },
      {
        "Name": "Pawan ",
        "so": "Murari Lal",
        "Address": "Maleyana",
        "Status": "Present",
        "Phone": "Nil"
      },
      {
        "Name": "Baby Aka Sala",
        "so": "Mohan Lal",
        "Address": "Maleyana",
        "Status": "Missing",
        "Phone": "Nil"
      },
      {
        "Name": "Monu Sharam Aka Vikas",
        "so": "Narender Singh",
        "Address": "Maleyana",
        "Status": "Missing",
        "Phone": "Nil"
      },
      {
        "Name": "Venod ",
        "so": "Mangta",
        "Address": "Maleyana",
        "Status": "Present",
        "Phone": "Nil"
      }
    ],
    "convictedCriminals": [
      {
        "Name": "Pawan Pal",
        "so": " Jay Pal",
        "Status": "Nil",
        "Address": "Maleyana"
      },
      {
        "Name": "Arun Kumar",
        "so": " Bablu",
        "Status": "Nil",
        "Address": "Maleyana"
      },
      {
        "Name": "Amit Kumar",
        "so": " Mukesh Kumar",
        "Status": "Nil",
        "Address": "Maleyana"
      },
      {
        "Name": "Anup ",
        "so": "Babal",
        "Status": "Nil",
        "Address": "Maleyana"
      }
    ],
    "crimes5Yrs": [
      {
        "Name": "Nil",
        "so": "Nil",
        "crimeno": "Nil",
        "Section": "Nil",
        "Address": "Nil"
      }
    ],
    "electionCrimes": [
      {
        "Name": "Nil",
        "so": "Nil",
        "crimeno": "Nil",
        "Section": "Nil",
        "Address": "Nil"
      }
    ],
    "politician": [
      {
        "Name": "Nil",
        "so": "Nil",
        "Address": "Nil",
        "Phone": "Nil"
      }
    ],
    "boundDownUnder": "Nil",
    "vulnerabilityDetails": "General",
    "warrantedCriminals": [
      {
        "Name": "Nil",
        "so": "Nil",
        "Address": "Nil",
        "Phone": "Nil"
      }
    ],
    "condition": "Good"
  },
  {
    "stationID": "TPN-17",
    "stationName": "Dr. Ambedker Bhavan Prathmik Vedhyal Maleyana",
    "latitude": "28.9636",
    "longitude": "77.6613",
    "polingCenterPhoto": "../img/mediPanchayat.png",
    "routes": "../img/3.png",
    "collectionPoint": "../img/3.png",
    "population": "Nil",
    "voters": "928",
    "villageMohalla": "Maleyana 7,",
    "path": "#/menu/tab/medicalDetails",
    "respectedPpl": [
      {
        "Name": "Daley Ram ",
        "so": "Sher Singh",
        "Address": "Maleyan",
        "Phone": "7060404037"
      },
      {
        "Name": "Surender Singh",
        "so": "Teck Chand",
        "Address": "Maleyan",
        "Phone": "7417715133"
      },
      {
        "Name": "Shyam Singh",
        "so": "Ghoda Singh",
        "Address": "Maleyan",
        "Phone": "9997533746"
      },
      {
        "Name": "Ghyan Shyam ",
        "so": "Sevak Ram",
        "Address": "Maleyan",
        "Phone": "9451763039"
      },
      {
        "Name": "Summer Singh",
        "so": "Bheekam Singh",
        "Address": "Maleyan",
        "Phone": "8937092734"
      }
    ],
    "retiredGovtSer": [
      {
        "Name": "Nil ",
        "so": "Nil",
        "Address": "Nil",
        "Phone": "Nil"
      }
    ],
    "neighbourPolling": [
      {
        "Name": "Daley Ram ",
        "so": "Sher Singh",
        "Address": "Maleyan",
        "Phone": "7060404037"
      },
      {
        "Name": "Surender Singh",
        "so": "Teck Chand",
        "Address": "Maleyan",
        "Phone": "7417715133"
      },
      {
        "Name": "Shyam Singh",
        "so": "Ghoda Singh",
        "Address": "Maleyan",
        "Phone": "9997533746"
      },
      {
        "Name": "Ghyan Shyam ",
        "so": "Sevak Ram",
        "Address": "Maleyan",
        "Phone": "9451763039"
      },
      {
        "Name": "Summer Singh",
        "so": "Bheekam Singh",
        "Address": "Maleyan",
        "Phone": "8937092734"
      }
    ],
    "armsLicenseHolder": [
      {
        "Name": "Bhupender Sharm",
        "so": "Dhatu Ram Sharma",
        "Address": "Maleyan",
        "Phone": "Nil",
        "Weapon": "REVOLVER"
      },
      {
        "Name": "Nikender Garg",
        "so": "Mussadi Lal",
        "Address": "Maleyan",
        "Phone": "Nil",
        "Weapon": "PESTIL"
      },
      {
        "Name": "Salender",
        "so": "Natthan",
        "Address": "Maleyan",
        "Phone": "Nil",
        "Weapon": "REVOLVER"
      },
      {
        "Name": "Ram Kumar Sharma",
        "so": "Salekh Chand",
        "Address": "Maleyan",
        "Phone": "Nil",
        "Weapon": "DBBL"
      },
      {
        "Name": "Sath Pal Singh",
        "so": "Jasu Ram",
        "Address": "Maleyan",
        "Phone": "Nil",
        "Weapon": "DBBL"
      },
      {
        "Name": "Deepak",
        "so": "Ramesh",
        "Address": "Maleyan",
        "Phone": "Nil",
        "Weapon": "REVOLVER"
      },
      {
        "Name": "Roop Chand Sharma",
        "so": "Battu Ram Sharma",
        "Address": "Maleyan",
        "Phone": "Nil",
        "Weapon": "RIFFEL"
      },
      {
        "Name": "Umesh Chand",
        "so": "Munshi Lal",
        "Address": "Maleyan",
        "Phone": "Nil",
        "Weapon": "DBBL"
      },
      {
        "Name": "Hari Singh",
        "so": "Lalu",
        "Address": "Maleyan",
        "Phone": "Nil",
        "Weapon": "PESTIL"
      }
    ],
    "chowkidar": [
      {
        "Name": "Nil",
        "so": "Nil",
        "Address": "Nil",
        "Phone": "Nil"
      }
    ],
    "councellor": [
      {
        "Name": "Naresh Kumar",
        "so": "Nil",
        "Address": "Maleyana",
        "Phone": "9634939097"
      },
      {
        "Name": "Ravender Singh Verma",
        "so": "Nil",
        "Address": "Maleyana",
        "Phone": "989775139"
      }
    ],
    "historySheeter": [
      {
        "Name": "Sarvan Aka Papu",
        "so": "Hardath Aka Hatti",
        "Address": "Maleyana",
        "Status": "Jail",
        "Phone": "Nil"
      },
      {
        "Name": "Chotey ",
        "so": "Ajmal Aka Majeed",
        "Address": "Maleyana",
        "Status": "Jail",
        "Phone": "Nil"
      },
      {
        "Name": "Surender ",
        "so": "Kanti Pradad Gaddereya",
        "Address": "Maleyana",
        "Status": "Jail",
        "Phone": "Nil"
      },
      {
        "Name": "Surender ",
        "so": "Amichand",
        "Address": "Maleyana",
        "Status": "Missing",
        "Phone": "Nil"
      },
      {
        "Name": "Monu Sharma Aka Vikas",
        "so": "Narender",
        "Address": "Maleyana",
        "Status": "Missing",
        "Phone": "Nil"
      },
      {
        "Name": "Pawan ",
        "so": "Murari Lal",
        "Address": "Maleyana",
        "Status": "Present",
        "Phone": "Nil"
      },
      {
        "Name": "Baby Aka Sala",
        "so": "Mohan Lal",
        "Address": "Maleyana",
        "Status": "Missing",
        "Phone": "Nil"
      },
      {
        "Name": "Monu Sharam Aka Vikas",
        "so": "Narender Singh",
        "Address": "Maleyana",
        "Status": "Missing",
        "Phone": "Nil"
      },
      {
        "Name": "Venod ",
        "so": "Mangta",
        "Address": "Maleyana",
        "Status": "Present",
        "Phone": "Nil"
      },
      {
        "Name": "Raju Aka Raj Kumar",
        "so": "Shri Pal",
        "Address": "Maleyana",
        "Status": "Present",
        "Phone": "Nil"
      }
    ],
    "convictedCriminals": [
      {
        "Name": "Nil",
        "so": "Nil",
        "Status": "Nil",
        "Address": "Nil"
      }
    ],
    "crimes5Yrs": [
      {
        "Name": "Nil",
        "so": "Nil",
        "crimeno": "Nil",
        "Section": "Nil",
        "Address": "Nil"
      }
    ],
    "electionCrimes": [
      {
        "Name": "Nil",
        "so": "Nil",
        "crimeno": "Nil",
        "Section": "Nil",
        "Address": "Nil"
      }
    ],
    "politician": [
      {
        "Name": "Nil",
        "so": "Nil",
        "Address": "Nil",
        "Phone": "Nil"
      }
    ],
    "boundDownUnder": "Nil",
    "vulnerabilityDetails": "General",
    "warrantedCriminals": [
      {
        "Name": "Nil",
        "so": "Nil",
        "Address": "Nil",
        "Phone": "Nil"
      }
    ],
    "condition": "Good"
  },
  {
    "stationID": "TPN-18",
    "stationName": "Dr. Ambedker Dharamshala Mohella Shakti Nagar Maleyana",
    "latitude": "28.9649",
    "longitude": " 77.663",
    "polingCenterPhoto": "../img/mediPanchayat.png",
    "routes": "../img/3.png",
    "collectionPoint": "../img/3.png",
    "population": "Nil",
    "voters": "1085",
    "villageMohalla": "Maleyana 8,",
    "path": "#/menu/tab/medicalDetails",
    "respectedPpl": [
      {
        "Name": "Praveen ",
        "so": "Hari Chand",
        "Address": "Maleyana",
        "Phone": "9719120900"
      },
      {
        "Name": "Sathveer Singh",
        "so": "Nil",
        "Address": "Maleyana",
        "Phone": "9058681864"
      },
      {
        "Name": "Mehakar ",
        "so": "Mul Chand",
        "Address": "Maleyana",
        "Phone": "9756983121"
      },
      {
        "Name": "Naveen Saini",
        "so": "Nil",
        "Address": "Maleyana",
        "Phone": "9557681436"
      },
      {
        "Name": "Rahul ",
        "so": "Sathveer",
        "Address": "Maleyana",
        "Phone": "9997535688"
      }
    ],
    "retiredGovtSer": [
      {
        "Name": "Nil ",
        "so": "Nil",
        "Address": "Nil",
        "Phone": "Nil"
      }
    ],
    "neighbourPolling": [
      {
        "Name": "Daley Ram ",
        "so": "Sher Singh",
        "Address": "Maleyan",
        "Phone": "7060404037"
      },
      {
        "Name": "Surender Singh",
        "so": "Teck Chand",
        "Address": "Maleyan",
        "Phone": "7417715133"
      },
      {
        "Name": "Shyam Singh",
        "so": "Ghoda Singh",
        "Address": "Maleyan",
        "Phone": "9997533746"
      },
      {
        "Name": "Ghyan Shyam ",
        "so": "Sevak Ram",
        "Address": "Maleyan",
        "Phone": "9451763039"
      },
      {
        "Name": "Summer Singh",
        "so": "Bheekam Singh",
        "Address": "Maleyan",
        "Phone": "8937092734"
      }
    ],
    "armsLicenseHolder": [
      {
        "Name": "Kavita ",
        "so": "Sandeep Kumar",
        "Address": "Maleyana",
        "Phone": "Nil",
        "Weapon": "REVOLVER"
      },
      {
        "Name": "Jitender Bharti",
        "so": "Ram Charan",
        "Address": "Maleyana",
        "Phone": "Nil",
        "Weapon": "REVOLVER"
      },
      {
        "Name": "Permod Kumar Sharam",
        "so": "Ramesh Chand",
        "Address": "Maleyana",
        "Phone": "Nil",
        "Weapon": "PESTIL"
      },
      {
        "Name": "Surender Kumar Sharam",
        "so": "Vipin Bihari",
        "Address": "Maleyana",
        "Phone": "Nil",
        "Weapon": "PESTIL"
      },
      {
        "Name": "Sudha Rani ",
        "so": "Ashok",
        "Address": "Maleyana",
        "Phone": "Nil",
        "Weapon": "PISTEL"
      },
      {
        "Name": "Nausad Ali",
        "so": "Mukhteyar",
        "Address": "Maleyana",
        "Phone": "Nil",
        "Weapon": "REVOLVER"
      },
      {
        "Name": "Shri Pal Jain",
        "so": "Jainty Prasad Jian",
        "Address": "Maleyana",
        "Phone": "Nil",
        "Weapon": "PISTEL"
      }
    ],
    "chowkidar": [
      {
        "Name": "Nil",
        "so": "Nil",
        "Address": "Nil",
        "Phone": "Nil"
      }
    ],
    "councellor": [
      {
        "Name": "Praven Rahi",
        "so": "Nil",
        "Address": "Maleyana",
        "Phone": "9719120900"
      }
    ],
    "historySheeter": [
      {
        "Name": "Sarvan Aka Papu",
        "so": "Hardath Aka Hatti",
        "Address": "Maleyana",
        "Status": "Jail",
        "Phone": "Nil"
      },
      {
        "Name": "Chotey ",
        "so": "Ajmal Aka Majeed",
        "Address": "Maleyana",
        "Status": "Jail",
        "Phone": "Nil"
      },
      {
        "Name": "Surender ",
        "so": "Kanti Pradad Gaddereya",
        "Address": "Maleyana",
        "Status": "Jail",
        "Phone": "Nil"
      },
      {
        "Name": "Surender ",
        "so": "Amichand",
        "Address": "Maleyana",
        "Status": "Missing",
        "Phone": "Nil"
      },
      {
        "Name": "Monu Sharma Aka Vikas",
        "so": "Narender",
        "Address": "Maleyana",
        "Status": "Missing",
        "Phone": "Nil"
      },
      {
        "Name": "Pawan ",
        "so": "Murari Lal",
        "Address": "Maleyana",
        "Status": "Present",
        "Phone": "Nil"
      },
      {
        "Name": "Baby Aka Sala",
        "so": "Mohan Lal",
        "Address": "Maleyana",
        "Status": "Missing",
        "Phone": "Nil"
      },
      {
        "Name": "Monu Sharam Aka Vikas",
        "so": "Narender Singh",
        "Address": "Maleyana",
        "Status": "Missing",
        "Phone": "Nil"
      },
      {
        "Name": "Venod ",
        "so": "Mangta",
        "Address": "Maleyana",
        "Status": "Present",
        "Phone": "Nil"
      },
      {
        "Name": "Raju Aka Raj Kumar",
        "so": "Shri Pal",
        "Address": "Maleyana",
        "Status": "Present",
        "Phone": "Nil"
      }
    ],
    "convictedCriminals": [
      {
        "Name": "Nil",
        "so": "Nil",
        "Status": "Nil",
        "Address": "Nil"
      }
    ],
    "crimes5Yrs": [
      {
        "Name": "Sonu",
        "so": "Pawan Kumar",
        "crimeno": "675/13",
        "Section": "307/504 Ipc",
        "Address": "Maleyana"
      }
    ],
    "electionCrimes": [
      {
        "Name": "Nil",
        "so": "Nil",
        "crimeno": "Nil",
        "Section": "Nil",
        "Address": "Nil"
      }
    ],
    "politician": [
      {
        "Name": "Nil",
        "so": "Nil",
        "Address": "Nil",
        "Phone": "Nil"
      }
    ],
    "boundDownUnder": "Nil",
    "vulnerabilityDetails": "General",
    "warrantedCriminals": [
      {
        "Name": "Nil",
        "so": "Nil",
        "Address": "Nil",
        "Phone": "Nil"
      }
    ],
    "condition": "Good"
  },
  {
    "stationID": "TPN-19",
    "stationName": "Shastri Public School Maleyana",
    "latitude": "28.9677",
    "longitude": "77.6665",
    "polingCenterPhoto": "../img/mediPanchayat.png",
    "routes": "../img/3.png",
    "collectionPoint": "../img/3.png",
    "population": "Nil",
    "voters": "1886",
    "villageMohalla": "Maleyana 9,10",
    "path": "#/menu/tab/medicalDetails",
    "respectedPpl": [
      {
        "Name": "Paveen ",
        "so": "Hari Chand",
        "Address": "Maleyana",
        "Phone": "9712120900"
      },
      {
        "Name": "Sathver ",
        "so": "Hari Chand",
        "Address": "Maleyana",
        "Phone": "9058681864"
      },
      {
        "Name": "Rahul ",
        "so": "Sathveer",
        "Address": "Maleyana",
        "Phone": "9997535688"
      },
      {
        "Name": "Maheveer ",
        "so": "Mul Chand",
        "Address": "Maleyana",
        "Phone": "9756983121"
      },
      {
        "Name": "Naveen ",
        "so": "Janak Saini",
        "Address": "Maleyana",
        "Phone": "9557681434"
      }
    ],
    "retiredGovtSer": [
      {
        "Name": "Nil ",
        "so": "Nil",
        "Address": "Nil",
        "Phone": "Nil"
      }
    ],
    "neighbourPolling": [
      {
        "Name": "Paveen ",
        "so": "Hari Chand",
        "Address": "Maleyana",
        "Phone": "9712120900"
      },
      {
        "Name": "Sathver ",
        "so": "Hari Chand",
        "Address": "Maleyana",
        "Phone": "9058681864"
      },
      {
        "Name": "Rahul ",
        "so": "Sathveer",
        "Address": "Maleyana",
        "Phone": "9997535688"
      },
      {
        "Name": "Maheveer ",
        "so": "Mul Chand",
        "Address": "Maleyana",
        "Phone": "9756983121"
      },
      {
        "Name": "Naveen ",
        "so": "Janak Saini",
        "Address": "Maleyana",
        "Phone": "9557681434"
      }
    ],
    "armsLicenseHolder": [
      {
        "Name": "Anil Chandha",
        "so": "Krishan Lal Chandha",
        "Address": "Maleyan",
        "Phone": "Nil",
        "Weapon": "PISTEL"
      },
      {
        "Name": "Bijender Garg",
        "so": "Mussadi Lal",
        "Address": "Maleyan",
        "Phone": "Nil",
        "Weapon": "PISTEL"
      },
      {
        "Name": "Surender Kumar",
        "so": "Vipin Bihari",
        "Address": "Maleyan",
        "Phone": "Nil",
        "Weapon": "PISTEL"
      }
    ],
    "chowkidar": [
      {
        "Name": "Nil",
        "so": "Nil",
        "Address": "Nil",
        "Phone": "Nil"
      }
    ],
    "councellor": [
      {
        "Name": "Praven Rahi",
        "so": "Nil",
        "Address": "Maleyana",
        "Phone": "9719120900"
      },
      {
        "Name": "Ravender kumar Verma",
        "so": "Nil",
        "Address": "Maleyana",
        "Phone": "9897751394"
      }
    ],
    "historySheeter": [
      {
        "Name": "Sarvan Aka Papu",
        "so": "Hardat Aka Hatti",
        "Address": "Maleyana",
        "Status": "Jail",
        "Phone": "Nil"
      },
      {
        "Name": "Chotey ",
        "so": "Amjad Aka Majjed ",
        "Address": "Maleyana",
        "Status": "Jail",
        "Phone": "Nil"
      }
    ],
    "convictedCriminals": [
      {
        "Name": "Nil",
        "so": "Nil",
        "Status": "Nil",
        "Address": "Nil"
      }
    ],
    "crimes5Yrs": [
      {
        "Name": "Sonu",
        "so": "Pawan Kumar",
        "crimeno": "675/13",
        "Section": "307/504 Ipc",
        "Address": "Maleyana"
      }
    ],
    "electionCrimes": [
      {
        "Name": "Nil",
        "so": "Nil",
        "crimeno": "Nil",
        "Section": "Nil",
        "Address": "Nil"
      }
    ],
    "politician": [
      {
        "Name": "Nil",
        "so": "Nil",
        "Address": "Nil",
        "Phone": "Nil"
      }
    ],
    "boundDownUnder": "Nil",
    "vulnerabilityDetails": "General",
    "warrantedCriminals": [
      {
        "Name": "Nil",
        "so": "Nil",
        "Address": "Nil",
        "Phone": "Nil"
      }
    ],
    "condition": "Good"
  },
  {
    "stationID": "TPN-20",
    "stationName": "Jasvant Mills Higher Secondery School Maleyan",
    "latitude": "28.9682",
    "longitude": "77.6681",
    "polingCenterPhoto": "../img/mediPanchayat.png",
    "routes": "../img/3.png",
    "collectionPoint": "../img/3.png",
    "population": "Nil",
    "voters": "2245",
    "villageMohalla": "Maleyana 11,12, Jasvan Sugar Mill Maleyana",
    "path": "#/menu/tab/medicalDetails",
    "respectedPpl": [
      {
        "Name": "Guddu Choudhary",
        "so": "Nil",
        "Address": "Maleyana",
        "Phone": "9720230023"
      },
      {
        "Name": "Umesh Kumar Sharam",
        "so": "Nil",
        "Address": "Maleyana",
        "Phone": "9837206192"
      },
      {
        "Name": "Anil Sharam",
        "so": "Nil",
        "Address": "Maleyana",
        "Phone": "9927286970"
      },
      {
        "Name": "Parvender Singh",
        "so": "Nil",
        "Address": "Maleyana",
        "Phone": "9897704626"
      },
      {
        "Name": "Ashu Sharam",
        "so": "Nil",
        "Address": "Maleyana",
        "Phone": "9837272386"
      }
    ],
    "retiredGovtSer": [
      {
        "Name": "Nil ",
        "so": "Nil",
        "Address": "Nil",
        "Phone": "Nil"
      }
    ],
    "neighbourPolling": [
      {
        "Name": "Chandra Prakash Sharma",
        "so": "Roop Chnad Sharam",
        "Address": "Maleyana",
        "Phone": "9897189702"
      },
      {
        "Name": "Manoj Gupta",
        "so": "Ram Krishan Gupta",
        "Address": "Maleyana",
        "Phone": "7085315572"
      },
      {
        "Name": "Sateyaban",
        "so": "Mehnder Singh",
        "Address": "Maleyana",
        "Phone": "9358891788"
      },
      {
        "Name": "Anil Yadav",
        "so": "Jaan Yadav",
        "Address": "Maleyana",
        "Phone": "8386847689"
      },
      {
        "Name": "Pawan Yadav",
        "so": "Jaan Yadav",
        "Address": "Maleyana",
        "Phone": "9837962570"
      }
    ],
    "armsLicenseHolder": [
      {
        "Name": "Jagveer Singh",
        "so": "Sumeer Singh",
        "Address": "Mill Caloney",
        "Phone": "Nil",
        "Weapon": "RIFFEL"
      },
      {
        "Name": "Sachin ",
        "so": "Nil",
        "Address": "Sarkari Ganna Vikas Semati",
        "Phone": "Nil",
        "Weapon": "DBBL"
      }
    ],
    "chowkidar": [
      {
        "Name": "Nil",
        "so": "Nil",
        "Address": "Nil",
        "Phone": "Nil"
      }
    ],
    "councellor": [
      {
        "Name": "Naresh kumar",
        "so": "Nil",
        "Address": "Maleyana",
        "Phone": "9634939097"
      },
      {
        "Name": "Manju Rani",
        "so": "Nil",
        "Address": "Maleyana",
        "Phone": "9997412512"
      }
    ],
    "historySheeter": [
      {
        "Name": "Monu Sharma Aka Vikas",
        "so": "Narender",
        "Address": "Maleyana",
        "Status": "Missing",
        "Phone": "Nil"
      },
      {
        "Name": "Suresh",
        "so": "Ammi Chnad",
        "Address": "Maleyana",
        "Status": "Missing",
        "Phone": "Nil"
      }
    ],
    "convictedCriminals": [
      {
        "Name": "Nil",
        "so": "Nil",
        "Status": "Nil",
        "Address": "Nil"
      }
    ],
    "crimes5Yrs": [
      {
        "Name": "Nil",
        "so": "Nil",
        "crimeno": "Nil",
        "Section": "Nil",
        "Address": "Nil"
      }
    ],
    "electionCrimes": [
      {
        "Name": "Nil",
        "so": "Nil",
        "crimeno": "Nil",
        "Section": "Nil",
        "Address": "Nil"
      }
    ],
    "politician": [
      {
        "Name": "Nil",
        "so": "Nil",
        "Address": "Nil",
        "Phone": "Nil"
      }
    ],
    "boundDownUnder": "Nil",
    "vulnerabilityDetails": "General",
    "warrantedCriminals": [
      {
        "Name": "Nil",
        "so": "Nil",
        "Address": "Nil",
        "Phone": "Nil"
      }
    ],
    "condition": "Good"
  },
  {
    "stationID": "TPN-21",
    "stationName": "Sharan Public School Bagpath Road Maleyana",
    "latitude": "28.9711",
    "longitude": " 77.6652",
    "polingCenterPhoto": "../img/mediPanchayat.png",
    "routes": "../img/3.png",
    "collectionPoint": "../img/3.png",
    "population": "Nil",
    "voters": "3031",
    "villageMohalla": "Maleyana Road Sanjay Coloney, Indra Coloney,Dave Park,Islam Nagar, Durga Puram",
    "path": "#/menu/tab/medicalDetails",
    "respectedPpl": [
      {
        "Name": "Anil Kumar ",
        "so": "Sathveer",
        "Address": "Nil",
        "Phone": "9410885250"
      },
      {
        "Name": "Yogesh ",
        "so": "Rameshver Deyal",
        "Address": "Nil",
        "Phone": "9927024227"
      },
      {
        "Name": "Mohd. Shezad",
        "so": "Nil",
        "Address": "Nil",
        "Phone": "7895275448"
      },
      {
        "Name": "Sukhveer ",
        "so": "Raj Pal",
        "Address": "Nil",
        "Phone": "8797027226"
      },
      {
        "Name": "Bhopender Singh",
        "so": "Peyera",
        "Address": "Nil",
        "Phone": "9837155979"
      }
    ],
    "retiredGovtSer": [
      {
        "Name": "Nil ",
        "so": "Nil",
        "Address": "Nil",
        "Phone": "Nil"
      }
    ],
    "neighbourPolling": [
      {
        "Name": "Pawan Kumar",
        "so": "Hari Chnad",
        "Address": "Bagpath Road Maleyana",
        "Phone": "9012724611"
      },
      {
        "Name": "Vasu ",
        "so": "Vikas",
        "Address": "Bagpath Road Maleyana",
        "Phone": "9058033377"
      },
      {
        "Name": "Mohd. Nasher",
        "so": "Sabudeen",
        "Address": "Bagpath Road Maleyana",
        "Phone": "9319969046"
      },
      {
        "Name": "Anil ",
        "so": "Sathveer",
        "Address": "Bagpath Road Maleyana",
        "Phone": "9410885250"
      },
      {
        "Name": "Yogesh ",
        "so": "Rameshver Deyal",
        "Address": "Bagpath Road Maleyana",
        "Phone": "9927024227"
      }
    ],
    "armsLicenseHolder": [
      {
        "Name": "Govend ",
        "so": "Pooran Singh",
        "Address": "Sanjay Coloney",
        "Phone": "Nil",
        "Weapon": "REVOLVER"
      },
      {
        "Name": "Sunil Kumar",
        "so": "Jadish Kumar",
        "Address": "Dev Park Bagpath Road",
        "Phone": "Nil",
        "Weapon": "DBBL"
      },
      {
        "Name": "Naresh Kumar",
        "so": "Jadish Chand",
        "Address": "Dev Park Bagpath Road",
        "Phone": "Nil",
        "Weapon": "REVOLVER"
      },
      {
        "Name": "Vinay Kumar",
        "so": "Birgesh Kumar",
        "Address": "Dev Park Bagpath Road",
        "Phone": "Nil",
        "Weapon": "DBBL"
      }
    ],
    "chowkidar": [
      {
        "Name": "Nil",
        "so": "Nil",
        "Address": "Nil",
        "Phone": "Nil"
      }
    ],
    "councellor": [
      {
        "Name": "Naresh kumar",
        "so": "Nil",
        "Address": "Maleyana",
        "Phone": "9634939097"
      },
      {
        "Name": "Manju Rani",
        "so": "Nil",
        "Address": "Maleyana",
        "Phone": "9997412512"
      }
    ],
    "historySheeter": [
      {
        "Name": "Mehamood ",
        "so": "Hanib Qureshi",
        "Address": "Shekh Khan Cholk Maleyana",
        "Status": "Missing",
        "Phone": "Nil"
      }
    ],
    "convictedCriminals": [
      {
        "Name": "Nil",
        "so": "Nil",
        "Status": "Nil",
        "Address": "Nil"
      }
    ],
    "crimes5Yrs": [
      {
        "Name": "Nil",
        "so": "Nil",
        "crimeno": "Nil",
        "Section": "Nil",
        "Address": "Nil"
      }
    ],
    "electionCrimes": [
      {
        "Name": "Nil",
        "so": "Nil",
        "crimeno": "Nil",
        "Section": "Nil",
        "Address": "Nil"
      }
    ],
    "politician": [
      {
        "Name": "Nil",
        "so": "Nil",
        "Address": "Nil",
        "Phone": "Nil"
      }
    ],
    "boundDownUnder": "Nil",
    "vulnerabilityDetails": "General",
    "warrantedCriminals": [
      {
        "Name": "Nil",
        "so": "Nil",
        "Address": "Nil",
        "Phone": "Nil"
      }
    ],
    "condition": "Good"
  },
  {
    "stationID": "TPN-22",
    "stationName": "Vikas Khand Kareyal Meerut",
    "latitude": "28.9584",
    "longitude": "77.6839",
    "polingCenterPhoto": "../img/mediPanchayat.png",
    "routes": "../img/3.png",
    "collectionPoint": "../img/3.png",
    "population": "Nil",
    "voters": "1762",
    "villageMohalla": "Hafizabad Mevela 1,2, Meerut Block, Karshi Campus, Delhi Road, Mandi Samity Coloney , Banvari Vatika, Shri Ram Palace, Umesh Vihar,tezpal Incler.",
    "path": "#/menu/tab/medicalDetails",
    "respectedPpl": [
      {
        "Name": "Manoj Sharam",
        "so": "Aum Prakash Sharam",
        "Address": "Hafizabad",
        "Phone": "9456829164"
      },
      {
        "Name": "Dharam Singh Uppadehya ",
        "so": "Ram Pal",
        "Address": "Hafizabad",
        "Phone": "9927421391"
      },
      {
        "Name": "Ajad Singh",
        "so": "Pawan Singh",
        "Address": "Hafizabad",
        "Phone": "8859319261"
      },
      {
        "Name": "Kuldeep ",
        "so": "Dharam Pal",
        "Address": "Hafizabad",
        "Phone": "8006951961"
      },
      {
        "Name": "Harender ",
        "so": "Madan Lal",
        "Address": "Hafizabad",
        "Phone": "9917481306"
      }
    ],
    "retiredGovtSer": [
      {
        "Name": "Nil ",
        "so": "Nil",
        "Address": "Nil",
        "Phone": "Nil"
      }
    ],
    "neighbourPolling": [
      {
        "Name": "Anil Kumar",
        "so": "Ratan Singh",
        "Address": "Hafizabad Mevela",
        "Phone": "9358346959"
      },
      {
        "Name": "Denish Kumar",
        "so": "Vijay Pal",
        "Address": "Hafizabad Mevela",
        "Phone": "8057047047"
      },
      {
        "Name": "Deepak ",
        "so": "Bhoop Singh",
        "Address": "Hafizabad Mevela",
        "Phone": "9012309814"
      },
      {
        "Name": "Harish Chand",
        "so": "Gagey Singh",
        "Address": "Hafizabad Mevela",
        "Phone": "9927012545"
      },
      {
        "Name": "Tarun Sharam",
        "so": "Hari Shanker",
        "Address": "Hafizabad Mevela",
        "Phone": "9927277161"
      }
    ],
    "armsLicenseHolder": [
      {
        "Name": "Dr. Mukesh Kumar",
        "so": "Surender Singh",
        "Address": "Shri Ram Palace",
        "Phone": "Nil",
        "Weapon": "REVOLVER"
      },
      {
        "Name": "Amret Pal Singh",
        "so": "Sardar Man Singh",
        "Address": "Delhi Road",
        "Phone": "Nil",
        "Weapon": "REVOLVER"
      },
      {
        "Name": "Arun Kumar",
        "so": "Maharaj Krishan",
        "Address": "Umesh Vihar",
        "Phone": "Nil",
        "Weapon": "DBBL"
      },
      {
        "Name": "Rakesh Virg",
        "so": "Jitendernasth Virg",
        "Address": "Umesh Vihar",
        "Phone": "Nil",
        "Weapon": "REVOLVER"
      },
      {
        "Name": "Sumit ",
        "so": "Udayveer",
        "Address": "Umesh Vihar",
        "Phone": "Nil",
        "Weapon": "REVOLVER"
      },
      {
        "Name": "Rakesh Kumar",
        "so": "Jkanti Prasad",
        "Address": "Umesh Vihar",
        "Phone": "Nil",
        "Weapon": "REVOLVER"
      },
      {
        "Name": "Rahul Chabara",
        "so": "Laxman Das Chabara",
        "Address": "New Mevela",
        "Phone": "Nil",
        "Weapon": "PISTEL"
      }
    ],
    "chowkidar": [
      {
        "Name": "Nil",
        "so": "Nil",
        "Address": "Nil",
        "Phone": "Nil"
      }
    ],
    "councellor": [
      {
        "Name": "Kailash Chand ",
        "so": "Nil",
        "Address": "Nil",
        "Phone": "9837758542"
      },
      {
        "Name": "Pardeep Gupta Aka Pinki ",
        "so": "Nil",
        "Address": "Nil",
        "Phone": "9997812581"
      }
    ],
    "historySheeter": [
      {
        "Name": "Nil ",
        "so": "Nil",
        "Address": "Nil",
        "Status": "Nil",
        "Phone": "Nil"
      }
    ],
    "convictedCriminals": [
      {
        "Name": "Nil",
        "so": "Nil",
        "Status": "Nil",
        "Address": "Nil"
      }
    ],
    "crimes5Yrs": [
      {
        "Name": "Nil",
        "so": "Nil",
        "crimeno": "Nil",
        "Section": "Nil",
        "Address": "Nil"
      }
    ],
    "electionCrimes": [
      {
        "Name": "Nil",
        "so": "Nil",
        "crimeno": "Nil",
        "Section": "Nil",
        "Address": "Nil"
      }
    ],
    "politician": [
      {
        "Name": "Nil",
        "so": "Nil",
        "Address": "Nil",
        "Phone": "Nil"
      }
    ],
    "boundDownUnder": "Nil",
    "vulnerabilityDetails": "General",
    "warrantedCriminals": [
      {
        "Name": "Nil",
        "so": "Nil",
        "Address": "Nil",
        "Phone": "Nil"
      }
    ],
    "condition": "Good"
  },
  {
    "stationID": "TPN-23",
    "stationName": "D.P Public School Dev Lock Coloney Delhi Road Meerut",
    "latitude": "28.9594",
    "longitude": "77.6752",
    "polingCenterPhoto": "../img/mediPanchayat.png",
    "routes": "../img/3.png",
    "collectionPoint": "../img/3.png",
    "population": "Nil",
    "voters": "985",
    "villageMohalla": "Dev Lock Coloney , Vishav Inqulab, Gopal Gowshala,",
    "path": "#/menu/tab/medicalDetails",
    "respectedPpl": [
      {
        "Name": "Manish Sharam ",
        "so": "Verender Kumar Sharam",
        "Address": "Devlock Coloney",
        "Phone": "9219777776"
      },
      {
        "Name": "Nirankar Choudhary ",
        "so": "Hosheyar Singh",
        "Address": "Devlock Coloney",
        "Phone": "9927286162"
      },
      {
        "Name": "Arun Serohi",
        "so": "Sansar Singh",
        "Address": "Devlock Coloney",
        "Phone": "9456910992"
      },
      {
        "Name": "Parveen Sharam",
        "so": "Jay Singh",
        "Address": "Devlock Coloney",
        "Phone": "9720574576"
      },
      {
        "Name": "Mahender Kumar",
        "so": "Lila Path ",
        "Address": "Devlock Coloney",
        "Phone": "869066436"
      }
    ],
    "retiredGovtSer": [
      {
        "Name": "Nil ",
        "so": "Nil",
        "Address": "Nil",
        "Phone": "Nil"
      }
    ],
    "neighbourPolling": [
      {
        "Name": "Manish Sharam ",
        "so": "Verender Kumar Sharam",
        "Address": "Devlock Coloney",
        "Phone": "9219777776"
      },
      {
        "Name": "Nirankar Choudhary ",
        "so": "Hosheyar Singh",
        "Address": "Devlock Coloney",
        "Phone": "9927286162"
      },
      {
        "Name": "Arun Serohi",
        "so": "Sansar Singh",
        "Address": "Devlock Coloney",
        "Phone": "9456910992"
      },
      {
        "Name": "Parveen Sharam",
        "so": "Jay Singh",
        "Address": "Devlock Coloney",
        "Phone": "9720574576"
      },
      {
        "Name": "Mahender Kumar",
        "so": "Lila Path ",
        "Address": "Devlock Coloney",
        "Phone": "869066436"
      }
    ],
    "armsLicenseHolder": [
      {
        "Name": "Visnu Kumar",
        "so": "Sachanand",
        "Address": "Devlock Coloney",
        "Phone": "Nil",
        "Weapon": "PISTEL"
      },
      {
        "Name": "Sureya Prakesh",
        "so": "Ishvar Sharan",
        "Address": "Devlock Coloney",
        "Phone": "Nil",
        "Weapon": "REVOLVER"
      },
      {
        "Name": "Shantanu Kumar",
        "so": "Sureya Prakash",
        "Address": "Devlock Coloney",
        "Phone": "Nil",
        "Weapon": "PISTEL"
      },
      {
        "Name": "Vijay Kumar Agarwal",
        "so": "Amarnath",
        "Address": "Devlock Coloney",
        "Phone": "Nil",
        "Weapon": "PISTEL"
      },
      {
        "Name": "Ramutar Rastogi ",
        "so": "Rambhadur Rastogi",
        "Address": "Devlock Coloney",
        "Phone": "Nil",
        "Weapon": "DBBL"
      }
    ],
    "chowkidar": [
      {
        "Name": "Nil",
        "so": "Nil",
        "Address": "Nil",
        "Phone": "Nil"
      }
    ],
    "councellor": [
      {
        "Name": "Kailash Chand ",
        "so": "Nil",
        "Address": "Nil",
        "Phone": "9837758542"
      },
      {
        "Name": "Pardeep Gupta Aka Pinki ",
        "so": "Nil",
        "Address": "Nil",
        "Phone": "9997812581"
      }
    ],
    "historySheeter": [
      {
        "Name": "Nil ",
        "so": "Nil",
        "Address": "Nil",
        "Status": "Nil",
        "Phone": "Nil"
      }
    ],
    "convictedCriminals": [
      {
        "Name": "Nil",
        "so": "Nil",
        "Status": "Nil",
        "Address": "Nil"
      }
    ],
    "crimes5Yrs": [
      {
        "Name": "Nil",
        "so": "Nil",
        "crimeno": "Nil",
        "Section": "Nil",
        "Address": "Nil"
      }
    ],
    "electionCrimes": [
      {
        "Name": "Nil",
        "so": "Nil",
        "crimeno": "Nil",
        "Section": "Nil",
        "Address": "Nil"
      }
    ],
    "politician": [
      {
        "Name": "Nil",
        "so": "Nil",
        "Address": "Nil",
        "Phone": "Nil"
      }
    ],
    "boundDownUnder": "Nil",
    "vulnerabilityDetails": "General",
    "warrantedCriminals": [
      {
        "Name": "Nil",
        "so": "Nil",
        "Address": "Nil",
        "Phone": "Nil"
      }
    ],
    "condition": "Good"
  },
  {
    "stationID": "TPN-24",
    "stationName": "Naai Dharamshala Shiv Hari Mandir Coloney Meerut",
    "latitude": "28.9671",
    "longitude": "77.6731",
    "polingCenterPhoto": "../img/mediPanchayat.png",
    "routes": "../img/3.png",
    "collectionPoint": "../img/3.png",
    "population": "Nil",
    "voters": "2269",
    "villageMohalla": "Shiv Hari Mandir Coloney 1,2",
    "path": "#/menu/tab/medicalDetails",
    "respectedPpl": [
      {
        "Name": "Shiv Kumar ",
        "so": "Shish Pal",
        "Address": "Shiv Hari Mandir Coloney",
        "Phone": "9927128415"
      },
      {
        "Name": "Pawan Kumar",
        "so": "Ram Kumar",
        "Address": "Shiv Hari Mandir Coloney",
        "Phone": "9634654292"
      },
      {
        "Name": "Deepak Kumar",
        "so": "Madan Singh",
        "Address": "Shiv Hari Mandir Coloney",
        "Phone": "9427932774"
      },
      {
        "Name": "Raj Kumar ",
        "so": "Shyam Singh",
        "Address": "Shiv Hari Mandir Coloney",
        "Phone": "9259238209"
      },
      {
        "Name": "Davender Kumar",
        "so": "Kattar  Singh",
        "Address": "Shiv Hari Mandir Coloney",
        "Phone": "9756400151"
      }
    ],
    "retiredGovtSer": [
      {
        "Name": "Nil ",
        "so": "Nil",
        "Address": "Nil",
        "Phone": "Nil"
      }
    ],
    "neighbourPolling": [
      {
        "Name": "Shiv Kumar ",
        "so": "Shish Pal",
        "Address": "Shiv Hari Mandir Coloney",
        "Phone": "9927128415"
      },
      {
        "Name": "Pawan Kumar",
        "so": "Ram Kumar",
        "Address": "Shiv Hari Mandir Coloney",
        "Phone": "9634654292"
      },
      {
        "Name": "Deepak Kumar",
        "so": "Madan Singh",
        "Address": "Shiv Hari Mandir Coloney",
        "Phone": "9427932774"
      },
      {
        "Name": "Raj Kumar ",
        "so": "Shyam Singh",
        "Address": "Shiv Hari Mandir Coloney",
        "Phone": "9259238209"
      },
      {
        "Name": "Davender Kumar",
        "so": "Kattar  Singh",
        "Address": "Shiv Hari Mandir Coloney",
        "Phone": "9756400151"
      }
    ],
    "armsLicenseHolder": [
      {
        "Name": "Rakesh ",
        "so": "Murli Dhar",
        "Address": "Shiv Hari Mandir Coloney",
        "Phone": "Nil",
        "Weapon": "DBBL"
      },
      {
        "Name": "Pawan Sharam",
        "so": "Dhani Ram Sharam",
        "Address": "Shiv Hari Mandir Coloney",
        "Phone": "Nil",
        "Weapon": "revolver"
      },
      {
        "Name": "Sampad Giri ",
        "so": "Roop Giri ",
        "Address": "Shiv Hari Mandir Coloney",
        "Phone": "Nil",
        "Weapon": "SBBL"
      },
      {
        "Name": "Dinish Chand",
        "so": "Hanuman Prasad",
        "Address": "Shiv Hari Mandir Coloney",
        "Phone": "Nil",
        "Weapon": "SBBL"
      },
      {
        "Name": "Jitender Kumar",
        "so": "Yaad Ram Singh",
        "Address": "Shiv Hari Mandir Coloney",
        "Phone": "Nil",
        "Weapon": "DBBL"
      },
      {
        "Name": "Kamlesh",
        "so": "W/o Jay Pal",
        "Address": "Shiv Hari Mandir Coloney",
        "Phone": "Nil",
        "Weapon": "SBBL"
      },
      {
        "Name": "Babu Ram Gord",
        "so": "Sevi Ram ",
        "Address": "Shiv Hari Mandir Coloney",
        "Phone": "Nil",
        "Weapon": "DBBL"
      }
    ],
    "chowkidar": [
      {
        "Name": "Nil",
        "so": "Nil",
        "Address": "Nil",
        "Phone": "Nil"
      }
    ],
    "councellor": [
      {
        "Name": "Kailash Chand ",
        "so": "Nil",
        "Address": "Nil",
        "Phone": "9837758542"
      },
      {
        "Name": "Pardeep Gupta Aka Pinki ",
        "so": "Nil",
        "Address": "Nil",
        "Phone": "9997812581"
      }
    ],
    "historySheeter": [
      {
        "Name": "Gaurav ",
        "so": "Madhavanand",
        "Address": "Shiv Hari Mandir New Basti",
        "Status": "Missing",
        "Phone": "Nil"
      },
      {
        "Name": "Nirmala",
        "so": "W/o Pratap Singh",
        "Address": "Shiv Hari Mandir New Basti",
        "Status": "Present",
        "Phone": "Nil"
      }
    ],
    "convictedCriminals": [
      {
        "Name": "Venod ",
        "so": "hateram",
        "Status": "Shiv Hari Mandir New Basti",
        "Address": "Nil"
      }
    ],
    "crimes5Yrs": [
      {
        "Name": "Nil",
        "so": "Nil",
        "crimeno": "Nil",
        "Section": "Nil",
        "Address": "Nil"
      }
    ],
    "electionCrimes": [
      {
        "Name": "Nil",
        "so": "Nil",
        "crimeno": "Nil",
        "Section": "Nil",
        "Address": "Nil"
      }
    ],
    "politician": [
      {
        "Name": "Kailash Chand",
        "so": "Nil",
        "Address": "Shiv Hari Mandir New Basti",
        "Phone": "9837758542"
      }
    ],
    "boundDownUnder": "02",
    "vulnerabilityDetails": "General",
    "warrantedCriminals": [
      {
        "Name": "Nil",
        "so": "Nil",
        "Address": "Nil",
        "Phone": "Nil"
      }
    ],
    "condition": "Good"
  },
  {
    "stationID": "TPN-25",
    "stationName": "Dharamshala Shiv Hari Mandir Coloney Delhi Railway Line",
    "latitude": "28.9679",
    "longitude": " 77.671",
    "polingCenterPhoto": "../img/mediPanchayat.png",
    "routes": "../img/3.png",
    "collectionPoint": "../img/3.png",
    "population": "Nil",
    "voters": "1839",
    "villageMohalla": "Shiv Hari Mandir Coloney 3,4",
    "path": "#/menu/tab/medicalDetails",
    "respectedPpl": [
      {
        "Name": "Harish Chnad",
        "so": "Gagey Singh",
        "Address": "Shiv Hari Mandir Coloney ",
        "Phone": "9927012545"
      },
      {
        "Name": "Tarun ",
        "so": "Hari Shanker ",
        "Address": "Shiv Hari Mandir Coloney ",
        "Phone": "9927277161"
      },
      {
        "Name": "Ajad ",
        "so": "Pawan Singh",
        "Address": "Shiv Hari Mandir Coloney ",
        "Phone": "8859319261"
      },
      {
        "Name": "Kuldeep ",
        "so": "Dharam Pal",
        "Address": "Shiv Hari Mandir Coloney ",
        "Phone": "8006951961"
      },
      {
        "Name": "Harender ",
        "so": "Madan Lal",
        "Address": "Shiv Hari Mandir Coloney ",
        "Phone": "9917481306"
      }
    ],
    "retiredGovtSer": [
      {
        "Name": "Nil ",
        "so": "Nil",
        "Address": "Nil",
        "Phone": "Nil"
      }
    ],
    "neighbourPolling": [
      {
        "Name": "Ajeet Kumar",
        "so": "Dharam Pal",
        "Address": "Shiv Hari Mandir Coloney",
        "Phone": "9917728294"
      },
      {
        "Name": "Nishant ",
        "so": "Yogesh Sharam",
        "Address": "Shiv Hari Mandir Coloney",
        "Phone": "9012189741"
      },
      {
        "Name": "Deya Ram",
        "so": "Dhana Singh",
        "Address": "Shiv Hari Mandir Coloney",
        "Phone": "7217500283"
      },
      {
        "Name": "Mahender ",
        "so": "Harphool",
        "Address": "Shiv Hari Mandir Coloney",
        "Phone": "9760630870"
      },
      {
        "Name": "Prashnat",
        "so": "Arvind Gupta",
        "Address": "Shiv Hari Mandir Coloney",
        "Phone": "Nil"
      }
    ],
    "armsLicenseHolder": [
      {
        "Name": "Rakesh ",
        "so": "Murle Dhar",
        "Address": "Shiv Hari Mandi Coloney",
        "Phone": "Nil",
        "Weapon": "DBBL"
      },
      {
        "Name": "Pawan Sharam",
        "so": "Dhani Ram Sharam",
        "Address": "Shiv Hari Mandi Coloney",
        "Phone": "Nil",
        "Weapon": "revolver"
      },
      {
        "Name": "Sampet Giri ",
        "so": "Roop Giri",
        "Address": "Shiv Hari Mandi Coloney",
        "Phone": "Nil",
        "Weapon": "SBBL"
      },
      {
        "Name": "Jitender Kumar ",
        "so": "Yaad Ram Singh",
        "Address": "Shiv Hari Mandi Coloney",
        "Phone": "Nil",
        "Weapon": "DBBL"
      },
      {
        "Name": "Nank ",
        "so": "Shanker",
        "Address": "Shiv Hari Mandi Coloney",
        "Phone": "Nil",
        "Weapon": "DBBL"
      },
      {
        "Name": "Babu Ram",
        "so": "Devi Ram",
        "Address": "Shiv Hari Mandi Coloney",
        "Phone": "9039109319",
        "Weapon": "DBBL"
      },
      {
        "Name": "Kamlesh",
        "so": "W/o Jay Pal",
        "Address": "Shiv Hari Mandi Coloney",
        "Phone": "7351370448",
        "Weapon": "SBBL"
      }
    ],
    "chowkidar": [
      {
        "Name": "Nil",
        "so": "Nil",
        "Address": "Nil",
        "Phone": "Nil"
      }
    ],
    "councellor": [
      {
        "Name": "Kailash Chand ",
        "so": "Nil",
        "Address": "Nil",
        "Phone": "9837758542"
      },
      {
        "Name": "Pardeep Gupta Aka Pinki ",
        "so": "Nil",
        "Address": "Nil",
        "Phone": "9997812581"
      }
    ],
    "historySheeter": [
      {
        "Name": "Pratap ",
        "so": "Jeet Singh",
        "Address": "Shiv Harri Mandir Shamshan Ghat Ka Pass",
        "Status": "Missing",
        "Phone": "Nil"
      },
      {
        "Name": "Nirmala",
        "so": "Pratap",
        "Address": "Shiv Harri Mandir Shamshan Ghat Ka Pass",
        "Status": "Missing",
        "Phone": "Nil"
      }
    ],
    "convictedCriminals": [
      {
        "Name": "Nil ",
        "so": "Nil",
        "Status": "Nil",
        "Address": "Nil"
      }
    ],
    "crimes5Yrs": [
      {
        "Name": "Nil",
        "so": "Nil",
        "crimeno": "Nil",
        "Section": "Nil",
        "Address": "Nil"
      }
    ],
    "electionCrimes": [
      {
        "Name": "Nil",
        "so": "Nil",
        "crimeno": "Nil",
        "Section": "Nil",
        "Address": "Nil"
      }
    ],
    "politician": [
      {
        "Name": "Kailash Chand",
        "so": "Nil",
        "Address": "Shiv Hari Mandir New Basti",
        "Phone": "9837758542"
      }
    ],
    "boundDownUnder": "02",
    "vulnerabilityDetails": "General",
    "warrantedCriminals": [
      {
        "Name": "Nil",
        "so": "Nil",
        "Address": "Nil",
        "Phone": "Nil"
      }
    ],
    "condition": "Good"
  },
  {
    "stationID": "TPN-26",
    "stationName": "Chnadra Public School Delhi Railway Line",
    "latitude": "28.9664",
    "longitude": " 77.6702",
    "polingCenterPhoto": "../img/mediPanchayat.png",
    "routes": "../img/3.png",
    "collectionPoint": "../img/3.png",
    "population": "Nil",
    "voters": "1182",
    "villageMohalla": "Shiv Hari Mandir Coloney 5",
    "path": "#/menu/tab/medicalDetails",
    "respectedPpl": [
      {
        "Name": "Manoj Sharam",
        "so": "Aum Prakash Sharam",
        "Address": "Shiv Hari Mandir Coloney",
        "Phone": "9456829164"
      },
      {
        "Name": "Anil Kumar",
        "so": "Ratan Singh",
        "Address": "Shiv Hari Mandir Coloney",
        "Phone": "9358346959"
      },
      {
        "Name": "Dinish Kumar ",
        "so": "Vijay Pal",
        "Address": "Shiv Hari Mandir Coloney",
        "Phone": "8057047047"
      },
      {
        "Name": "Deepak ",
        "so": "Bhoop Singh",
        "Address": "Shiv Hari Mandir Coloney",
        "Phone": "9012309814"
      },
      {
        "Name": "Dharam Singh",
        "so": "Ramfal",
        "Address": "Shiv Hari Mandir Coloney",
        "Phone": "9927012545"
      }
    ],
    "retiredGovtSer": [
      {
        "Name": "Nil ",
        "so": "Nil",
        "Address": "Nil",
        "Phone": "Nil"
      }
    ],
    "neighbourPolling": [
      {
        "Name": "Anil ",
        "so": "Ratan Singh",
        "Address": "Shiv Hari Mandir Coloney",
        "Phone": "8954268032"
      },
      {
        "Name": "Ratan Singh",
        "so": "Kabool Singh",
        "Address": "Shiv Hari Mandir Coloney",
        "Phone": "8923139248"
      },
      {
        "Name": "Jadish ",
        "so": "Daju Ram",
        "Address": "Shiv Hari Mandir Coloney",
        "Phone": "9368325354"
      },
      {
        "Name": "Nakli ",
        "so": "Hari Singh",
        "Address": "Shiv Hari Mandir Coloney",
        "Phone": "8937946235"
      },
      {
        "Name": "Naveen Kumar",
        "so": "Ram Prasad",
        "Address": "Shiv Hari Mandir Coloney",
        "Phone": "9927891506"
      }
    ],
    "armsLicenseHolder": [
      {
        "Name": "Rakesh ",
        "so": "Murlidhar",
        "Address": "Shiv Hari Mandir Coloney",
        "Phone": "Nil",
        "Weapon": "DBBL"
      },
      {
        "Name": "Kamlesh",
        "so": "Jay Pal Singh",
        "Address": "Shiv Hari Mandir Coloney",
        "Phone": "Nil",
        "Weapon": "SBBL"
      },
      {
        "Name": "Pawan Sharam",
        "so": "Dhani Ram Sharam",
        "Address": "Shiv Hari Mandir Coloney",
        "Phone": "Nil",
        "Weapon": "REVOLVER"
      },
      {
        "Name": "Sampth Giri ",
        "so": "Roop Giri",
        "Address": "Shiv Hari Mandir Coloney",
        "Phone": "Nil",
        "Weapon": "SBBL"
      },
      {
        "Name": "Dinish Chnad",
        "so": "Hanuman Prasad",
        "Address": "Shiv Hari Mandir Coloney",
        "Phone": "Nil",
        "Weapon": "SBBL"
      }
    ],
    "chowkidar": [
      {
        "Name": "Nil",
        "so": "Nil",
        "Address": "Nil",
        "Phone": "Nil"
      }
    ],
    "councellor": [
      {
        "Name": "Kailash Chand ",
        "so": "Nil",
        "Address": "Nil",
        "Phone": "9837758542"
      },
      {
        "Name": "Pardeep Gupta Aka Pinki ",
        "so": "Nil",
        "Address": "Nil",
        "Phone": "9997812581"
      }
    ],
    "historySheeter": [
      {
        "Name": "Gaurav ",
        "so": "Madhav Nand",
        "Address": "Shiv Hari Mandir Coloney ",
        "Status": "Present",
        "Phone": "Nil"
      },
      {
        "Name": "Pradeep Aka Deep Aka Kallu Katereya",
        "so": "Dharam Pal",
        "Address": "Shiv Hari Mandir Coloney ",
        "Status": "Missing",
        "Phone": "Nil"
      },
      {
        "Name": "Pratap ",
        "so": "Jeet Singh",
        "Address": "Shiv Hari Mandir Coloney ",
        "Status": "Present",
        "Phone": "Nil"
      }
    ],
    "convictedCriminals": [
      {
        "Name": "Nil ",
        "so": "Nil",
        "Status": "Nil",
        "Address": "Nil"
      }
    ],
    "crimes5Yrs": [
      {
        "Name": "Nil",
        "so": "Nil",
        "crimeno": "Nil",
        "Section": "Nil",
        "Address": "Nil"
      }
    ],
    "electionCrimes": [
      {
        "Name": "Nil",
        "so": "Nil",
        "crimeno": "Nil",
        "Section": "Nil",
        "Address": "Nil"
      }
    ],
    "politician": [
      {
        "Name": "Kailash Chand",
        "so": "Nil",
        "Address": "Shiv Hari Mandir New Basti",
        "Phone": "9837758542"
      }
    ],
    "boundDownUnder": "Nil",
    "vulnerabilityDetails": "General",
    "warrantedCriminals": [
      {
        "Name": "Nil",
        "so": "Nil",
        "Address": "Nil",
        "Phone": "Nil"
      }
    ],
    "condition": "Good"
  },
  {
    "stationID": "TPN-27",
    "stationName": "Prathmik Vedhyala New Basti Lallapura",
    "latitude": "28.9654",
    "longitude": "77.6740",
    "polingCenterPhoto": "../img/mediPanchayat.png",
    "routes": "../img/3.png",
    "collectionPoint": "../img/3.png",
    "population": "Nil",
    "voters": "2575",
    "villageMohalla": "New Basti Lalapura 1,2 Bheem Nagar New Basti",
    "path": "#/menu/tab/medicalDetails",
    "respectedPpl": [
      {
        "Name": "Kailash Chand",
        "so": "Shri Charan Singh",
        "Address": "Lalapura New Basti",
        "Phone": "9837758542"
      },
      {
        "Name": "Krishan Pal",
        "so": "Rotash ",
        "Address": "Lalapura New Basti",
        "Phone": "8430670175"
      },
      {
        "Name": "Anil ",
        "so": "Shyam Singh",
        "Address": "Lalapura New Basti",
        "Phone": "7417312090"
      },
      {
        "Name": "Mahesh Chnad",
        "so": "Dev Karan ",
        "Address": "Lalapura New Basti",
        "Phone": "Nil"
      }
    ],
    "retiredGovtSer": [
      {
        "Name": "Nil ",
        "so": "Nil",
        "Address": "Nil",
        "Phone": "Nil"
      }
    ],
    "neighbourPolling": [
      {
        "Name": "Sanjeev Kumar ",
        "so": "Amar Singh",
        "Address": "New Basti Lalapura",
        "Phone": "9639449337"
      },
      {
        "Name": "Ravinder ",
        "so": "Yogender",
        "Address": "New Basti Lalapura",
        "Phone": "9917149249"
      },
      {
        "Name": "Gaurav",
        "so": "Venode",
        "Address": "New Basti Lalapura",
        "Phone": "9917104156"
      },
      {
        "Name": "Sunil Kumar",
        "so": "Ram Nivas",
        "Address": "New Basti Lalapura",
        "Phone": "8958865067"
      },
      {
        "Name": "Sonu Kumar",
        "so": "Tara Chand",
        "Address": "New Basti Lalapura",
        "Phone": "9568252622"
      }
    ],
    "armsLicenseHolder": [
      {
        "Name": "Tezpal Singh",
        "so": "Charan Singh",
        "Address": "New Basti Lalapuram",
        "Phone": "Nil",
        "Weapon": "DBBL"
      },
      {
        "Name": "Madan Lal",
        "so": "Attar Singh",
        "Address": "New Basti Lalapuram",
        "Phone": "Nil",
        "Weapon": "DBBL"
      },
      {
        "Name": "Bharat Singh",
        "so": "Bhudeya",
        "Address": "New Basti Lalapuram",
        "Phone": "Nil",
        "Weapon": "DBBL"
      },
      {
        "Name": "Baljor Singh",
        "so": "Attar Singh",
        "Address": "New Basti Lalapuram",
        "Phone": "Nil",
        "Weapon": "RIFFEL"
      }
    ],
    "chowkidar": [
      {
        "Name": "Nil",
        "so": "Nil",
        "Address": "Nil",
        "Phone": "Nil"
      }
    ],
    "councellor": [
      {
        "Name": "Kailash Chand ",
        "so": "Nil",
        "Address": "Nil",
        "Phone": "9837758542"
      },
      {
        "Name": "Pardeep Gupta Aka Pinki ",
        "so": "Nil",
        "Address": "Nil",
        "Phone": "9997812581"
      }
    ],
    "historySheeter": [
      {
        "Name": "Bajender",
        "so": "Veer Singh",
        "Address": "New Basti Lalapura",
        "Status": "Missing",
        "Phone": "Nil"
      },
      {
        "Name": "Surendre",
        "so": "Jay Singh",
        "Address": "New Basti Lalapura",
        "Status": "Missing",
        "Phone": "Nil"
      }
    ],
    "convictedCriminals": [
      {
        "Name": "Sheela Devi ",
        "so": "Palli",
        "Status": "Nil",
        "Address": "New Basti Lalapura"
      },
      {
        "Name": "Rajveer ",
        "so": "Ramprasad",
        "Status": "Nil",
        "Address": "New Basti Lalapura"
      },
      {
        "Name": "Bheem Singh",
        "so": " Attar Singh",
        "Status": "Nil",
        "Address": "New Basti Lalapura"
      }
    ],
    "crimes5Yrs": [
      {
        "Name": "Nil",
        "so": "Nil",
        "crimeno": "Nil",
        "Section": "Nil",
        "Address": "Nil"
      }
    ],
    "electionCrimes": [
      {
        "Name": "Nil",
        "so": "Nil",
        "crimeno": "Nil",
        "Section": "Nil",
        "Address": "Nil"
      }
    ],
    "politician": [
      {
        "Name": "Kailash Chand",
        "so": "Nil",
        "Address": "Shiv Hari Mandir New Basti",
        "Phone": "9837758542"
      }
    ],
    "boundDownUnder": "02",
    "vulnerabilityDetails": "General",
    "warrantedCriminals": [
      {
        "Name": "Nil",
        "so": "Nil",
        "Address": "Nil",
        "Phone": "Nil"
      }
    ],
    "condition": "Good"
  },
  {
    "stationID": "TPN-28",
    "stationName": "Sidhart Dharamshal New Basti Lalapuram",
    "latitude": "28.9642",
    "longitude": "77.6735",
    "polingCenterPhoto": "../img/mediPanchayat.png",
    "routes": "../img/3.png",
    "collectionPoint": "../img/3.png",
    "population": "Nil",
    "voters": "2308",
    "villageMohalla": "New Basti Lalapura 3,4",
    "path": "#/menu/tab/medicalDetails",
    "respectedPpl": [
      {
        "Name": "Kailash Chnad",
        "so": "Charan Singh",
        "Address": "New Basti Lalapura",
        "Phone": "9837758542"
      },
      {
        "Name": "Vijay ",
        "so": "Kripal",
        "Address": "New Basti Lalapura",
        "Phone": "8439000910"
      },
      {
        "Name": "Vikas",
        "so": "Kripal",
        "Address": "New Basti Lalapura",
        "Phone": "9760015195"
      },
      {
        "Name": "Dinish ",
        "so": "Samay Singh",
        "Address": "New Basti Lalapura",
        "Phone": "Nil"
      },
      {
        "Name": "Dharam Pal",
        "so": "Kalu Ram",
        "Address": "New Basti Lalapura",
        "Phone": "Nil"
      }
    ],
    "retiredGovtSer": [
      {
        "Name": "Phool Singh ",
        "so": "Natthu Singh",
        "Address": "New Basti Lalapura",
        "Phone": "Nil"
      }
    ],
    "neighbourPolling": [
      {
        "Name": "Ram Prasad",
        "so": "Bhagvan Saha",
        "Address": "New Basti Lalapura",
        "Phone": "9837778960"
      },
      {
        "Name": "Arvind ",
        "so": "Hari Lal",
        "Address": "New Basti Lalapura",
        "Phone": "9084841651"
      },
      {
        "Name": "Avinish",
        "so": "Ashok",
        "Address": "New Basti Lalapura",
        "Phone": "8958674313"
      },
      {
        "Name": "Sunny Verma",
        "so": "Narender Verma",
        "Address": "New Basti Lalapura",
        "Phone": "7248269227"
      },
      {
        "Name": "Rahul Jatav",
        "so": "Radhey Shyam",
        "Address": "New Basti Lalapura",
        "Phone": "8266835209"
      }
    ],
    "armsLicenseHolder": [
      {
        "Name": "Tezpal Singh",
        "so": "Charan Singh",
        "Address": "New Basti Lalapuram",
        "Phone": "Nil",
        "Weapon": "DBBL"
      },
      {
        "Name": "Madan Lal",
        "so": "Attar Singh",
        "Address": "New Basti Lalapuram",
        "Phone": "Nil",
        "Weapon": "DBBL"
      },
      {
        "Name": "Bharat Singh",
        "so": "Bhudeya",
        "Address": "New Basti Lalapuram",
        "Phone": "Nil",
        "Weapon": "DBBL"
      },
      {
        "Name": "Baljor Singh",
        "so": "Attar Singh",
        "Address": "New Basti Lalapuram",
        "Phone": "Nil",
        "Weapon": "RIFFEL"
      },
      {
        "Name": "Harpal Singh",
        "so": "Chotty Singh",
        "Address": "New Basti Lalapuram",
        "Phone": "Nil",
        "Weapon": "DBBL"
      },
      {
        "Name": "Vikram Giri ",
        "so": "Dal Chnad",
        "Address": "New Basti Lalapuram",
        "Phone": "Nil",
        "Weapon": "DBBL"
      }
    ],
    "chowkidar": [
      {
        "Name": "Nil",
        "so": "Nil",
        "Address": "Nil",
        "Phone": "Nil"
      }
    ],
    "councellor": [
      {
        "Name": "Kailash Chand ",
        "so": "Nil",
        "Address": "Nil",
        "Phone": "9837758542"
      },
      {
        "Name": "Pardeep Gupta Aka Pinki ",
        "so": "Nil",
        "Address": "Nil",
        "Phone": "9997812581"
      }
    ],
    "historySheeter": [
      {
        "Name": "Nil",
        "so": "Nil",
        "Address": "Nil",
        "Status": "Nil",
        "Phone": "Nil"
      }
    ],
    "convictedCriminals": [
      {
        "Name": "Arjun Aka Mogeli",
        "so": "Nil",
        "Status": "Nil",
        "Address": "New Basti Lalapura"
      },
      {
        "Name": "Akash ",
        "so": "Raj Karan",
        "Status": "Nil",
        "Address": "New Basti Lalapura"
      }
    ],
    "crimes5Yrs": [
      {
        "Name": "Nil",
        "so": "Nil",
        "crimeno": "Nil",
        "Section": "Nil",
        "Address": "Nil"
      }
    ],
    "electionCrimes": [
      {
        "Name": "Nil",
        "so": "Nil",
        "crimeno": "Nil",
        "Section": "Nil",
        "Address": "Nil"
      }
    ],
    "politician": [
      {
        "Name": "Kailash Chand",
        "so": "Nil",
        "Address": "Shiv Hari Mandir New Basti",
        "Phone": "9837758542"
      }
    ],
    "boundDownUnder": "02",
    "vulnerabilityDetails": "General",
    "warrantedCriminals": [
      {
        "Name": "Nil",
        "so": "Nil",
        "Address": "Nil",
        "Phone": "Nil"
      }
    ],
    "condition": "Good"
  },
  {
    "stationID": "TPN-29",
    "stationName": "Nitika Public School New Basti Lalapura",
    "latitude": "28.9637",
    "longitude": "77.6716",
    "polingCenterPhoto": "../img/mediPanchayat.png",
    "routes": "../img/3.png",
    "collectionPoint": "../img/3.png",
    "population": "Nil",
    "voters": "2915",
    "villageMohalla": "New Basti Lalapura 37,8,9",
    "path": "#/menu/tab/medicalDetails",
    "respectedPpl": [
      {
        "Name": "Kailash Chand",
        "so": "Charan Singh",
        "Address": "New Basti Lalapura",
        "Phone": "9837758542"
      },
      {
        "Name": "Vikas",
        "so": "Krishan Pal",
        "Address": "New Basti Lalapura",
        "Phone": "9760015195"
      },
      {
        "Name": "Aum Pal",
        "so": "Maam Chnad",
        "Address": "New Basti Lalapura",
        "Phone": "9837531757"
      },
      {
        "Name": "Dinish ",
        "so": "Samay Singh",
        "Address": "New Basti Lalapura",
        "Phone": "Nil"
      },
      {
        "Name": "Pawan ",
        "so": "Ram Kumar",
        "Address": "New Basti Lalapura",
        "Phone": "9639654792"
      }
    ],
    "retiredGovtSer": [
      {
        "Name": "Nil",
        "so": "Nil",
        "Address": "Nil",
        "Phone": "Nil"
      }
    ],
    "neighbourPolling": [
      {
        "Name": "Jonney ",
        "so": "Pheru ",
        "Address": "New Basti Lalapura",
        "Phone": "8755565762"
      },
      {
        "Name": "Kamal ",
        "so": "Gopi Chnad",
        "Address": "New Basti Lalapura",
        "Phone": "9319774396"
      },
      {
        "Name": "Davender ",
        "so": "Ram Singh",
        "Address": "New Basti Lalapura",
        "Phone": "8859996516"
      },
      {
        "Name": "Venod Kumar ",
        "so": "Lakhmi Chnad",
        "Address": "New Basti Lalapura",
        "Phone": "9837303172"
      },
      {
        "Name": "Dharam Veer ",
        "so": "Kalu",
        "Address": "New Basti Lalapura",
        "Phone": "8791357165"
      }
    ],
    "armsLicenseHolder": [
      {
        "Name": "Har Pal",
        "so": "Chotty Singh",
        "Address": "New Basti Lalapura",
        "Phone": "Nil",
        "Weapon": "DBBL"
      },
      {
        "Name": "Vikram Giri ",
        "so": "Dal Chnad",
        "Address": "New Basti Lalapura",
        "Phone": "Nil",
        "Weapon": "DBBL"
      },
      {
        "Name": "Baljor Singh",
        "so": "Attar Singh",
        "Address": "New Basti Lalapura",
        "Phone": "Nil",
        "Weapon": "RIFFEL"
      }
    ],
    "chowkidar": [
      {
        "Name": "Nil",
        "so": "Nil",
        "Address": "Nil",
        "Phone": "Nil"
      }
    ],
    "councellor": [
      {
        "Name": "Kailash Chand ",
        "so": "Nil",
        "Address": "Nil",
        "Phone": "9837758542"
      },
      {
        "Name": "Pardeep Gupta Aka Pinki ",
        "so": "Nil",
        "Address": "Nil",
        "Phone": "9997812581"
      }
    ],
    "historySheeter": [
      {
        "Name": "Satish ",
        "so": "Lala Ram ",
        "Address": "New Basti Lalapura",
        "Status": "Missing",
        "Phone": "Nil"
      }
    ],
    "convictedCriminals": [
      {
        "Name": "Nil",
        "so": "Nil",
        "Status": "Nil",
        "Address": "Nil"
      }
    ],
    "crimes5Yrs": [
      {
        "Name": "Nil",
        "so": "Nil",
        "crimeno": "Nil",
        "Section": "Nil",
        "Address": "Nil"
      }
    ],
    "electionCrimes": [
      {
        "Name": "Nil",
        "so": "Nil",
        "crimeno": "Nil",
        "Section": "Nil",
        "Address": "Nil"
      }
    ],
    "politician": [
      {
        "Name": "Kailash Chand",
        "so": "Nil",
        "Address": "Shiv Hari Mandir New Basti",
        "Phone": "9837758542"
      }
    ],
    "boundDownUnder": "02",
    "vulnerabilityDetails": "General",
    "warrantedCriminals": [
      {
        "Name": "Nil",
        "so": "Nil",
        "Address": "Nil",
        "Phone": "Nil"
      }
    ],
    "condition": "Good"
  },
  {
    "stationID": "TPN-30",
    "stationName": "Sirram Deyal Academy New Basti Lalapura Main Road",
    "latitude": "28.9625",
    "longitude": " 77.6739",
    "polingCenterPhoto": "../img/mediPanchayat.png",
    "routes": "../img/3.png",
    "collectionPoint": "../img/3.png",
    "population": "Nil",
    "voters": "2254",
    "villageMohalla": "New Basti Lalapura 10, New Devlock Coloney ,Chauhan Puri, Vikas Nagar, Shivpuram, Sidhartpuram New Basti.",
    "path": "#/menu/tab/medicalDetails",
    "respectedPpl": [
      {
        "Name": "Vikas ",
        "so": "Krishan Pal",
        "Address": "New Basti Lalapura",
        "Phone": "9760015195"
      },
      {
        "Name": "Kailash ",
        "so": "Charan Singh",
        "Address": "New Basti Lalapura",
        "Phone": "9837758542"
      },
      {
        "Name": "Aum Pal ",
        "so": "Maam Chnad",
        "Address": "New Basti Lalapura",
        "Phone": "9837531757"
      },
      {
        "Name": "Pawan ",
        "so": "Raj Kumar",
        "Address": "New Basti Lalapura",
        "Phone": "9639654792"
      },
      {
        "Name": "Dinish ",
        "so": "Samay Singh",
        "Address": "New Basti Lalapura",
        "Phone": "9219515172"
      }
    ],
    "retiredGovtSer": [
      {
        "Name": "Nil",
        "so": "Nil",
        "Address": "Nil",
        "Phone": "Nil"
      }
    ],
    "neighbourPolling": [
      {
        "Name": "Vikas ",
        "so": "Krishan Pal",
        "Address": "New Basti Lalapura",
        "Phone": "9760015195"
      },
      {
        "Name": "Kailash ",
        "so": "Charan Singh",
        "Address": "New Basti Lalapura",
        "Phone": "9837758542"
      },
      {
        "Name": "Dinish ",
        "so": "Samay Singh",
        "Address": "New Basti Lalapura",
        "Phone": "9219515172"
      },
      {
        "Name": "Janeshvar",
        "so": "Sukram Pal",
        "Address": "New Basti Lalapura",
        "Phone": "9690090093"
      },
      {
        "Name": "Pardeep Kumar",
        "so": "Dharam Pal",
        "Address": "New Basti Lalapura",
        "Phone": "8307375173"
      }
    ],
    "armsLicenseHolder": [
      {
        "Name": "Tezpal Singh",
        "so": "Charan Singh",
        "Address": "New Basti Lalapura",
        "Phone": "Nil",
        "Weapon": "DBBL"
      },
      {
        "Name": "Madan Lal ",
        "so": "Attar Singh",
        "Address": "New Basti Lalapura",
        "Phone": "Nil",
        "Weapon": "DBBL"
      },
      {
        "Name": "Bharat Singh",
        "so": "Bhuddeya",
        "Address": "New Basti Lalapura",
        "Phone": "Nil",
        "Weapon": "DBBL"
      },
      {
        "Name": "Raj Pal",
        "so": "Ram Pal",
        "Address": "Devlock",
        "Phone": "Nil",
        "Weapon": "CARBINE"
      },
      {
        "Name": "Shri Nivas Sharam",
        "so": "Ramnareyan",
        "Address": "Devlock",
        "Phone": "Nil",
        "Weapon": "SBBL"
      }
    ],
    "chowkidar": [
      {
        "Name": "Nil",
        "so": "Nil",
        "Address": "Nil",
        "Phone": "Nil"
      }
    ],
    "councellor": [
      {
        "Name": "Kailash Chand ",
        "so": "Nil",
        "Address": "Nil",
        "Phone": "9837758542"
      },
      {
        "Name": "Pardeep Gupta Aka Pinki ",
        "so": "Nil",
        "Address": "Nil",
        "Phone": "9997812581"
      }
    ],
    "historySheeter": [
      {
        "Name": "Anil Aka Chotta",
        "so": "Sath Pal Singh",
        "Address": "New Basti Vikas Nagar",
        "Status": "Missing",
        "Phone": "Nil"
      },
      {
        "Name": "Pardeep Aka Deep Aka Kallu Kateriya",
        "so": "Dharam Pal",
        "Address": "New Basti Shivpuram",
        "Status": "Missing",
        "Phone": "Nil"
      },
      {
        "Name": "Shivkumar",
        "so": "Charan Singh",
        "Address": "Sidhart Nagar",
        "Status": "Missing",
        "Phone": "Nil"
      }
    ],
    "convictedCriminals": [
      {
        "Name": "Mukesh ",
        "so": "Kalli Ram",
        "Status": "Nil",
        "Address": " Shivpuram Phatak Wali Gali New Basti"
      },
      {
        "Name": "Name Chand Aka Bittu ",
        "so": " Balvant",
        "Status": "Nil",
        "Address": " New Basti Near Akash Tent House"
      }
    ],
    "crimes5Yrs": [
      {
        "Name": "Kailash ",
        "so": "Indera",
        "crimeno": "155/12",
        "Section": "18/20 Ndps Act",
        "Address": "Shivpuram"
      }
    ],
    "electionCrimes": [
      {
        "Name": "Nil",
        "so": "Nil",
        "crimeno": "Nil",
        "Section": "Nil",
        "Address": "Nil"
      }
    ],
    "politician": [
      {
        "Name": "Kailash Chand",
        "so": "Nil",
        "Address": "Shiv Hari Mandir New Basti",
        "Phone": "9837758542"
      }
    ],
    "boundDownUnder": "01",
    "vulnerabilityDetails": "General",
    "warrantedCriminals": [
      {
        "Name": "Nil",
        "so": "Nil",
        "Address": "Nil",
        "Phone": "Nil"
      }
    ],
    "condition": "Good"
  },
  {
    "stationID": "TPN-31",
    "stationName": "SBS Higher Secondery School Mohakumpur",
    "latitude": "28.9578",
    "longitude": " 77.6694",
    "polingCenterPhoto": "../img/mediPanchayat.png",
    "routes": "../img/3.png",
    "collectionPoint": "../img/3.png",
    "population": "Nil",
    "voters": "1780",
    "villageMohalla": "Mohakumpur 1,2",
    "path": "#/menu/tab/medicalDetails",
    "respectedPpl": [
      {
        "Name": "Hari Narayan ",
        "so": "Kacheru",
        "Address": "Mohakumpur",
        "Phone": "9258773549"
      },
      {
        "Name": "Verender Kumar ",
        "so": "Bijender Singh",
        "Address": "Mohakumpur",
        "Phone": "9837633403"
      },
      {
        "Name": "Harish Kumar",
        "so": "Shyam Singh",
        "Address": "Mohakumpur",
        "Phone": "8456839298"
      }
    ],
    "retiredGovtSer": [
      {
        "Name": "Rajender",
        "so": "Umro Singh",
        "Address": "Mohakumpur",
        "Phone": "Nil"
      }
    ],
    "neighbourPolling": [
      {
        "Name": "Gautam Kumar ",
        "so": "Buddh Singh",
        "Address": "Mohakumpur",
        "Phone": "9758497980"
      },
      {
        "Name": "Prathvi ",
        "so": "Hukum Singh",
        "Address": "Mohakumpur",
        "Phone": "9837533131"
      },
      {
        "Name": "Kuldeep ",
        "so": "Dal Chand",
        "Address": "Mohakumpur",
        "Phone": "9411618379"
      },
      {
        "Name": "Kailsh ",
        "so": "Maam Chand",
        "Address": "Mohakumpur",
        "Phone": "9761140935"
      },
      {
        "Name": "Suresh ",
        "so": "Harpal",
        "Address": "Mohakumpur",
        "Phone": "9760642798"
      }
    ],
    "armsLicenseHolder": [
      {
        "Name": "Shakha Purbandhak ",
        "so": "Nil",
        "Address": "Cindicate Bank Mohakumapur",
        "Phone": "Nil",
        "Weapon": "DBBL"
      },
      {
        "Name": "Shakha Purbandhak ",
        "so": "Nil",
        "Address": "Punjab National Bank",
        "Phone": "Nil",
        "Weapon": "DBBL"
      },
      {
        "Name": "Shakha Purbandhak ",
        "so": "Nil",
        "Address": "Punjab National Bank Sports Complex Delhi Road",
        "Phone": "Nil",
        "Weapon": "DBBL"
      },
      {
        "Name": "Rajender Singh",
        "so": "Umro Singh",
        "Address": "Mohakumpur",
        "Phone": "Nil",
        "Weapon": "DBBL"
      },
      {
        "Name": "Chaman Lal",
        "so": "Chottu Lal",
        "Address": "Mohakumpur",
        "Phone": "Nil",
        "Weapon": "DBBL"
      },
      {
        "Name": "Arvind Kumar Bhati",
        "so": "Baljeet Singh",
        "Address": "Mohakumpur",
        "Phone": "Nil",
        "Weapon": "DBBL"
      }
    ],
    "chowkidar": [
      {
        "Name": "Nil",
        "so": "Nil",
        "Address": "Nil",
        "Phone": "Nil"
      }
    ],
    "councellor": [
      {
        "Name": "Dheer Singh",
        "so": "Nil",
        "Address": "Mohakumpur",
        "Phone": "9536635546"
      },
      {
        "Name": "Mangati Devi",
        "so": "Nil",
        "Address": "Mohakumpur",
        "Phone": "9319840210"
      }
    ],
    "historySheeter": [
      {
        "Name": "Nil",
        "so": "Nil",
        "Address": "Nil",
        "Status": "Nil",
        "Phone": "Nil"
      }
    ],
    "convictedCriminals": [
      {
        "Name": "Nil ",
        "so": "Nil",
        "Status": "Nil",
        "Address": "Nil"
      }
    ],
    "crimes5Yrs": [
      {
        "Name": "Nil ",
        "so": "Nil",
        "crimeno": "Nil",
        "Section": "Nil",
        "Address": "Nil"
      }
    ],
    "electionCrimes": [
      {
        "Name": "Nil",
        "so": "Nil",
        "crimeno": "Nil",
        "Section": "Nil",
        "Address": "Nil"
      }
    ],
    "politician": [
      {
        "Name": "Pardeep Gupta",
        "so": "Laxmi Narayan Gupta",
        "Address": "Mohakumpur",
        "Phone": "8923889255"
      }
    ],
    "boundDownUnder": "Nil",
    "vulnerabilityDetails": "General",
    "warrantedCriminals": [
      {
        "Name": "Nil",
        "so": "Nil",
        "Address": "Nil",
        "Phone": "Nil"
      }
    ],
    "condition": "Good"
  },
  {
    "stationID": "TPN-32",
    "stationName": "SBN Higher Secondery School Shivpuram Mohakumpur",
    "latitude": "28.9584",
    "longitude": "77.6694",
    "polingCenterPhoto": "../img/mediPanchayat.png",
    "routes": "../img/3.png",
    "collectionPoint": "../img/3.png",
    "population": "Nil",
    "voters": "4310",
    "villageMohalla": "Mohakumpur 2,4,5 Shivpuram 2,3,4 Devtapuram",
    "path": "#/menu/tab/medicalDetails",
    "respectedPpl": [
      {
        "Name": "Mahesh Kumar",
        "so": "Vedram",
        "Address": "Mohakumpur",
        "Phone": "9690458212"
      },
      {
        "Name": "Raj Kumar",
        "so": "Charan Singh",
        "Address": "Mohakumpur",
        "Phone": "8958266631"
      },
      {
        "Name": "Arvind ",
        "so": "Hari Lal",
        "Address": "Mohakumpur",
        "Phone": "9084841651"
      }
    ],
    "retiredGovtSer": [
      {
        "Name": "Nil",
        "so": "Nil",
        "Address": "Nil",
        "Phone": "Nil"
      }
    ],
    "neighbourPolling": [
      {
        "Name": "Krishan Pal",
        "so": "Bhavar Singh",
        "Address": "Shivpuram Mohakumpur",
        "Phone": "7500827592"
      },
      {
        "Name": "Anil ",
        "so": "Dheer Singh",
        "Address": "Shivpuram Mohakumpur",
        "Phone": "7534844166"
      },
      {
        "Name": "Ankur ",
        "so": "Krishanpal",
        "Address": "Shivpuram Mohakumpur",
        "Phone": "7500827592"
      },
      {
        "Name": "Naresh",
        "so": "Maheveer",
        "Address": "Shivpuram Mohakumpur",
        "Phone": "9412885560"
      },
      {
        "Name": "Raj Kumar",
        "so": "Charan Singh",
        "Address": "Shivpuram Mohakumpur",
        "Phone": "8958266631"
      }
    ],
    "armsLicenseHolder": [
      {
        "Name": "Ram Pal Singh",
        "so": "Baljeet Singh",
        "Address": "Shivpuram Mohakumpur",
        "Phone": "Nil",
        "Weapon": "DBBL"
      },
      {
        "Name": "Ramjeet ",
        "so": "Puranvasi",
        "Address": "Near Chota Mandir Shivpuram",
        "Phone": "Nil",
        "Weapon": "DBBL"
      },
      {
        "Name": "Mahesh Chand",
        "so": "Harbajan Singh",
        "Address": "Shivpuram Mohakumpur",
        "Phone": "Nil",
        "Weapon": "DBBL"
      },
      {
        "Name": "Saukh Pal Singh",
        "so": "Bharat Singh",
        "Address": "Shivpuram Mohakumpur",
        "Phone": "Nil",
        "Weapon": "DBBL"
      }
    ],
    "chowkidar": [
      {
        "Name": "Nil",
        "so": "Nil",
        "Address": "Nil",
        "Phone": "Nil"
      }
    ],
    "councellor": [
      {
        "Name": "Dheer Singh",
        "so": "Nil",
        "Address": "Mohakumpur",
        "Phone": "9536635546"
      },
      {
        "Name": "Mangati Devi",
        "so": "Nil",
        "Address": "Mohakumpur",
        "Phone": "9319840210"
      }
    ],
    "historySheeter": [
      {
        "Name": "Anil Aka Chotey ",
        "so": "Sathpal",
        "Address": "Mohakumpur",
        "Status": "Missing",
        "Phone": "Nil"
      },
      {
        "Name": "Surender",
        "so": "Jay Singh",
        "Address": "Mohakumpur",
        "Status": "Missing",
        "Phone": "Nil"
      },
      {
        "Name": "Rajnish Aka Gabber Aka Babber",
        "so": "Nepal",
        "Address": "Mohakumpur",
        "Status": "Missing",
        "Phone": "Nil"
      },
      {
        "Name": "Pardeep Aka Deep Aka Kallu Katereya",
        "so": "Dharam Pal",
        "Address": "Mohakumpur",
        "Status": "Missing",
        "Phone": "Nil"
      },
      {
        "Name": "Madan ",
        "so": "Dharam Singh",
        "Address": "Mohakumpur",
        "Status": "Missing",
        "Phone": "Nil"
      }
    ],
    "convictedCriminals": [
      {
        "Name": "Mukesh ",
        "so": "Kalli Ram",
        "Status": "Nil",
        "Address": " Shivpuram Phatak Wali Gali New Basti"
      },
      {
        "Name": "Name Chand Aka Bittu ",
        "so": " Balvant",
        "Status": "Nil",
        "Address": "New Basti Near Akash Tent House"
      }
    ],
    "crimes5Yrs": [
      {
        "Name": "Ravi Kumar",
        "so": "Jay Singh",
        "crimeno": "287/14",
        "Section": "376/323/504/506/ Ipc",
        "Address": "Shivpuram Mohakumpur"
      },
      {
        "Name": "Ajay ",
        "so": "Phakir Chand",
        "crimeno": "Nil",
        "Section": "498a/304b/323/ Ipc 3/4d Act",
        "Address": "Shivpuram Mohakumpur New Basti"
      }
    ],
    "electionCrimes": [
      {
        "Name": "Nil",
        "so": "Nil",
        "crimeno": "Nil",
        "Section": "Nil",
        "Address": "Nil"
      }
    ],
    "politician": [
      {
        "Name": "Ishvar ",
        "so": "Hemraj",
        "Address": "Shemraj",
        "Phone": "9319099973"
      },
      {
        "Name": "Anil",
        "so": "Kabel",
        "Address": "Shivpuram",
        "Phone": "9227201566"
      }
    ],
    "boundDownUnder": "Nil",
    "vulnerabilityDetails": "Critical",
    "warrantedCriminals": [
      {
        "Name": "Nil",
        "so": "Nil",
        "Address": "Nil",
        "Phone": "Nil"
      }
    ],
    "condition": "Good"
  },
  {
    "stationID": "TPN-33",
    "stationName": "Sumitra Devi Primary School Mohakum Pur",
    "latitude": "28.9523",
    "longitude": "77.6703",
    "polingCenterPhoto": "../img/mediPanchayat.png",
    "routes": "../img/3.png",
    "collectionPoint": "../img/3.png",
    "population": "Nil",
    "voters": "1103",
    "villageMohalla": "Mohakumpur 6",
    "path": "#/menu/tab/medicalDetails",
    "respectedPpl": [
      {
        "Name": "Nil",
        "so": "Nil",
        "Address": "Nil",
        "Phone": "Nil"
      }
    ],
    "retiredGovtSer": [
      {
        "Name": "Nil",
        "so": "Nil",
        "Address": "Nil",
        "Phone": "Nil"
      }
    ],
    "neighbourPolling": [
      {
        "Name": "Laxman ",
        "so": "Kharak Singh",
        "Address": "Mohakumpur",
        "Phone": "8958555932"
      },
      {
        "Name": "Venod ",
        "so": "Ganga Singh",
        "Address": "Mohakumpur",
        "Phone": "9868222914"
      },
      {
        "Name": "Hari Narayan ",
        "so": "Kecheru",
        "Address": "Mohakumpur",
        "Phone": "9258773549"
      },
      {
        "Name": "Jay Bhagvan",
        "so": "Usharam",
        "Address": "Mohakumpur",
        "Phone": "9258683167"
      },
      {
        "Name": "Jay Pal",
        "so": "Khemchnad",
        "Address": "Mohakumpur",
        "Phone": "9319949709"
      }
    ],
    "armsLicenseHolder": [
      {
        "Name": "Shakha Purbandhak ",
        "so": "Nil",
        "Address": "Punjab National Bank",
        "Phone": "Nil",
        "Weapon": "DBBL"
      },
      {
        "Name": "Chaman Lal",
        "so": "Chottu Lal",
        "Address": "Mohakumpur",
        "Phone": "Nil",
        "Weapon": "DBBL"
      },
      {
        "Name": "Shakha Purbandhak ",
        "so": "Nil",
        "Address": "Coperative Bank Mandi Ward Delhi Road",
        "Phone": "Nil",
        "Weapon": "DBBL"
      }
    ],
    "chowkidar": [
      {
        "Name": "Nil",
        "so": "Nil",
        "Address": "Nil",
        "Phone": "Nil"
      }
    ],
    "councellor": [
      {
        "Name": "Dheer Singh",
        "so": "Nil",
        "Address": "Mohakumpur",
        "Phone": "9536635546"
      },
      {
        "Name": "Mangati Devi",
        "so": "Nil",
        "Address": "Mohakumpur",
        "Phone": "9319840210"
      }
    ],
    "historySheeter": [
      {
        "Name": "Nil",
        "so": "Nil",
        "Address": "Nil",
        "Status": "Nil",
        "Phone": "Nil"
      }
    ],
    "convictedCriminals": [
      {
        "Name": "Nil ",
        "so": "Nil",
        "Status": "Nil",
        "Address": "Nil"
      }
    ],
    "crimes5Yrs": [
      {
        "Name": "Nil",
        "so": "Nil",
        "crimeno": "Nil",
        "Section": "Nil",
        "Address": "Nil"
      }
    ],
    "electionCrimes": [
      {
        "Name": "Nil",
        "so": "Nil",
        "crimeno": "Nil",
        "Section": "Nil",
        "Address": "Nil"
      }
    ],
    "politician": [
      {
        "Name": "Hari Narayan ",
        "so": "Kecheru",
        "Address": "Mohakumpur",
        "Phone": "9258773549"
      },
      {
        "Name": "Venod ",
        "so": "Ganga Ram",
        "Address": "Mohakumpur",
        "Phone": "9882229914"
      }
    ],
    "boundDownUnder": "Nil",
    "vulnerabilityDetails": "General",
    "warrantedCriminals": [
      {
        "Name": "Nil",
        "so": "Nil",
        "Address": "Nil",
        "Phone": "Nil"
      }
    ],
    "condition": "Good"
  },
  {
    "stationID": "TPN-34",
    "stationName": "Prathmik Vedhyal Mohakumpur",
    "latitude": "28.9523",
    "longitude": "77.6709",
    "polingCenterPhoto": "../img/mediPanchayat.png",
    "routes": "../img/3.png",
    "collectionPoint": "../img/3.png",
    "population": "Nil",
    "voters": "1735",
    "villageMohalla": "Mohakumpur 7",
    "path": "#/menu/tab/medicalDetails",
    "respectedPpl": [
      {
        "Name": "Jaget Singh",
        "so": "Banarsi",
        "Address": "Mohakumpur",
        "Phone": "9759426486"
      },
      {
        "Name": "Jitender ",
        "so": "Kashi Ram",
        "Address": "Mohakumpur",
        "Phone": "7417184486"
      },
      {
        "Name": "Aum Kar ",
        "so": "Data Ram",
        "Address": "Mohakumpur",
        "Phone": "8899979297"
      },
      {
        "Name": "Denish ",
        "so": "Hari Singh",
        "Address": "Mohakumpur",
        "Phone": "9528544984"
      }
    ],
    "retiredGovtSer": [
      {
        "Name": "Nil",
        "so": "Nil",
        "Address": "Nil",
        "Phone": "Nil"
      }
    ],
    "neighbourPolling": [
      {
        "Name": "Mangal Sain ",
        "so": "Budh Singh",
        "Address": "Mohakumpur",
        "Phone": "7417171778"
      },
      {
        "Name": "Ganesh",
        "so": "Bhikkan",
        "Address": "Mohakumpur",
        "Phone": "9917421856"
      },
      {
        "Name": "Ashok ",
        "so": "Gangasharan",
        "Address": "Mohakumpur",
        "Phone": "9319731898"
      },
      {
        "Name": "Suraj Pal Singh",
        "so": "Hukum Singh",
        "Address": "Mohakumpur",
        "Phone": "9927042231"
      },
      {
        "Name": "Denish ",
        "so": "Tikaram",
        "Address": "Mohakumpur",
        "Phone": "9897180466"
      }
    ],
    "armsLicenseHolder": [
      {
        "Name": "Shakha Purbandhak ",
        "so": "Nil",
        "Address": "Cindicate Bank Mohakumapur",
        "Phone": "Nil",
        "Weapon": "DBBL"
      },
      {
        "Name": "Attar Singh",
        "so": "Vishal Singh",
        "Address": "Mohakumpur",
        "Phone": "Nil",
        "Weapon": "DBBL"
      },
      {
        "Name": "Rajender Singh",
        "so": "Umro Singh",
        "Address": "Mohakumpur",
        "Phone": "Nil",
        "Weapon": "DBBL"
      },
      {
        "Name": "Chaman Lal",
        "so": "Chottu Lal",
        "Address": "Mohakumpur",
        "Phone": "Nil",
        "Weapon": "DBBL"
      },
      {
        "Name": "Arvind Kumar Bhati",
        "so": "Baljeet Singh",
        "Address": "Mohakumpur",
        "Phone": "Nil",
        "Weapon": "DBBL"
      }
    ],
    "chowkidar": [
      {
        "Name": "Nil",
        "so": "Nil",
        "Address": "Nil",
        "Phone": "Nil"
      }
    ],
    "councellor": [
      {
        "Name": "Dheer Singh",
        "so": "Nil",
        "Address": "Mohakumpur",
        "Phone": "9536635546"
      },
      {
        "Name": "Mangati Devi",
        "so": "Nil",
        "Address": "Mohakumpur",
        "Phone": "9319840210"
      }
    ],
    "historySheeter": [
      {
        "Name": "Nil",
        "so": "Nil",
        "Address": "Nil",
        "Status": "Nil",
        "Phone": "Nil"
      }
    ],
    "convictedCriminals": [
      {
        "Name": "Nil ",
        "so": "Nil",
        "Status": "Nil",
        "Address": "Nil"
      }
    ],
    "crimes5Yrs": [
      {
        "Name": "Nil",
        "so": "Nil",
        "crimeno": "Nil",
        "Section": "Nil",
        "Address": "Nil"
      }
    ],
    "electionCrimes": [
      {
        "Name": "Nil",
        "so": "Nil",
        "crimeno": "Nil",
        "Section": "Nil",
        "Address": "Nil"
      }
    ],
    "politician": [
      {
        "Name": "Sunil Kumar",
        "so": "Lal Singh",
        "Address": "Mohakumpur",
        "Phone": "Nil"
      },
      {
        "Name": "Aum Pal",
        "so": "Maam Chnad",
        "Address": "Mohakumpur",
        "Phone": "9837531757"
      }
    ],
    "boundDownUnder": "Nil",
    "vulnerabilityDetails": "General",
    "warrantedCriminals": [
      {
        "Name": "Nil",
        "so": "Nil",
        "Address": "Nil",
        "Phone": "Nil"
      }
    ],
    "condition": "Good"
  },
  {
    "stationID": "TPN-35",
    "stationName": "BK Inter College New Basti Lalapuram",
    "latitude": "28.9643",
    "longitude": "77.6723",
    "polingCenterPhoto": "../img/mediPanchayat.png",
    "routes": "../img/3.png",
    "collectionPoint": "../img/3.png",
    "population": "Nil",
    "voters": "2607",
    "villageMohalla": "New Basti Lalapura 5,6",
    "path": "#/menu/tab/medicalDetails",
    "respectedPpl": [
      {
        "Name": "Ratan Singh",
        "so": "Kabul Singh",
        "Address": "Lallapura",
        "Phone": "8954268031"
      },
      {
        "Name": "Arvind",
        "so": "Hari Lal",
        "Address": "Lallapura",
        "Phone": "9084841651"
      },
      {
        "Name": "Naresh",
        "so": "Mahever Singh",
        "Address": "Lallapura",
        "Phone": "9412885560"
      },
      {
        "Name": "Nakil",
        "so": "Hari Singh",
        "Address": "Lallapura",
        "Phone": "8937946235"
      }
    ],
    "retiredGovtSer": [
      {
        "Name": "Nil",
        "so": "Nil",
        "Address": "Nil",
        "Phone": "Nil"
      }
    ],
    "neighbourPolling": [
      {
        "Name": "Man Singh",
        "so": "Padum Singh",
        "Address": "New Basti Lallapura",
        "Phone": "9997568565"
      },
      {
        "Name": "Murari Lal",
        "so": "Sukhdev",
        "Address": "New Basti Lallapura",
        "Phone": "9319876724"
      },
      {
        "Name": "Jellay Singh",
        "so": "Behari Lal",
        "Address": "New Basti Lallapura",
        "Phone": "7417229319"
      },
      {
        "Name": "Mahesh Kumar",
        "so": "Ved Ram",
        "Address": "New Basti Lallapura",
        "Phone": "9690458212"
      },
      {
        "Name": "Vikas Kumar",
        "so": "Mulchnad",
        "Address": "New Basti Lallapura",
        "Phone": "9761789360"
      }
    ],
    "armsLicenseHolder": [
      {
        "Name": "Tez Pal Singh",
        "so": "Charan Singh",
        "Address": "New Basti ",
        "Phone": "9897211107",
        "Weapon": "DBBL"
      },
      {
        "Name": "Madan Lal",
        "so": "Attar Singh",
        "Address": "New Basti ",
        "Phone": "Nil",
        "Weapon": "DBBL"
      },
      {
        "Name": "Bharat Singh",
        "so": "Bhuddeya",
        "Address": "New Basti ",
        "Phone": "9927284757",
        "Weapon": "DBBL"
      },
      {
        "Name": "Har Pal Singh",
        "so": "Chotey Singh",
        "Address": "New Basti Lallapura",
        "Phone": "Nil",
        "Weapon": "DBBL"
      },
      {
        "Name": "Vikram Singh",
        "so": "Dal Chand",
        "Address": "New Basti Lallapura",
        "Phone": "Nil",
        "Weapon": "DBBL"
      },
      {
        "Name": "Baljor Singh",
        "so": "Attar Singh",
        "Address": "New Basti Lallapura",
        "Phone": "Nil",
        "Weapon": "DBBL"
      }
    ],
    "chowkidar": [
      {
        "Name": "Nil",
        "so": "Nil",
        "Address": "Nil",
        "Phone": "Nil"
      }
    ],
    "councellor": [
      {
        "Name": "Kailash Chand",
        "so": "Nil",
        "Address": "Lallapura",
        "Phone": "9837758542"
      }
    ],
    "historySheeter": [
      {
        "Name": "Surender ",
        "so": "Jay Singh",
        "Address": "Lallapura New Basti",
        "Status": "Missing",
        "Phone": "Nil"
      }
    ],
    "convictedCriminals": [
      {
        "Name": "Sheela Devi",
        "so": "Palli",
        "Status": "Nil",
        "Address": "Lallapura New Basti"
      },
      {
        "Name": "Rajver ",
        "so": "Ram Prasad",
        "Status": "Nil",
        "Address": "Lallapura New Basti"
      }
    ],
    "crimes5Yrs": [
      {
        "Name": "Nil",
        "so": "Nil",
        "crimeno": "Nil",
        "Section": "Nil",
        "Address": "Nil"
      }
    ],
    "electionCrimes": [
      {
        "Name": "Nil",
        "so": "Nil",
        "crimeno": "Nil",
        "Section": "Nil",
        "Address": "Nil"
      }
    ],
    "politician": [
      {
        "Name": "Nil",
        "so": "Nil",
        "Address": "Nil",
        "Phone": "Nil"
      }
    ],
    "boundDownUnder": "Nil",
    "vulnerabilityDetails": "General",
    "warrantedCriminals": [
      {
        "Name": "Nil",
        "so": "Nil",
        "Address": "Nil",
        "Phone": "Nil"
      }
    ],
    "condition": "Good"
  },
  {
    "stationID": "TPN-36",
    "stationName": "Gautam Inter College Uttamnagar",
    "latitude": "28.9668",
    "longitude": "77.6765",
    "polingCenterPhoto": "../img/mediPanchayat.png",
    "routes": "../img/3.png",
    "collectionPoint": "../img/3.png",
    "population": "Nil",
    "voters": "2600",
    "villageMohalla": "Gupta Coloney 1,2",
    "path": "#/menu/tab/medicalDetails",
    "respectedPpl": [
      {
        "Name": "Birgesh Sharam",
        "so": "Harpal Sharam",
        "Address": "Gupta Coloney",
        "Phone": "9058301229"
      },
      {
        "Name": "Krishan Pal Singh",
        "so": "Mukhtear Singh",
        "Address": "Gupta Coloney",
        "Phone": "8057482823"
      },
      {
        "Name": "Anil Arora",
        "so": "Ratan Lal Arora",
        "Address": "Gupta Coloney",
        "Phone": "8126930093"
      },
      {
        "Name": "Surender Pal",
        "so": "Jag Pal Singh",
        "Address": "Gupta Coloney",
        "Phone": "0121-2400598"
      },
      {
        "Name": "Lalit Mittal ",
        "so": "Babu Ram Mittal",
        "Address": "Gupta Coloney",
        "Phone": "9897383111"
      },
      {
        "Name": "Dr. Permod Kumar",
        "so": "Nil",
        "Address": "Gupta Coloney",
        "Phone": "9837390652"
      }
    ],
    "retiredGovtSer": [
      {
        "Name": "Nil",
        "so": "Nil",
        "Address": "Nil",
        "Phone": "Nil"
      }
    ],
    "neighbourPolling": [
      {
        "Name": "Sanjeev Kumar",
        "so": "Asha Ram",
        "Address": "Uttamnagar",
        "Phone": "9761024560"
      },
      {
        "Name": "Subash Chand",
        "so": "Nanak Chand",
        "Address": "Uttamnagar",
        "Phone": "8171310469"
      },
      {
        "Name": "Arun Jindal",
        "so": "Satender Kumar",
        "Address": "Uttamnagar",
        "Phone": "9654651580"
      },
      {
        "Name": "Rajeev ",
        "so": "Suraj Bahan",
        "Address": "Uttamnagar",
        "Phone": "9720117321"
      },
      {
        "Name": "Ashok Kumar",
        "so": "Santh Ram Gautam",
        "Address": "Uttamnagar",
        "Phone": "9897760910"
      }
    ],
    "armsLicenseHolder": [
      {
        "Name": "Shyam Sundar ",
        "so": "Ramchander",
        "Address": "Gupta Coloney",
        "Phone": "9557405653",
        "Weapon": "DBBL"
      },
      {
        "Name": "Ashok Kumar",
        "so": "Prakash Chandra Jain",
        "Address": "Gupta Coloney",
        "Phone": "9837791495",
        "Weapon": "DBBL"
      },
      {
        "Name": "Niraj Kumar",
        "so": "Manveer Singh",
        "Address": "Gupta Coloney",
        "Phone": "7895008772",
        "Weapon": "DBBL"
      },
      {
        "Name": "Ram Kumar Gupta",
        "so": "Jasvan Tsingh",
        "Address": "Gupta Coloney",
        "Phone": "9012334735",
        "Weapon": "DBBL"
      },
      {
        "Name": "Bharam Singh",
        "so": "Balveer Singh",
        "Address": "Gupta Coloney",
        "Phone": "9690061744",
        "Weapon": "DBBL"
      },
      {
        "Name": "Tarun Gupta",
        "so": "Ram Kumar Gupta",
        "Address": "Gupta Coloney Ambedker Cholk",
        "Phone": "9058000055",
        "Weapon": "DBBL"
      }
    ],
    "chowkidar": [
      {
        "Name": "Nil",
        "so": "Nil",
        "Address": "Nil",
        "Phone": "Nil"
      }
    ],
    "councellor": [
      {
        "Name": "Ashok Pradhan",
        "so": "Nil",
        "Address": "Nil",
        "Phone": "9358406569"
      },
      {
        "Name": "Pardeep Gupta Aka Pinki",
        "so": "Nil",
        "Address": "Nil",
        "Phone": "Nil"
      }
    ],
    "historySheeter": [
      {
        "Name": "Nil ",
        "so": "Nil",
        "Address": "Nil",
        "Status": "Nil",
        "Phone": "Nil"
      }
    ],
    "convictedCriminals": [
      {
        "Name": "Nil",
        "so": "Nil",
        "Status": "Nil",
        "Address": "Nil"
      }
    ],
    "crimes5Yrs": [
      {
        "Name": "Nil",
        "so": "Nil",
        "crimeno": "Nil",
        "Section": "Nil",
        "Address": "Nil"
      }
    ],
    "electionCrimes": [
      {
        "Name": "Nil",
        "so": "Nil",
        "crimeno": "Nil",
        "Section": "Nil",
        "Address": "Nil"
      }
    ],
    "politician": [
      {
        "Name": "Amit ",
        "so": " Balveer ",
        "Address": "Gupta Coloney",
        "Phone": "8077652228"
      },
      {
        "Name": "Ankur Prajapati",
        "so": " Narender Kumar",
        "Address": "Gupta Coloney",
        "Phone": "7310555003"
      },
      {
        "Name": "Montey Gupta",
        "so": "Permod Gupta",
        "Address": "Gupta Coloney",
        "Phone": "8266007775"
      },
      {
        "Name": "Kuwar Sain",
        "so": " Nil",
        "Address": "Gupta Coloney",
        "Phone": "Nil"
      }
    ],
    "boundDownUnder": "Nil",
    "vulnerabilityDetails": "General",
    "warrantedCriminals": [
      {
        "Name": "Nil",
        "so": "Nil",
        "Address": "Nil",
        "Phone": "Nil"
      }
    ],
    "condition": "Good"
  },
  {
    "stationID": "TPN-37",
    "stationName": "Balbharti Nikaten Mahaver Ji Nagar",
    "latitude": "28.9691",
    "longitude": "77.6851",
    "polingCenterPhoto": "../img/mediPanchayat.png",
    "routes": "../img/3.png",
    "collectionPoint": "../img/3.png",
    "population": "Nil",
    "voters": "4486",
    "villageMohalla": "Mahaverji Nagar, Punjabipura, Mdhuban Coloney ,Kamala Nagar",
    "path": "#/menu/tab/medicalDetails",
    "respectedPpl": [
      {
        "Name": "Vishal Jain",
        "so": "Nil",
        "Address": "Mahaverji Nagar",
        "Phone": "9897190111"
      },
      {
        "Name": "Deepak Gupta",
        "so": "Nil",
        "Address": "Mahaverji Nagar",
        "Phone": "9897026334"
      },
      {
        "Name": "Vashalik Jain",
        "so": "Jitender Jain",
        "Address": "Mahaverji Nagar",
        "Phone": "7599384583"
      },
      {
        "Name": "Sunil Thakur",
        "so": "Hukum Singh",
        "Address": "Mahaverji Nagar",
        "Phone": "8273592211"
      },
      {
        "Name": "Chirag Vadav",
        "so": "Nil",
        "Address": "Mahaverji Nagar",
        "Phone": "9568422864"
      }
    ],
    "retiredGovtSer": [
      {
        "Name": "Nil",
        "so": "Nil",
        "Address": "Nil",
        "Phone": "Nil"
      }
    ],
    "neighbourPolling": [
      {
        "Name": "Pawan Kumar Kheda",
        "so": "Mohan Lal",
        "Address": "Mahaverji Nagar",
        "Phone": "9719726284"
      },
      {
        "Name": "Bhupender Jain",
        "so": "Nil",
        "Address": "Mahaverji Nagar",
        "Phone": "9837070789"
      },
      {
        "Name": "Ambuj Jain",
        "so": "Nil",
        "Address": "Mahaverji Nagar",
        "Phone": "9837020293"
      },
      {
        "Name": "Devdut Sharam",
        "so": "Nil",
        "Address": "Mahaverji Nagar",
        "Phone": "0121-2404301"
      },
      {
        "Name": "Inderesh Kumar Jain",
        "so": "Jainey Prakash Jain",
        "Address": "Mahaverji Nagar",
        "Phone": "7409104164"
      }
    ],
    "armsLicenseHolder": [
      {
        "Name": "Dal Chand ",
        "so": "Rumali Lal",
        "Address": "Kamalanagar",
        "Phone": "Nil",
        "Weapon": "REVOLVER"
      },
      {
        "Name": "Verender",
        "so": "Ved Prakash",
        "Address": "Kamalanagar",
        "Phone": "Nil",
        "Weapon": "RIFFEL"
      },
      {
        "Name": "Lalit Kumar",
        "so": "Anant Ram",
        "Address": "Kamalanagar",
        "Phone": "9927013477",
        "Weapon": "DBBL"
      },
      {
        "Name": "Avdesh Kumar",
        "so": "Rajender Kumar",
        "Address": "Kamalanagar",
        "Phone": "Nil",
        "Weapon": "DBBL"
      },
      {
        "Name": "Anuj Kumar Sharam",
        "so": "Krishan Kumar",
        "Address": "Kamalanagar",
        "Phone": "Nil",
        "Weapon": "PISTEL"
      },
      {
        "Name": "Pradeep Kumar ",
        "so": "Roshan Lal",
        "Address": "Kamalanagar",
        "Phone": "9997812581",
        "Weapon": "REVOLVER"
      },
      {
        "Name": "Krishan Kumar Goel",
        "so": "Ferumal",
        "Address": "Kamalanagar",
        "Phone": "9837353183",
        "Weapon": "REVOLVER/RIFFEL"
      },
      {
        "Name": "Rakesh Chandra Jain",
        "so": "Prem Chandra Jain",
        "Address": "Kamalanagar",
        "Phone": "9837032155",
        "Weapon": "REVOLVER/RIFFEL"
      },
      {
        "Name": "Harish Garg",
        "so": "Vinshnu Sharan Garg",
        "Address": "Kamalanagar",
        "Phone": "9412202603",
        "Weapon": "REVOLVER"
      },
      {
        "Name": "Prateek Kumar Jain",
        "so": "Suresh Kumar Jain",
        "Address": "Kamalanagar",
        "Phone": "9837544440",
        "Weapon": "REVOLVER"
      },
      {
        "Name": "Mukesh Kumar Jain",
        "so": "P.c Jain",
        "Address": "Kamalanagar",
        "Phone": "9837041714",
        "Weapon": "DBBL"
      }
    ],
    "chowkidar": [
      {
        "Name": "Nil",
        "so": "Nil",
        "Address": "Nil",
        "Phone": "Nil"
      }
    ],
    "councellor": [
      {
        "Name": "Ashok Pradhan",
        "so": "Nil",
        "Address": "Nil",
        "Phone": "9358406569"
      },
      {
        "Name": "Pardeep Gupta Aka Pinki",
        "so": "Nil",
        "Address": "Nil",
        "Phone": "Nil"
      }
    ],
    "historySheeter": [
      {
        "Name": "Nil ",
        "so": "Nil",
        "Address": "Nil",
        "Status": "Nil",
        "Phone": "Nil"
      }
    ],
    "convictedCriminals": [
      {
        "Name": "Vishal Aka Shivam",
        "so": "Kamlesh",
        "Status": "Mahaverji Nagar",
        "Address": "Nil"
      }
    ],
    "crimes5Yrs": [
      {
        "Name": "Nil",
        "so": "Nil",
        "crimeno": "Nil",
        "Section": "Nil",
        "Address": "Nil"
      }
    ],
    "electionCrimes": [
      {
        "Name": "Nil",
        "so": "Nil",
        "crimeno": "Nil",
        "Section": "Nil",
        "Address": "Nil"
      }
    ],
    "politician": [
      {
        "Name": "Satyaprakash Agarval ",
        "so": "Nil",
        "Address": "Nil",
        "Phone": "9837023834"
      },
      {
        "Name": "Pankaj Jain",
        "so": "Nil",
        "Address": "Nil",
        "Phone": "9837354668"
      },
      {
        "Name": "Sanjeev Kumar Garg",
        "so": "Nil",
        "Address": "Nil",
        "Phone": "9927093322"
      },
      {
        "Name": "Pradeep Kumar Aka Pinki",
        "so": " Nil",
        "Address": "Nil",
        "Phone": "9997812581"
      }
    ],
    "boundDownUnder": "Nil",
    "vulnerabilityDetails": "General",
    "warrantedCriminals": [
      {
        "Name": "Nil",
        "so": "Nil",
        "Address": "Nil",
        "Phone": "Nil"
      }
    ],
    "condition": "Good"
  }
]