[{"stationID":"RO-01","stationName":"Bharat Sewak Samaj Major Asharam Tyagi Smark Kaethwari","latitude":"29.0600","longitude":"77.4794","polingCenterPhoto":"../img/mediPanchayat.png","routes":"../img/3.png","collectionPoint":"../img/3.png","population":"3000","voters":"2300","villageMohalla":"Kaithwari","path":"#/menu/tab/medicalDetails","respectedPpl":[{"Name":"Sudhir Tyagi","so":"Shri Niwash","Address":"Kaithwari p.s. Rohta","Phone":"9917829990"},{"Name":"Mujkesh","so":"Tikaram","Address":"Kaithwari p.s. Rohta","Phone":"Nil"},{"Name":"Shri Niwash","so":"Hukuam Singh","Address":"Kaithwari p.s. Rohta","Phone":"Nil"},{"Name":"Rajpal","so":"Dal Singh","Address":"Kaithwari p.s. Rohta","Phone":"9639090680"}],"retiredGovtSer":[{"Name":"Shri Niwash","so":"Hukam Singh","Address":"Kaithwari p.s. Rohta","Phone":"Nil"},{"Name":"Rajpal","so":"Harsowroop","Address":"Kaithwari p.s. Rohta","Phone":"Nil"},{"Name":"Birampal","so":"Anoop Singh","Address":"Kaithwari p.s. Rohta","Phone":"Nil"},{"Name":"Surender Sharma","so":"Ramchander","Address":"Kaithwari p.s. Rohta","Phone":"9411817166"},{"Name":"Mahender Sharma","so":"Jagram","Address":"Kaithwari p.s. Rohta","Phone":"Nil"}],"neighbourPolling":[{"Name":"Chotan","so":"Prabhu Tyagi","Address":"Kaithwari p.s. Rohta","Phone":"7088560473"},{"Name":"Mangu ","so":"Raje","Address":"Kaithwari p.s. Rohta","Phone":"8273626357"},{"Name":"Rajpal","so":"Dal Singh","Address":"Kaithwari p.s. Rohta","Phone":"9639090680"},{"Name":"Sanjeev","so":"Jagroshan","Address":"Kaithwari p.s. Rohta","Phone":"9411696459"},{"Name":"Santi Swaroop","so":"Rajeram","Address":"Kaithwari p.s. Rohta","Phone":"9761727254"}],"armsLicenseHolder":[{"Name":"Shri Haridwar Singh","so":"Jagdev Singh","Address":"Kaithwari p.s. Rohta","Phone":"Nil","Weapon":"SBBL"},{"Name":"Mahender Singh","so":"Jagat Singh","Address":"Kaithwari p.s. Rohta","Phone":"9412356606","Weapon":"DBBL"},{"Name":"Narender Kumar","so":"Anand Prakash","Address":"Kaithwari p.s. Rohta","Phone":"Nil","Weapon":"Rifle"},{"Name":"Vijaivir","so":"Vishambhar","Address":"Kaithwari p.s. Rohta","Phone":"8257864337","Weapon":"DBBL"},{"Name":"Rajpal","so":"Harshran","Address":"Kaithwari p.s. Rohta","Phone":"9568475122","Weapon":"DBBL"},{"Name":"Shri Niwash","so":"Hukam Singh","Address":"Kaithwari p.s. Rohta","Phone":"Nil","Weapon":"DBBL"},{"Name":"Ajaykumar","so":"Sukhvir Singh","Address":"Kaithwari p.s. Rohta","Phone":"Nil","Weapon":"DBBL"},{"Name":"Vedprakhash","so":"Malkhan","Address":"Kaithwari p.s. Rohta","Phone":"Nil","Weapon":"DBBL"},{"Name":"Sonu Tyagi","so":"Madhu Tyagi","Address":"Kaithwari p.s. Rohta","Phone":"Nil","Weapon":"Revolver"},{"Name":"Biteshwar Dyal","so":"Mangat Ram","Address":"Kaithwari p.s. Rohta","Phone":"Nil","Weapon":"DBBL"},{"Name":"Anil Kumar","so":"Ramkripal","Address":"Kaithwari p.s. Rohta","Phone":"7351814257","Weapon":"SBBL"}],"chowkidar":[{"Name":"Nil","so":"Nil","Address":"Nil","Phone":"Nil"}],"councellor":[{"Name":"Sudhir Kumar","so":"Kaithwari ","Address":"Rohta","Phone":"9690300458"}],"historySheeter":[{"Name":"Rakesh","so":"Dhrampal","Address":"Kaithwari p.s. Rohta","Status":"Present","Phone":"Nil"}],"convictedCriminals":[{"Name":"Nil","so":"Nil","Address":"Nil","crimeno":"Nil","Section":"Nil"}],"crimes5Yrs":[{"Name":"Mintosh","so":"Chidhiya","Address":"30/141/12","Status":"302 IPC","Phone":"Biniolli Baghpat"},{"Name":"Surmesh","so":"Chidhiya","Address":"30/141/12","Status":"303 IPC","Phone":"Biniolli Baghpat"},{"Name":"Chotu","so":"Chidhiya","Address":"30/141/12","Status":"304 IPC","Phone":"Biniolli Baghpat"},{"Name":"Vishal aka Poli","so":"Rishal","Address":"18/14","Status":"376 IPC,3/4 Posco Act","Phone":"Madakarimpur p.s. Khatouli Muzaffar Nagar"},{"Name":"Aslam ","so":"Hakim","Address":"53/15","Status":"302 IPC","Phone":"Kaithwari p.s. Rohta"},{"Name":"Abid","so":"Hakim","Address":"53/15","Status":"303 IPC","Phone":"Kaithwari p.s. Rohta"}],"electionCrimes":[{"Name":"Nil","so":"Nil","crimeno":"Nil","Section":"Nil","Address":"Nil"}],"politician":[{"Name":"Nil","so":"Nil","Address":"Nil","Phone":"Nil"}],"boundDownUnder":"20","vulnerabilityDetails":"Critical","warrantedCriminals":[{"Name":"Nil","so":"Nil","Address":"Nil","Phone":"Nil"}],"condition":"Good"},{"stationID":"RO-02","stationName":"Prathmik Vidhyalaya Jatola","latitude":"29.0553","longitude":"77.4750","polingCenterPhoto":"../img/mediPanchayat.png","routes":"../img/3.png","collectionPoint":"../img/3.png","population":"1200","voters":"900","villageMohalla":"Jitoula","path":"#/menu/tab/medicalDetails","respectedPpl":[{"Name":"Styaprakash","so":"Dhola Singh","Address":"Jitoula","Phone":"9412201393"},{"Name":"Mahender Singh","so":"Jumman Singh","Address":"Jitoula","Phone":"8720591300"},{"Name":"Satapal","so":"Shiv Nrayan","Address":"Jitoula","Phone":"9358082844"},{"Name":"Jile Singh","so":"Kale","Address":"Jitoula","Phone":"8412864671"},{"Name":"Prem raj","so":"Arjun","Address":"Jitoula","Phone":"N/A"}],"retiredGovtSer":[{"Name":"Ramvir Singh","so":"Ramfhal","Address":"Jitoula","Phone":"Nil"},{"Name":"Pushpender","so":"Ramvir","Address":"Jitoula","Phone":"Nil"}],"neighbourPolling":[{"Name":"Suberam","so":"Aflatun","Address":"Jitoula","Phone":"9536111770"},{"Name":"Lilu","so":"Charni","Address":"Jitoula","Phone":"9557305090"},{"Name":"Mahavir","so":"Ramswroop","Address":"Jitoula","Phone":"9557575301"},{"Name":"Shiv Charan","so":"Amar Singh","Address":"Jitoula","Phone":"Nil"},{"Name":"Sudarsan Singh","so":"Shiv Charn","Address":"Jitoula","Phone":"Nil"}],"armsLicenseHolder":[{"Name":"Jitender Rathi","so":"Mahender Singh","Address":"Jitoula","Phone":"8720591300","Weapon":"Rifle"},{"Name":"Satender Rathi","so":"Satypal","Address":"Jitoula","Phone":"Nil","Weapon":"Rifle"},{"Name":"Kapil","so":"Dhoom Singh","Address":"Jitoula","Phone":"Nil","Weapon":"Rifle"},{"Name":"Styaprakash","so":"Dhola Singh","Address":"Jitoula","Phone":"9412201393","Weapon":"Rifle"},{"Name":"Jaypal ","so":"Hansa","Address":"Jitoula","Phone":"Nil","Weapon":"SBBL"},{"Name":"Prem Raj","so":"Girwar Singh","Address":"Jitoula","Phone":"Nil","Weapon":"DBBL"},{"Name":"Umesh","so":"Hemchander","Address":"Jitoula","Phone":"7830202021","Weapon":"Rifle, Revolver"},{"Name":"Ramvir","so":"Ramfhal","Address":"Jitoula","Phone":"Nil","Weapon":"Rifle"},{"Name":"Sunder","so":"Harpal","Address":"Jitoula","Phone":"9012276364","Weapon":"Pistel"},{"Name":"Lokesh","so":"Styprakash","Address":"Jitoula","Phone":"9927900882","Weapon":"Pistel"}],"chowkidar":[{"Name":"Nil","so":"Nil","Address":"Nil","Phone":"Nil"}],"councellor":[{"Name":"Smt. Anita Devi","so":"Nil ","Address":"Jitoula p.s. Rohta","Phone":"9758694915"}],"historySheeter":[{"Name":"Nil","so":"Nil","Address":"Nil","Status":"Nil","Phone":"Nil"}],"convictedCriminals":[{"Name":"Nil","so":"Nil","Address":"Nil","crimeno":"Nil","Section":"Nil"}],"crimes5Yrs":[{"Name":"Omprakash","so":"Premraj","Address":"113/15","Status":"452,323,504,506 IPC,3(1)X SC/ST Act","Phone":"Jitoula p.s. Rohta","":null},{"Name":"Hariom","so":"Premraj","Address":"113/15","Status":"452,323,504,506 IPC,3(1)X SC/ST Act","Phone":"Jitoula p.s. Rohta","":null},{"Name":"Rahul","so":"Balvir Singh","Address":"113/15","Status":"452,323,504,506 IPC,3(1)X SC/ST Act","Phone":"Jitoula p.s. Rohta","":null}],"electionCrimes":[{"Name":"Nil","so":"Nil","crimeno":"Nil","Section":"Nil","Address":"Nil"}],"politician":[{"Name":"Nil","so":"Nil","Address":"Nil","Phone":"Nil"}],"boundDownUnder":"15","vulnerabilityDetails":"Critical","warrantedCriminals":[{"Name":"Nil","so":"Nil","Address":"Nil","Phone":"Nil"}],"condition":"Good"},{"stationID":"RO-03","stationName":"Ucch Prathmik Vidhyalaya Kinouni 01","latitude":"29.0569","longitude":" 77.4706","polingCenterPhoto":"../img/mediPanchayat.png","routes":"../img/3.png","collectionPoint":"../img/3.png","population":"10000","voters":"4300","villageMohalla":"Kinouni","path":"#/menu/tab/medicalDetails","respectedPpl":[{"Name":"Kiran Singh","so":"Sunahri Singh","Address":"Kinouni p.s. Rohta","Phone":"Nil"},{"Name":"Sobharam","so":"Jutar Singh","Address":"Kinouni p.s. Rohta","Phone":"Nil"},{"Name":"Mahender Singh","so":"Pemma Singh","Address":"Kinouni p.s. Rohta","Phone":"Nil"},{"Name":"Mangat Singh","so":"Mamraj","Address":"Kinouni p.s. Rohta","Phone":"Nil"},{"Name":"Raghubar","so":"Shriram","Address":"Kinouni p.s. Rohta","Phone":"Nil"},{"Name":"Mahkar","so":"Baburam","Address":"Kinouni p.s. Rohta","Phone":"9761570156"}],"retiredGovtSer":[{"Name":"Vedram aka Vedprakash","so":"Premraj","Address":"Kinouni P.s. Rohta","Phone":"9045933384"},{"Name":"Jaibhagwan ","so":"Asharam","Address":"Kinouni P.s. Rohta","Phone":"8533835880"},{"Name":"Shri Krishan","so":"Ramanand","Address":"Kinouni P.s. Rohta","Phone":"9719659270"},{"Name":"Madan pal","so":"Surajmal","Address":"Kinouni P.s. Rohta","Phone":"N/A"},{"Name":"Dharmvir","so":"Kattu","Address":"Kinouni P.s. Rohta","Phone":"8273896206"},{"Name":"Jeet Singh","so":"RamBal","Address":"Kinouni P.s. Rohta","Phone":"7417661565"}],"neighbourPolling":[{"Name":"Raju","so":"Tikam","Address":"Kinouni P.s. Rohta","Phone":"7251900065"},{"Name":"Gyanander","so":"Chandru","Address":"Kinouni P.s. Rohta","Phone":"9536055390"},{"Name":"Ranveer Singh","so":"Dhoom Singh","Address":"Kinouni P.s. Rohta","Phone":"Nil"},{"Name":"Vijender Singh","so":"Mir Singh","Address":"Kinouni P.s. Rohta","Phone":"8445024200"},{"Name":"Stpal Sharma","so":"Raghuvir","Address":"Kinouni P.s. Rohta","Phone":"9720520769"}],"armsLicenseHolder":[{"Name":"Jagpal Singh","so":"Rambal Singh","Address":"Kinouni P.s. Rohta","Phone":"8744064031","Weapon":"Rifle"},{"Name":"Jeet Singh","so":"Rambal Singh","Address":"Kinouni P.s. Rohta","Phone":"7417661565","Weapon":"DBBL"},{"Name":"Bikari Singh","so":"Samar Singh","Address":"Kinouni P.s. Rohta","Phone":null,"Weapon":"DBBL"},{"Name":"Anil Kumar","so":"Uday Singh","Address":"Kinouni P.s. Rohta","Phone":"9520659595","Weapon":"Rifle"},{"Name":"Udayvir","so":"Bhagmal","Address":"Kinouni P.s. Rohta","Phone":"9058538564","Weapon":"DBBL"},{"Name":"Devender ","so":"Dharmpal","Address":"Kinouni P.s. Rohta","Phone":"9758583231","Weapon":"Rifle"},{"Name":"rajpal","so":"Rampal","Address":"Kinouni P.s. Rohta","Phone":"9568464390","Weapon":"Rifle"},{"Name":"Vegraj","so":"Chandru","Address":"Kinouni P.s. Rohta","Phone":"9758156500","Weapon":"Rifle"},{"Name":"Amit Kumar ","so":"Jairam","Address":"Kinouni P.s. Rohta","Phone":"9536363630","Weapon":"Rifle"},{"Name":"Devender ","so":"Jairam","Address":"Kinouni P.s. Rohta","Phone":"9536953631","Weapon":"Pistel"},{"Name":"Sndeep","so":"Hariraj","Address":"Kinouni P.s. Rohta","Phone":"9719341888","Weapon":"Revolver"},{"Name":"Hariraj","so":"Chandru","Address":"Kinouni P.s. Rohta","Phone":"9675365063","Weapon":"Rifle"}],"chowkidar":[{"Name":"Nil","so":"Nil","Address":"Nil","Phone":"Nil"}],"councellor":[{"Name":"Smt. Biram wati","so":"Nil ","Address":"Kinouni P.s. Rohta","Phone":"9536363630"}],"historySheeter":[{"Name":"Ramesh","so":"Ataru Gujjar","Address":"Kinouni P.s. Rohta","Status":"Present","Phone":"Nil"},{"Name":"Sunil","so":"Duli Chand","Address":"Kinouni P.s. Rohta","Status":"Missing","Phone":"Nil"},{"Name":"Satvir","so":"Duli Chand","Address":"Kinouni P.s. Rohta","Status":"Missing","Phone":"Nil"},{"Name":"Rishipal","so":"Prem Singh","Address":"Kinouni P.s. Rohta","Status":"Present","Phone":"Nil"},{"Name":"Bagga aka Dharmpal","so":"Swaroop","Address":"Kinouni P.s. Rohta","Status":"Present","Phone":"Nil"},{"Name":"Raje","so":"Bhola","Address":"Kinouni P.s. Rohta","Status":"Present","Phone":"Nil"},{"Name":"Rajender aka Jalinder","so":"Sher Singh","Address":"Kinouni P.s. Rohta","Status":"Present","Phone":"Nil"}],"convictedCriminals":[{"Name":"Nil","so":"Nil","Address":"Nil","crimeno":"Nil","Section":"Nil"}],"crimes5Yrs":[{"Name":"Haiom","so":"Chamanpal","Address":"181/16","Status":"302,120B IPC","Phone":"Kinouni P.s. Rohta"},{"Name":"Cahmanpal ","so":"Fharte Singh","Address":"181/16","Status":"302,120B IPC","Phone":"Kinouni P.s. Rohta"},{"Name":"Preeti","so":"w/o Hariom","Address":"181/16","Status":"302,120B IPC","Phone":"Kinouni P.s. Rohta"},{"Name":"Yogesh","so":"Santar Pal","Address":"79/16","Status":"392,411 IPC","Phone":"Kinouni P.s. Rohta"}],"electionCrimes":[{"Name":"Nil","so":"Nil","crimeno":"Nil","Section":"Nil","Address":"Nil"}],"politician":[{"Name":"Nil","so":"Nil","Address":"Nil","Phone":"Nil"}],"boundDownUnder":"25","vulnerabilityDetails":"Very Critical","warrantedCriminals":[{"Name":"Nil","so":"Nil","Address":"Nil","Phone":"Nil"}],"condition":"Good"},{"stationID":"RO-04","stationName":"Ucch Prathmik Vidhyalaya Kinouni 02","latitude":"29.0428","longitude":"  77.4714","polingCenterPhoto":"../img/mediPanchayat.png","routes":"../img/3.png","collectionPoint":"../img/3.png","population":"10000","voters":"4300","villageMohalla":"Kinouni","path":"#/menu/tab/medicalDetails","respectedPpl":[{"Name":"Kiran Singh","so":"Sunahri Singh","Address":"Kinouni p.s. Rohta","Phone":"Nil"},{"Name":"Sobharam","so":"Jutar Singh","Address":"Kinouni p.s. Rohta","Phone":"Nil"},{"Name":"Mahender Singh","so":"Pemma Singh","Address":"Kinouni p.s. Rohta","Phone":"Nil"},{"Name":"Mangat Singh","so":"Mamraj","Address":"Kinouni p.s. Rohta","Phone":"Nil"},{"Name":"Raghubar","so":"Shriram","Address":"Kinouni p.s. Rohta","Phone":"Nil"},{"Name":"Mahkar","so":"Baburam","Address":"Kinouni p.s. Rohta","Phone":"9761570156"}],"retiredGovtSer":[{"Name":"Vedram aka Vedprakash","so":"Premraj","Address":"Kinouni P.s. Rohta","Phone":"9045933384"},{"Name":"Jaibhagwan ","so":"Asharam","Address":"Kinouni P.s. Rohta","Phone":"8533835880"},{"Name":"Shri Krishan","so":"Ramanand","Address":"Kinouni P.s. Rohta","Phone":"9719659270"},{"Name":"Madan pal","so":"Surajmal","Address":"Kinouni P.s. Rohta","Phone":"N/A"},{"Name":"Dharmvir","so":"Kattu","Address":"Kinouni P.s. Rohta","Phone":"8273896206"},{"Name":"Jeet Singh","so":"RamBal","Address":"Kinouni P.s. Rohta","Phone":"7417661565"}],"neighbourPolling":[{"Virpal":"rishipal","Kiran Singh":"Bhupender Singh","Kinouni P.s. Rohata":"Kinouni P.s. Rohata","8449964670":"7417936564"}],"armsLicenseHolder":[{"Name":"Jagpal Singh","so":"Rambal Singh","Address":"Kinouni P.s. Rohta","Phone":"8744064031","Weapon":"Rifle"},{"Name":"Jeet Singh","so":"Rambal Singh","Address":"Kinouni P.s. Rohta","Phone":"7417661565","Weapon":"DBBL"},{"Name":"Bikari Singh","so":"Samar Singh","Address":"Kinouni P.s. Rohta","Phone":null,"Weapon":"DBBL"},{"Name":"Anil Kumar","so":"Uday Singh","Address":"Kinouni P.s. Rohta","Phone":"9520659595","Weapon":"Rifle"},{"Name":"Udayvir","so":"Bhagmal","Address":"Kinouni P.s. Rohta","Phone":"9058538564","Weapon":"DBBL"},{"Name":"Devender ","so":"Dharmpal","Address":"Kinouni P.s. Rohta","Phone":"9758583231","Weapon":"Rifle"},{"Name":"rajpal","so":"Rampal","Address":"Kinouni P.s. Rohta","Phone":"9568464390","Weapon":"Rifle"},{"Name":"Vegraj","so":"Chandru","Address":"Kinouni P.s. Rohta","Phone":"9758156500","Weapon":"Rifle"},{"Name":"Amit Kumar ","so":"Jairam","Address":"Kinouni P.s. Rohta","Phone":"9536363630","Weapon":"Rifle"},{"Name":"Devender ","so":"Jairam","Address":"Kinouni P.s. Rohta","Phone":"9536953631","Weapon":"Pistel"},{"Name":"Sndeep","so":"Hariraj","Address":"Kinouni P.s. Rohta","Phone":"9719341888","Weapon":"Revolver"},{"Name":"Hariraj","so":"Chandru","Address":"Kinouni P.s. Rohta","Phone":"9675365063","Weapon":"Rifle"}],"chowkidar":[{"Name":"Nil","so":"Nil","Address":"Nil","Phone":"Nil"}],"councellor":[{"Name":"Smt. Biram wati","so":"Nil ","Address":"Kinouni P.s. Rohta","Phone":"9536363630"}],"historySheeter":[{"Name":"Ramesh","so":"Ataru Gujjar","Address":"Kinouni P.s. Rohta","Status":"Present","Phone":"Nil"},{"Name":"Sunil","so":"Duli Chand","Address":"Kinouni P.s. Rohta","Status":"Missing","Phone":"Nil"},{"Name":"Satvir","so":"Duli Chand","Address":"Kinouni P.s. Rohta","Status":"Missing","Phone":"Nil"},{"Name":"Rishipal","so":"Prem Singh","Address":"Kinouni P.s. Rohta","Status":"Present","Phone":"Nil"},{"Name":"Bagga aka Dharmpal","so":"Swaroop","Address":"Kinouni P.s. Rohta","Status":"Present","Phone":"Nil"},{"Name":"Raje","so":"Bhola","Address":"Kinouni P.s. Rohta","Status":"Present","Phone":"Nil"},{"Name":"Rajender aka Jalinder","so":"Sher Singh","Address":"Kinouni P.s. Rohta","Status":"Present","Phone":"Nil"}],"convictedCriminals":[{"Name":"Nil","so":"Nil","Address":"Nil","crimeno":"Nil","Section":"Nil"}],"crimes5Yrs":[{"Name":"Haiom","so":"Chamanpal","Address":"181/16","Status":"302,120B IPC","Phone":"Kinouni P.s. Rohta"},{"Name":"Cahmanpal ","so":"Fharte Singh","Address":"181/16","Status":"302,120B IPC","Phone":"Kinouni P.s. Rohta"},{"Name":"Preeti","so":"w/o Hariom","Address":"181/16","Status":"302,120B IPC","Phone":"Kinouni P.s. Rohta"},{"Name":"Yogesh","so":"Santar Pal","Address":"79/16","Status":"392,411 IPC","Phone":"Kinouni P.s. Rohta"}],"electionCrimes":[{"Name":"Nil","so":"Nil","crimeno":"Nil","Section":"Nil","Address":"Nil"}],"politician":[{"Name":"Nil","so":"Nil","Address":"Nil","Phone":"Nil"}],"boundDownUnder":"25","vulnerabilityDetails":"Very Critical","warrantedCriminals":[{"Name":"Nil","so":"Nil","Address":"Nil","Phone":"Nil"}],"condition":"Good"},{"stationID":"RO-05","stationName":"Prathmik Vidhyalaya Rasulpur Zahid","latitude":"29.0348","longitude":"77.4709","polingCenterPhoto":"../img/mediPanchayat.png","routes":"../img/3.png","collectionPoint":"../img/3.png","population":"4000","voters":"1800","villageMohalla":"Rasulpur Zahid","path":"#/menu/tab/medicalDetails","respectedPpl":[{"Name":"Lokesh Kumar","so":"Dharmvir Singh","Address":"Rasulpur Zahid p.s. Rahta","Phone":"9927952023"},{"Name":"Dinesh Sharma","so":"Sagar Mal","Address":"Rasulpur Zahid p.s. Rahta","Phone":"9756119464"},{"Name":"Sobir","so":"Jagvir","Address":"Rasulpur Zahid p.s. Rahta","Phone":"9759733960"},{"Name":"Subhash","so":"Vegraj","Address":"Rasulpur Zahid p.s. Rahta","Phone":"9639924095"},{"Name":"Azad","so":"Bediram","Address":"Rasulpur Zahid p.s. Rahta","Phone":"9997217963"}],"retiredGovtSer":[{"Name":"Rajpal","so":"Dariyab","Address":"Rasulpur Zahid p.s. Rahta","Phone":"Nil"},{"Name":"Rajvir","so":"Tek Chand","Address":"Rasulpur Zahid p.s. Rahta","Phone":"9690734298"},{"Name":"Prakash","so":"Mathura","Address":"Rasulpur Zahid p.s. Rahta","Phone":"7500802492"},{"Name":"Charanpal","so":"Shri Chand","Address":"Rasulpur Zahid p.s. Rahta","Phone":"9759609957"},{"Name":"Lallulal","so":"Birumal","Address":"Rasulpur Zahid p.s. Rahta","Phone":"Nil"},{"Name":"Surender Sharma ","so":"Baburam","Address":"Rasulpur Zahid p.s. Rahta","Phone":"9761024833"},{"Name":"Prem Chand","so":"Dhan Singh","Address":"Rasulpur Zahid p.s. Rahta","Phone":"Nil"},{"Name":"Rajpal","so":"Dharmvir","Address":"Rasulpur Zahid p.s. Rahta","Phone":"Nil"},{"Name":"Jaipal","so":"Surja","Address":"Rasulpur Zahid p.s. Rahta","Phone":"9917713967"}],"neighbourPolling":[{"Sanjai Singh":"Mahender","Prakash":"Baliya","Rasulpur Zahid p.s. Rahta":"Rasulpur Zahid p.s. Rahta","9811644484":"Nil"},{"Sanjai Singh":"Radhey Shyam","Prakash":"Lal Singh","Rasulpur Zahid p.s. Rahta":"Rasulpur Zahid p.s. Rahta","9811644484":"Nil"}],"armsLicenseHolder":[{"Ranveer Singh":"Sopal,  Singh","Hardan Singh":"Dharmpal Singh","Rasulpur Zahid p.s. Rahta":"Rasulpur Zahid p.s. Rahta","Nil":"9018365662","DBBL":"Rifle"},{"Ranveer Singh":"Rampal ","Hardan Singh":"Chandan","Rasulpur Zahid p.s. Rahta":"Rasulpur Zahid p.s. Rahta","Nil":"8439132981","DBBL":"DBBL"},{"Ranveer Singh":"Mahesh","Hardan Singh":"Jile Singh","Rasulpur Zahid p.s. Rahta":"Rasulpur Zahid p.s. Rahta","Nil":"9411826863","DBBL":"Pistel"},{"Ranveer Singh":"Ramesh Chand ","Hardan Singh":"Jile Singh","Rasulpur Zahid p.s. Rahta":"Rasulpur Zahid p.s. Rahta","Nil":"9411264157","DBBL":"DBBL"},{"Ranveer Singh":"Vedpal ","Hardan Singh":"Suraj Mal","Rasulpur Zahid p.s. Rahta":"Rasulpur Zahid p.s. Rahta","Nil":"8449336263","DBBL":"DBBL"},{"Ranveer Singh":"Nirankar","Hardan Singh":"Shri Chand","Rasulpur Zahid p.s. Rahta":"Rasulpur Zahid p.s. Rahta","Nil":"8126084182","DBBL":"Rifle"},{"Ranveer Singh":"Surender","Hardan Singh":"Baburam","Rasulpur Zahid p.s. Rahta":"Rasulpur Zahid p.s. Rahta","Nil":"9761024833","DBBL":"SBBL"},{"Ranveer Singh":"Sonveer ","Hardan Singh":"Raghunath","Rasulpur Zahid p.s. Rahta":"Rasulpur Zahid p.s. Rahta","Nil":"9719418833","DBBL":"Rifle"},{"Ranveer Singh":"Satish","Hardan Singh":"Jaganlal","Rasulpur Zahid p.s. Rahta":"Rasulpur Zahid p.s. Rahta","Nil":"Nil","DBBL":"Pistel"}],"chowkidar":[{"Name":"Nil","so":"Nil","Address":"Nil","Phone":"Nil"}],"councellor":[{"Name":"Smt. Amresh Devi","so":"Nil ","Address":"RasulpurÂ Zahid p.s. Rohta","Phone":"9811644484"}],"historySheeter":[{"Name":"Nil","so":"Nil","Address":"Nil","Status":"Nil","Phone":"Nil"}],"convictedCriminals":[{"Name":"Nil","so":"Nil","Address":"Nil","crimeno":"Nil","Section":"Nil"}],"crimes5Yrs":[{"Name":"Ankur","so":"Rakesh","Address":"25/13","Status":"376 IPC","Phone":"Rasulpur Zahid p.s. Rahta"},{"Name":"Guddu aka Nishant","so":"Omprakash","Address":"25/13","Status":"376 IPC","Phone":"Rasulpur Zahid p.s. Rahta"},{"Name":"Jitender","so":"Rajpal","Address":"25/13","Status":"376 IPC","Phone":"Rasulpur Zahid p.s. Rahta"},{"Name":"Navneet","so":"Jaivir","Address":"56/13","Status":"354,392,498 IPC","Phone":"Rasulpur Zahid p.s. Rahta"}],"electionCrimes":[{"Name":"Nil","so":"Nil","crimeno":"Nil","Section":"Nil","Address":"Nil"}],"politician":[{"Name":"Nil","so":"Nil","Address":"Nil","Phone":"Nil"}],"boundDownUnder":"20","vulnerabilityDetails":"Very Critical","warrantedCriminals":[{"Name":"Nil","so":"Nil","Address":"Nil","Phone":"Nil"}],"condition":"Good"},{"stationID":"RO-06","stationName":"Prathmik Vidyalaya Uksiya","latitude":"29.0282","longitude":"77.4687","polingCenterPhoto":"../img/mediPanchayat.png","routes":"../img/3.png","collectionPoint":"../img/3.png","population":"3000","voters":"950","villageMohalla":"Ukashiya","path":"#/menu/tab/medicalDetails","respectedPpl":[{"Name":"Bhajanlal","so":"Asharam","Address":"Ukashiya p.s. Rohta","Phone":"Nil"},{"Name":"Mahesh","so":"Hansha","Address":"Ukashiya p.s. Rohta","Phone":"9756952451"},{"Name":"Pappu ","so":"Rumal Singh","Address":"Ukashiya p.s. Rohta","Phone":"9758666591"},{"Name":"Satpal","so":"Hanshraj","Address":"Ukashiya p.s. Rohta","Phone":"9837374972"},{"Name":"MAhesh","so":"Mahavir","Address":"Ukashiya p.s. Rohta","Phone":"9719769632"},{"Name":"Arvind","so":"Raghunath","Address":"Ukashiya p.s. Rohta","Phone":"8126733906"},{"Name":"Shyamlal","so":"Sibba","Address":"Ukashiya p.s. Rohta","Phone":"9897562433"},{"Name":"Dalchand","so":"Nanak","Address":"Ukashiya p.s. Rohta","Phone":"8272887245"}],"retiredGovtSer":[{"Name":"Karam Singh","so":"Gusshu","Address":"Ukashiya p.s. Rohta","Phone":"Nil"},{"Name":"Jaipal","so":"Shyamu","Address":"Ukashiya p.s. Rohta","Phone":"Nil"},{"Name":"Biram Singh","so":"Lile","Address":"Ukashiya p.s. Rohta","Phone":"Nil"},{"Name":"Kem Singh","so":"Balwant","Address":"Ukashiya p.s. Rohta","Phone":"Nil"}],"neighbourPolling":[{"Name":"Rajender","so":"Hansha","Address":"Ukashiya p.s. Rohta","Phone":"8273845409"},{"Name":"Fhire Ram","so":"Bhulan","Address":"Ukashiya p.s. Rohta","Phone":"9760420140"},{"Name":"Pritam Singh","so":"Asharam","Address":"Ukashiya p.s. Rohta","Phone":"Nil"},{"Name":"Stpal","so":"Hanshraj","Address":"Ukashiya p.s. Rohta","Phone":"9837374972"}],"armsLicenseHolder":[{"Name":"Shri bhajan Lal","so":"Asha ram","Address":"Ukashiya p.s. Rohta","Phone":"Nil","Weapon":"DBBL"},{"Name":"Viram","so":"Lille","Address":"Ukashiya p.s. Rohta","Phone":"Nil","Weapon":"DBBL"}],"chowkidar":[{"Name":"mahendra Singh","so":"Nil","Address":"Ukashiya p.s. Rohta","Phone":"Nil"}],"councellor":[{"Name":"Shrimati Kamlesh Devi","so":"Nil ","Address":"kashiya p.s. Rohta","Phone":"7500948271"}],"historySheeter":[{"Name":"Nil","so":"Nil","Address":"Nil","Status":"Nil","Phone":"Nil"}],"convictedCriminals":[{"Name":"Nil","so":"Nil","Address":"Nil","crimeno":"Nil","Section":"Nil"}],"crimes5Yrs":[{"Name":"Nil","so":"Nil","Address":"Nil","Status":"Nil","Phone":"Nil"}],"electionCrimes":[{"Name":"Nil","so":"Nil","crimeno":"Nil","Section":"Nil","Address":"Nil"}],"politician":[{"Name":"Nil","so":"Nil","Address":"Nil","Phone":"Nil"}],"boundDownUnder":"20","vulnerabilityDetails":"Critical","warrantedCriminals":[{"Name":"Nil","so":"Nil","Address":"Nil","Phone":"Nil"}],"condition":"Good"},{"stationID":"RO-07","stationName":"Prathmik Vidyalaya Yerot","latitude":"29.0163","longitude":"77.4838","polingCenterPhoto":"../img/mediPanchayat.png","routes":"../img/3.png","collectionPoint":"../img/3.png","population":"3000","voters":"1800","villageMohalla":"Thirot","path":"#/menu/tab/medicalDetails","respectedPpl":[{"Name":"Jeet Singh","so":"Khem Chand","Address":"Thirot p/s Rohta","Phone":"9756111137"},{"Name":"Tony","so":"Bhagwan Shay","Address":"Thirot p/s Rohta","Phone":"9690834343"},{"Name":"Lakhmi","so":"Shri Chand","Address":"Thirot p/s Rohta","Phone":"9756950531"},{"Name":"Akbar","so":"Jumma","Address":"Thirot p/s Rohta","Phone":"9837654870"},{"Name":"Ganga Sharan","so":"Banarsi","Address":"Thirot p/s Rohta","Phone":"9639522557"}],"retiredGovtSer":[{"Name":"Nil","so":"Nil","Address":"Nil","Phone":"Nil"}],"neighbourPolling":[{"Name":"Mahendra Saini","so":"Raje","Address":"Thirot P/s Rohta","Phone":"9568099205"},{"Name":"Surender saini","so":"Babu Ram","Address":"Thirot P/s Rohta","Phone":"9917105463"},{"Name":"Jagdeesh Saini","so":"Babu Ram","Address":"Thirot P/s Rohta","Phone":"9639312580"},{"Name":"Lakhmi Saini","so":"Shri Chand","Address":"Thirot P/s Rohta","Phone":"9756950531"}],"armsLicenseHolder":[{"Name":"Nil","so":"Nil","Address":"Nil","Phone":"Nil","Weapon":"Nil"}],"chowkidar":[{"Name":"Krishan Pal","so":"Nil","Address":"Thirot P/s Rohta","Phone":"8057335959"}],"councellor":[{"Name":"Shri Raj Pal Singh ","so":"Nil ","Address":"Thirot P/s Rohta","Phone":"9997404061"}],"historySheeter":[{"Name":"Irshad","so":"Munna Taile","Address":"Thirot P/s Rohta","Status":"Present ","Phone":"Nil"}],"convictedCriminals":[{"Name":"Nil","so":"Nil","Address":"Nil","crimeno":"Nil","Section":"Nil"}],"crimes5Yrs":[{"Name":"Shamshida","so":"W/O Mehboob","crimeno":"254/15","Section":"147,302,201 IPC","Address":"Thirot p/s Rohta"},{"Name":"Mehboob","so":"Munna","crimeno":"254/15","Section":"147,302,201 IPC","Address":"Thirot p/s Rohta"},{"Name":"Irshad","so":"Munna","crimeno":"254/15","Section":"147,302,201 IPC","Address":"Thirot p/s Rohta"},{"Name":"Yonous","so":"Munna","crimeno":"254/15","Section":"147,302,201 IPC","Address":"Thirot p/s Rohta"},{"Name":"Rizwan","so":"Shareef","crimeno":"254/15","Section":"147,302,201 IPC","Address":"Thirot p/s Rohta"}],"electionCrimes":[{"Name":"Nil","so":"Nil","crimeno":"Nil","Section":"Nil","Address":"Nil"}],"politician":[{"Name":"Nil","so":"Nil","Address":"Nil","Phone":"Nil"}],"boundDownUnder":"20","vulnerabilityDetails":"Critical","warrantedCriminals":[{"Name":"Nil","so":"Nil","Address":"Nil","Phone":"Nil"}],"condition":"Good"},{"stationID":"RO-08","stationName":"Prathmik Vidyalaya Kalyanpur","latitude":"29.0080","longitude":"77.4839","polingCenterPhoto":"../img/mediPanchayat.png","routes":"../img/3.png","collectionPoint":"../img/3.png","population":"4000","voters":"1900","villageMohalla":"Kalyanpur","path":"#/menu/tab/medicalDetails","respectedPpl":[{"Name":"Ashok Kumar","so":"Harvir Singh","Address":"Kalyanpur p.s. Rohta","Phone":"8273421212"},{"Name":"Virender ","so":"Raj Singh","Address":"Kalyanpur p.s. Rohta","Phone":"8938830881"},{"Name":"Kawal Singh","so":"Dhram Singh","Address":"Kalyanpur p.s. Rohta","Phone":"9411261212"},{"Name":"Suraj Bhan","so":"Dharm Singh","Address":"Kalyanpur p.s. Rohta","Phone":"7351062382"},{"Name":"Rajender","so":"Manglu","Address":"Kalyanpur p.s. Rohta","Phone":"9917367129"}],"retiredGovtSer":[{"Name":"Ramprakash Sharma","so":"Khacheru","Address":"Kalyanpur p.s. Rohta","Phone":"Nil"},{"Name":"Virender","so":"Raj Singh","Address":"Kalyanpur p.s. Rohta","Phone":"8938830881"},{"Name":"Balwan","so":"Dharm Singh","Address":"Kalyanpur p.s. Rohta","Phone":"8449963893"},{"Name":"Data Ram","so":"Lal Singh","Address":"Kalyanpur p.s. Rohta","Phone":"Nil"},{"Name":"Sanjeev","so":"Harvir Singh","Address":"Kalyanpur p.s. Rohta","Phone":"9412625834"}],"neighbourPolling":[{"Name":"Rajender Sharma ","so":"Bhagwat Sharma","Address":"Kalyanpur p.s. Rohta","Phone":"9927750131"},{"Name":"Sanjay Sharma","so":"Rajvir Sharma","Address":"Kalyanpur p.s. Rohta","Phone":"9639883361"},{"Name":"Haiom Sharma","so":"Rajpal Sharma","Address":"Kalyanpur p.s. Rohta","Phone":"Nil"},{"Name":"Harpal Sharma","so":"Raghuvir Sharma","Address":"Kalyanpur p.s. Rohta","Phone":"Nil"},{"Name":"Rajkumar","so":"Hoshiyari","Address":"Kalyanpur p.s. Rohta","Phone":"9759594748"}],"armsLicenseHolder":[{"Name":"Vinod Kumar","so":"Charn Singh","Address":"Kalyanpur p.s. Rohta","Phone":"9411641619","Weapon":"SBBL"},{"Name":"Brijesh","so":"Styapal","Address":"Kalyanpur p.s. Rohta","Phone":"Nil","Weapon":"SBBL"},{"Name":"Jitender","so":"Ranveer","Address":"Kalyanpur p.s. Rohta","Phone":"Nil","Weapon":"DBBL"},{"Name":"Baburam ","so":"Kudhe Singh","Address":"Kalyanpur p.s. Rohta","Phone":"Nil","Weapon":"DBBL"},{"Name":"Krishanpal","so":"Ganga Das ","Address":"Kalyanpur p.s. Rohta","Phone":"Nil","Weapon":"SBBL"},{"Name":"Baburam ","so":"Bhuleram","Address":"Kalyanpur p.s. Rohta","Phone":"Nil","Weapon":"Revolver"},{"Name":"Satpal","so":"Ramkripal","Address":"Kalyanpur p.s. Rohta","Phone":"Nil","Weapon":"SBBL"},{"Name":"Ramprakash","so":"Khachru Singh","Address":"Kalyanpur p.s. Rohta","Phone":"Nil","Weapon":"DBBL"}],"chowkidar":[{"Name":"Nil","so":"Nil","Address":"Nil ","Phone":"Nil"}],"councellor":[{"Name":"Sudhir Singh  ","so":"Nil ","Address":"Kalyanpur p.s. Rohta","Phone":"9286768492"}],"historySheeter":[{"Name":"Nil","so":"Nil","Address":"Nil","Status":"Nil ","Phone":"Nil"}],"convictedCriminals":[{"Name":"Nil","so":"Nil","Address":"Nil","crimeno":"Nil","Section":"Nil"}],"crimes5Yrs":[{"Name":"Vikash","so":"Kalu","crimeno":"116/12","Section":"307,506 IPC","Address":"Kalyanpur p.s. Rohta"},{"Name":"Anuj","so":"Devender","crimeno":"116/12","Section":"307,506 IPC","Address":"Kalyanpur p.s. Rohta"},{"Name":"Vinod","so":"Ramniwash","crimeno":"116/12","Section":"307,506 IPC","Address":"Kalyanpur p.s. Rohta"},{"Name":"Bindu","so":"Ranveer","crimeno":"116/12","Section":"307,506 IPC","Address":"Kalyanpur p.s. Rohta"}],"electionCrimes":[{"Name":"Nil","so":"Nil","crimeno":"Nil","Section":"Nil","Address":"Nil"}],"politician":[{"Name":"Nil","so":"Nil","Address":"Nil","Phone":"Nil"}],"boundDownUnder":"19","vulnerabilityDetails":"Very Critical","warrantedCriminals":[{"Name":"Nil","so":"Nil","Address":"Nil","Phone":"Nil"}],"condition":"Good"},{"stationID":"RO-09","stationName":"Prathmik Vidyalaya Alamgirpur","latitude":"29.0071","longitude":"77.4851","polingCenterPhoto":"../img/mediPanchayat.png","routes":"../img/3.png","collectionPoint":"../img/3.png","population":"4500","voters":"1500","villageMohalla":"Alamgirpur","path":"#/menu/tab/medicalDetails","respectedPpl":[{"Name":"Ashu","so":"Nasruddin","Address":"Alamgirpur P.s. Rohta","Phone":"9557354270"},{"Name":"Sibbu","so":"Devidas","Address":"Alamgirpur P.s. Rohta","Phone":"7248280995"},{"Name":"Ramfhal","so":"Nanuwa","Address":"Alamgirpur P.s. Rohta","Phone":"Nil"},{"Name":"Ballu","so":"Bhuppan","Address":"Alamgirpur P.s. Rohta","Phone":"8449920051"},{"Name":"Bhura","so":"Washiyat","Address":"Alamgirpur P.s. Rohta","Phone":"9456951531"},{"Name":"Virender ","so":"Shiv Charan","Address":"Alamgirpur P.s. Rohta","Phone":"9411644221"}],"retiredGovtSer":[{"Name":"Abbas","so":"Khursed","Address":"Alamgirpur P.s. Rohta","Phone":"Nil"},{"Name":"Balluraw","so":"Bhuppan","Address":"Alamgirpur P.s. Rohta","Phone":"Nil"},{"Name":"Mukesh","so":"Kaluram","Address":"Alamgirpur P.s. Rohta","Phone":"Nil"},{"Name":"Ashok","so":"Dariyaou","Address":"Alamgirpur P.s. Rohta","Phone":"Nil"},{"Name":"Virender","so":"Karmu","Address":"Alamgirpur P.s. Rohta","Phone":"Nil"},{"Name":"Dharmvir","so":"Kishan","Address":"Alamgirpur P.s. Rohta","Phone":"Nil"}],"neighbourPolling":[{"Name":"Ashu","so":"Nasruddin","Address":"Alamgirpur P.s. Rohta","Phone":"9557354270"},{"Name":"Rame","so":"Mansha","Address":"Alamgirpur P.s. Rohta","Phone":"9012724655"},{"Name":"Dharmvir","so":"Lkhapat","Address":"Alamgirpur P.s. Rohta","Phone":"9917651587"},{"Name":"Devender","so":"Lkhapat","Address":"Alamgirpur P.s. Rohta","Phone":"7248073713"},{"Name":"Nimesh ","so":"Jaipal","Address":"Alamgirpur P.s. Rohta","Phone":"9219980346"},{"Name":"Satapal ","so":" Mam Chand","Address":"Alamgirpur P.s. Rohta","Phone":"9690511446"}],"armsLicenseHolder":[{"Name":"Liyakat Ali","so":"Soukat","Address":"Alamgirpur P.s. Rohtas","Phone":"9760012418","Weapon":"DBBL"},{"Name":"Ayub Ali","so":"Ashgar ALi","Address":"Alamgirpur P.s. Rohtas","Phone":"Nil","Weapon":"DBBL"},{"Name":"Asharam","so":"Khacheru","Address":"Alamgirpur P.s. Rohtas","Phone":"Nil","Weapon":"DBBL"},{"Name":"Jabbar Khan","so":"Safi Ahmad","Address":"Alamgirpur P.s. Rohtas","Phone":"Nil","Weapon":"DBBL"},{"Name":"Mohd. Salim","so":"Shafik Ahmad","Address":"Alamgirpur P.s. Rohtas","Phone":"9456685786","Weapon":"Rifle"},{"Name":"Sohanpal","so":"Malkhan","Address":"Alamgirpur P.s. Rohtas","Phone":"Nil","Weapon":"DBBL"},{"Name":"Rafi aka Munna","so":"Soukkat Ali","Address":"Alamgirpur P.s. Rohtas","Phone":"9760012418","Weapon":"Rifle"},{"Name":"Shekhar","so":"Babu Ram","Address":"Alamgirpur P.s. Rohtas","Phone":"Nil","Weapon":"Pistel"},{"Name":"Zahid","so":"Asmohammad","Address":"Alamgirpur P.s. Rohtas","Phone":"7500758203","Weapon":"Rifle"}],"chowkidar":[{"Name":"Dalchand ","so":"Nil","Address":"Alamgirpur p.s. Rohtas ","Phone":"9690311033"}],"councellor":[{"Name":"Smt. Sheema Devi  ","so":"Nil ","Address":"Alamgirpur p.s. Rohta","Phone":"9690511446"}],"historySheeter":[{"Name":"Nil","so":"Nil","Address":"Nil","Status":"Nil ","Phone":"Nil"}],"convictedCriminals":[{"Name":"Nil","so":"Nil","Address":"Nil","crimeno":"Nil","Section":"Nil"}],"crimes5Yrs":[{"Name":"Pamposh","so":"Harpal","crimeno":"125/15","Section":"307 IPC","Address":"Alamgirpur p.s. Rohta"},{"Name":"Deepender","so":"Shumer Singh","crimeno":"241/15","Section":"8/20 NDPS Act","Address":"Alamgirpur p.s. Rohta"},{"Name":"Parveen","so":"Harpal","crimeno":"241/15","Section":"8/20 NDPS Act","Address":"Alamgirpur p.s. Rohta"}],"electionCrimes":[{"Name":"Nil","so":"Nil","crimeno":"Nil","Section":"Nil","Address":"Nil"}],"politician":[{"Name":"Nil","so":"Nil","Address":"Nil","Phone":"Nil"}],"boundDownUnder":"21","vulnerabilityDetails":"Critical","warrantedCriminals":[{"Name":"Nil","so":"Nil","Address":"Nil","Phone":"Nil"}],"condition":"Good"},{"stationID":"RO-10","stationName":"Prathmik Vidyalaya ukleena","latitude":"29.0035","longitude":"77.4895","polingCenterPhoto":"../img/mediPanchayat.png","routes":"../img/3.png","collectionPoint":"../img/3.png","population":"4000","voters":"1500","villageMohalla":"Ukhleena","path":"#/menu/tab/medicalDetails","respectedPpl":[{"Name":"Jainrayan","so":"Tikaram","Address":"Ukhleena p.s. Rohta","Phone":"9639426458"},{"Name":"Rajeev","so":"Jaipal","Address":"Ukhleena p.s. Rohta","Phone":"9690566872"},{"Name":"Lakhsmi Chand","so":"Ramanand","Address":"Ukhleena p.s. Rohta","Phone":"7500306758"},{"Name":"Ravi Datt","so":"Atar Singh","Address":"Ukhleena p.s. Rohta","Phone":"9690102893"},{"Name":"Raj Singh","so":"Jabbar","Address":"Ukhleena p.s. Rohta","Phone":"9690844644"},{"Name":"Dhrampal","so":"Bnawari","Address":"Ukhleena p.s. Rohta","Phone":"9012977358"}],"retiredGovtSer":[{"Name":"Bhawar Singh","so":"Chote","Address":"Ukhleena p.s. Rohta","Phone":"Nil"},{"Name":"Gajraj","so":"Tarif","Address":"Ukhleena p.s. Rohta","Phone":"Nil"},{"Name":"Vijaipal","so":"Mir Singh","Address":"Ukhleena p.s. Rohta","Phone":"Nil"},{"Name":"Ramnrayan","so":"Ramsowaroop","Address":"Ukhleena p.s. Rohta","Phone":"Nil"},{"Name":"Ompal","so":"Ramsowaroop","Address":"Ukhleena p.s. Rohta","Phone":"9012977358"},{"Name":"Mangal Sen","so":"Atar Singh","Address":"Ukhleena p.s. Rohta","Phone":"9756828352"}],"neighbourPolling":[{"Name":"Vinod Kumar","so":"Shri Chand","Address":"Ukhleena p.s. rohata","Phone":"9690840900"},{"Name":"Manoj Kumar","so":"Lakhmi Chand","Address":"Ukhleena p.s. rohata","Phone":"9312444040"},{"Name":"Shiv Om","so":"Jagpal","Address":"Ukhleena p.s. rohata","Phone":"8958916202"},{"Name":"Pappu","so":"Raghuvir","Address":"Ukhleena p.s. rohata","Phone":"9690181959"},{"Name":"Ram gopal","so":"Shri Chand","Address":"Ukhleena p.s. rohata","Phone":"8194028099"}],"armsLicenseHolder":[{"Name":"Jaipal","so":"Shiv Charan","Address":"Ukhleena p.s. rohata","Phone":"Nil","Weapon":"DBBL"},{"Name":"Jaibhagwan","so":"Prakash","Address":"Ukhleena p.s. rohata","Phone":"Nil","Weapon":"DBBL"}],"chowkidar":[{"Name":"Zakir Ali ","so":"Nil","Address":"Ukhleena p.s. rohata ","Phone":"8475990648"}],"councellor":[{"Name":"Mukesh Kumar  ","so":"Nil ","Address":"Ukhleena p.s. rohata","Phone":"9412836715"}],"historySheeter":[{"Name":"Nil","so":"Nil","Address":"Nil","Status":"Nil ","Phone":"Nil"}],"convictedCriminals":[{"Name":"Nil","so":"Nil","Address":"Nil","crimeno":"Nil","Section":"Nil"}],"crimes5Yrs":[{"Name":"Monu aka Manohar","so":"Rakesh Sharma","crimeno":"50/14","Section":"302 IPC","Address":"Bahrampur p.s. Jani"},{"Name":"Rohit","so":"Ramvir Jaat","crimeno":"50/14","Section":"302 IPC","Address":"Dhikolla p.s. Chandi Nagar Bhagpat"},{"Name":"Rahul","so":"Anil Sharma","crimeno":"50/14","Section":"302 IPC","Address":"Kalyanpur p.s. Rohta"}],"electionCrimes":[{"Name":"Nil","so":"Nil","crimeno":"Nil","Section":"Nil","Address":"Nil"}],"politician":[{"Name":"Nil","so":"Nil","Address":"Nil","Phone":"Nil"}],"boundDownUnder":"5","vulnerabilityDetails":"Critical","warrantedCriminals":[{"Name":"Nil","so":"Nil","Address":"Nil","Phone":"Nil"}],"condition":"Good"},{"stationID":"RO-11","stationName":"Prathmik Vidyalaya Dhalampur aka Diloura","latitude":"29.0171","longitude":"77.5199","polingCenterPhoto":"../img/mediPanchayat.png","routes":"../img/3.png","collectionPoint":"../img/3.png","population":"3500","voters":"2200","villageMohalla":"Dalampur aka Diloura","path":"#/menu/tab/medicalDetails","respectedPpl":[{"Rajender":"Subhash","Kale":"Hukam Singh","Dalampur aka Diloura p.s. Rohta":"Dalampur aka Diloura p.s. Rohta","Nil":"Nil"},{"Rajender":"Jasvir","Kale":"Nekiram","Dalampur aka Diloura p.s. Rohta":"Dalampur aka Diloura p.s. Rohta","Nil":"9760987788"},{"Rajender":"Virender","Kale":"Atar Singh","Dalampur aka Diloura p.s. Rohta":"Dalampur aka Diloura p.s. Rohta","Nil":"Nil"},{"Rajender":"Rajkumar","Kale":"Pritam Singh","Dalampur aka Diloura p.s. Rohta":"Dalampur aka Diloura p.s. Rohta","Nil":"Nil"},{"Rajender":"Vir Sen","Kale":"Jagdish Singh","Dalampur aka Diloura p.s. Rohta":"Dalampur aka Diloura p.s. Rohta","Nil":"Nil"}],"retiredGovtSer":[{"Name":"Rajpal","so":"Choturam","Address":"Dalampur aka Diloura p.s. Rohta","Phone":"Nil"},{"Name":"Aman Singh","so":"Shriram","Address":"Dalampur aka Diloura p.s. Rohta","Phone":"Nil"},{"Name":"Omvir Sharma","so":"Sundda Singh","Address":"Dalampur aka Diloura p.s. Rohta","Phone":"8057307773"},{"Name":"Jagat Singh","so":"Hukam Singh","Address":"Dalampur aka Diloura p.s. Rohta","Phone":"9837130527"}],"neighbourPolling":[{"Name":"Vedpal","so":"Dilip Singh","Address":"Dalampur aka Diloura p.s. Rohta","Phone":"8006212394"},{"Name":"Surender Singh","so":"Dilip Singh","Address":"Dalampur aka Diloura p.s. Rohta","Phone":"9457479131"},{"Name":"Sanjeev","so":"Charn Singh","Address":"Dalampur aka Diloura p.s. Rohta","Phone":"9411667816"},{"Name":"Jasvir","so":"Nekiram","Address":"Dalampur aka Diloura p.s. Rohta","Phone":"Nil"}],"armsLicenseHolder":[{"Name":"Niranjan Singh","so":"Gyan Singh","Address":"Dalampur aka Diloura p.s. Rohta","Phone":"Nil","Weapon":"DBBL"},{"Name":"Brijesh Kumar ","so":"Baburam","Address":"Dalampur aka Diloura p.s. Rohta","Phone":"Nil","Weapon":"DBBL"},{"Name":"Virsen","so":"Kanak Singh","Address":"Dalampur aka Diloura p.s. Rohta","Phone":"Nil","Weapon":"Rifle"},{"Name":"Atar Singh","so":"Ganga Bali","Address":"Dalampur aka Diloura p.s. Rohta","Phone":"Nil","Weapon":"DBBL"},{"Name":"CharnSingh","so":"Dilip","Address":"Dalampur aka Diloura p.s. Rohta","Phone":"9411667816","Weapon":"DBBL"},{"Name":"Yashvir","so":"Nekiram","Address":"Dalampur aka Diloura p.s. Rohta","Phone":"9760987788","Weapon":"Rifle"},{"Name":"Vedvir ","so":"Dharampal","Address":"Dalampur aka Diloura p.s. Rohta","Phone":"Nil","Weapon":"SBBL"},{"Name":"Devi Singh","so":"Sitaram","Address":"Dalampur aka Diloura p.s. Rohta","Phone":"8126946574","Weapon":"Rifle"},{"Name":"Mahak Singh","so":"Dharam Singh","Address":"Dalampur aka Diloura p.s. Rohta","Phone":"9917004617","Weapon":"Rifle"},{"Name":"Suraj bali","so":"Atar Singh","Address":"Dalampur aka Diloura p.s. Rohta","Phone":"Nil","Weapon":"DBBL"},{"Name":"Ramdhan","so":"Hukam Singh","Address":"Dalampur aka Diloura p.s. Rohta","Phone":"9837130527","Weapon":"Rifle"},{"Name":"Jairaj Singh","so":"Hukam Singh","Address":"Dalampur aka Diloura p.s. Rohta","Phone":"9758247714","Weapon":"Rifle"},{"Name":"Niraj ","so":"Surender","Address":"Dalampur aka Diloura p.s. Rohta","Phone":"8057882170","Weapon":"Rifle"},{"Name":"Rajan","so":"Anil Kumar","Address":"Dalampur aka Diloura p.s. Rohta","Phone":"9720228418","Weapon":"Rifle"}],"chowkidar":[{"Name":"Rampal ","so":"Nil","Address":"Dalampur aka Diloura p.s. Rohta ","Phone":"7351226784"}],"councellor":[{"Name":"Smt. Mahakwati  ","2Wo":"mahak Singh ","Address":"Dalampur aka Diloura p.s. Rohta","Phone":"9917004617"}],"historySheeter":[{"Name":"Bablesh","so":"Bhawar Singh","Address":"Dalampur aka Diloura p.s. Rohta","Status":"Present ","Phone":"Nil"}],"convictedCriminals":[{"Name":"Nil","so":"Nil","Address":"Nil","crimeno":"Nil","Section":"Nil"}],"crimes5Yrs":[{"Name":"Vikash","so":"Sukarmpal","crimeno":"528/13","Section":"302 IPC","Address":"Dalampur aka Diloura p.s. Rohta"}],"electionCrimes":[{"Name":"Nil","so":"Nil","crimeno":"Nil","Section":"Nil","Address":"Nil"}],"politician":[{"Name":"Nil","so":"Nil","Address":"Nil","Phone":"Nil"}],"boundDownUnder":"30","vulnerabilityDetails":"Critical","warrantedCriminals":[{"Name":"Nil","so":"Nil","Address":"Nil","Phone":"Nil"}],"condition":"Good"},{"stationID":"RO-12","stationName":"Ucch Prathmik Vidyalaya Chindouri Khas","latitude":"29.0332","longitude":"77.5201","polingCenterPhoto":"../img/mediPanchayat.png","routes":"../img/3.png","collectionPoint":"../img/3.png","population":"12000","voters":"4000","villageMohalla":"Chindouri Khas","path":"#/menu/tab/medicalDetails","respectedPpl":[{"Name":"Soudan Singh","so":"Mahavir Singh","Address":"Chindouri Khas P.s. rohta","Phone":"8868873631"},{"Name":"Surender Singh","so":"Aman Singh","Address":"Chindouri Khas P.s. rohta","Phone":"Nil"},{"Name":"Surender aka Mrjor","so":"Mool Chand","Address":"Chindouri Khas P.s. rohta","Phone":"9639606596"},{"Name":"Krishanpal","so":"Bhopal","Address":"Chindouri Khas P.s. rohta","Phone":"9412835993"},{"Name":"Krishan","so":"RAJPAL","Address":"Chindouri Khas P.s. rohta","Phone":"Nil"},{"Name":"Lokesh","so":"Nawab Singh","Address":"Chindouri Khas P.s. rohta","Phone":"9639317600"},{"Name":"Jaikran","so":"Indraj Singh","Address":"Chindouri Khas P.s. rohta","Phone":"9411820957"},{"Name":"Jaipal","so":"Nathuram","Address":"Chindouri Khas P.s. rohta","Phone":"Nil"}],"retiredGovtSer":[{"Name":"Jeet Singh","so":"BullAn Singh","Address":"Chindouri Khas P.s. rohta","Phone":"9759646592"},{"Name":"Gajraj Singh","so":"Bula Singh","Address":"Chindouri Khas P.s. rohta","Phone":"Nil"},{"Name":"Kripal Singh","so":"Ratan Singh","Address":"Chindouri Khas P.s. rohta","Phone":"9084178958"},{"Name":"Inderpal","so":"Nanak","Address":"Chindouri Khas P.s. rohta","Phone":"Nil"},{"Name":"Ranveer ","so":"Natthu Singh","Address":"Chindouri Khas P.s. rohta","Phone":"Nil"},{"Name":"Vijender Aggrawal","so":"N/A","Address":"Chindouri Khas P.s. rohta","Phone":"Nil"},{"Name":"Premvir Singh","so":"Ram Cahran Singh","Address":"Chindouri Khas P.s. rohta","Phone":"9761836021"},{"Name":"Harvir Singh","so":"Duggi Singh","Address":"Chindouri Khas P.s. rohta","Phone":"Nil"},{"Name":"Bablu Singh","so":"Ranveer Singh","Address":"Chindouri Khas P.s. rohta","Phone":"Nil"}],"neighbourPolling":[{"Name":"Kripal Singh","so":"Alam Singh","Address":"Chindouri Khas P.s. rohta","Phone":"8958266434"},{"Name":"Jaipal Singh","so":"Sukhvir Singh","Address":"Chindouri Khas P.s. rohta","Phone":"9758368782"},{"Name":"Vinod Kumar ","so":"Krishanpal","Address":"Chindouri Khas P.s. rohta","Phone":"Nil"},{"Name":"Kawarpal","so":"Mithan Singh","Address":"Chindouri Khas P.s. rohta","Phone":"8392930746"},{"Name":"Virender Singh","so":"raghuvir Singh","Address":"Chindouri Khas P.s. rohta","Phone":"9719282370"}],"armsLicenseHolder":[{"Name":"Vedram ","so":"Horam","Address":"Chindouri Khas P.s. rohta","Phone":"Nil","Weapon":"SBBL"},{"Name":"Sanjay Singh","so":"Soudan Singh","Address":"Chindouri Khas P.s. rohta","Phone":"9634961275","Weapon":"DBBL"},{"Name":"Liyakat ","so":"Habib","Address":"Chindouri Khas P.s. rohta","Phone":"Nil","Weapon":"DBBL"},{"Name":"Amar Sinfgh","so":"Bhagwan Singh","Address":"Chindouri Khas P.s. rohta","Phone":"9897008102","Weapon":"Rifle"},{"Name":"Sanjay Singh","so":"Inderpal Singh","Address":"Chindouri Khas P.s. rohta","Phone":"9634243541","Weapon":"Pistel"}],"chowkidar":[{"Name":"Liyakat  ","so":"Nil","Address":"Chindouri Khas P.s. Rohta ","Phone":"9917294743"}],"councellor":[{"Name":"Jitender Kumar Aka Pappu  ","so":"Nil ","Address":"Chindouri Khas P.s. rohta","Phone":"9897008102"}],"historySheeter":[{"Name":"Virender aka Kalu","so":"Jayprakash jaat","Address":"Chindouri Khas P.s. rohta","Status":"Present","Phone":"Nil"}],"convictedCriminals":[{"Name":"Nil","so":"Nil","Address":"Nil","crimeno":"Nil","Section":"Nil"}],"crimes5Yrs":[{"Name":"Nil","so":"Nil","crimeno":"Nil","Section":"Nil","Address":"Nil"}],"electionCrimes":[{"Name":"Nil","so":"Nil","crimeno":"Nil","Section":"Nil","Address":"Nil"}],"politician":[{"Name":"Nil","so":"Nil","Address":"Nil","Phone":"Nil"}],"boundDownUnder":"15","vulnerabilityDetails":"Critical","warrantedCriminals":[{"Name":"Nil","so":"Nil","Address":"Nil","Phone":"Nil"}],"condition":"Good"},{"stationID":"RO-13","stationName":"Prathmik Vidyalaya Chindouri Patti Dalu aka Atta","latitude":"29.0353","longitude":"77.5176","polingCenterPhoto":"../img/mediPanchayat.png","routes":"../img/3.png","collectionPoint":"../img/3.png","population":"1500","voters":"650","villageMohalla":"Chindouri Patti Dalu aka Atta","path":"#/menu/tab/medicalDetails","respectedPpl":[{"Name":"Vinod Rana","so":"Harpal Singh","Address":"Chindouri Patti Dalu aka Atta","Phone":"9758147365"},{"Name":"Dhrampal Singh","so":"Mahender Singh","Address":"Chindouri Patti Dalu aka Atta","Phone":"9411987010"},{"Name":"Yogender Singh","so":"Shahab Singh","Address":"Chindouri Patti Dalu aka Atta","Phone":"Nil"},{"Name":"Deepak Pradhan","so":"Jaipal","Address":"Chindouri Patti Dalu aka Atta","Phone":"9759395236"},{"Name":"Ilmeram","so":"Khemchand","Address":"Chindouri Patti Dalu aka Atta","Phone":"8937894223"}],"retiredGovtSer":[{"Name":"Ilmeram","so":"Khem Chand","Address":"Chindouri Patti Dalu aka Atta","Phone":"8937894223"},{"Name":"Prempal","so":"Jile Singh","Address":"Chindouri Patti Dalu aka Atta","Phone":"8171656094"},{"Name":"Harpal ","so":"Ramniwash","Address":"Chindouri Patti Dalu aka Atta","Phone":"7452804031"},{"Name":"Sumitpal","so":"Raghuvir Singh","Address":"Chindouri Patti Dalu aka Atta","Phone":"8650833517"}],"neighbourPolling":[{"Name":"Yogender Kumar","so":"Omprakash","Address":"Chindouri Patti Dalu aka Atta","Phone":"9557600699"},{"Name":"Rakesh Kumar ","so":"Raghuvir","Address":"Chindouri Patti Dalu aka Atta","Phone":"8923097758"},{"Name":"Bal Kishan","so":"Aman Singh","Address":"Chindouri Patti Dalu aka Atta","Phone":"8126265513"},{"Name":"Dhir Singh","so":"Lile","Address":"Chindouri Patti Dalu aka Atta","Phone":"7037832192"},{"Name":"Ballu","so":"Dharm Vir","Address":"Chindouri Patti Dalu aka Atta","Phone":"7060691559"}],"armsLicenseHolder":[{"Name":"Naresh Kumar","so":"Tara Singh","Address":"Chindouri Patti Dalu aka Atta","Phone":"Nil","Weapon":"SBBL"},{"Name":"Yogesh ","so":"Vedprakash","Address":"Chindouri Patti Dalu aka Atta","Phone":"Nil","Weapon":"DBBL"},{"Name":"Rajeev Kumar","so":"Jaypraksh","Address":"Chindouri Patti Dalu aka Atta","Phone":"Nil","Weapon":"DBBL"},{"Name":"Satpal Singh","so":"Rafhool","Address":"Chindouri Patti Dalu aka Atta","Phone":"Nil","Weapon":"Revolver"},{"Name":"Sumitpal","so":"Raghuvir","Address":"Chindouri Patti Dalu aka Atta","Phone":"8650833517","Weapon":"SBBL"}],"chowkidar":[{"Name":"Nil  ","so":"Nil","Address":"Nil","Phone":"Nil"}],"councellor":[{"Name":"Jitender Kumar Aka Pappu  ","so":"Nil ","Address":"Chindouri Khas P.s. rohta","Phone":"9897008102"}],"historySheeter":[{"Name":"Dharmender","so":"Jaipal","Address":"Chindouri Patti Dalu aka Atta","Status":"Jail","Phone":"Nil"}],"convictedCriminals":[{"Name":"Nil","so":"Nil","Address":"Nil","crimeno":"Nil","Section":"Nil"}],"crimes5Yrs":[{"Name":"Sanjay aka Lilu","so":"Bijender","crimeno":"204/15","Section":"147,148,149,302,506 IPC","Address":"Chindouri Patti Dalu aka Atta"},{"Name":"Ajaypal","so":"Choteram","crimeno":"204/15","Section":"147,148,149,302,506 IPC","Address":"Chindouri Patti Dalu aka Atta"},{"Name":"Dhanpal","so":"Choteram","crimeno":"204/15","Section":"147,148,149,302,506 IPC","Address":"Chindouri Patti Dalu aka Atta"},{"Name":"Anangpal","so":"Choteram","crimeno":"204/15","Section":"147,148,149,302,506 IPC","Address":"Chindouri Patti Dalu aka Atta"},{"Name":"Sunny","so":"Shripal","crimeno":"204/15","Section":"147,148,149,302,506 IPC","Address":"Chindouri Patti Dalu aka Atta"},{"Name":"Mohshin ","so":"Jummah","crimeno":"204/15","Section":"147,148,149,302,506 IPC","Address":"Chindouri Patti Dalu aka Atta"}],"electionCrimes":[{"Name":"Nil","so":"Nil","crimeno":"Nil","Section":"Nil","Address":"Nil"}],"politician":[{"Name":"Nil","so":"Nil","Address":"Nil","Phone":"Nil"}],"boundDownUnder":"15","vulnerabilityDetails":"Gerenal","warrantedCriminals":[{"Name":"Nil","so":"Nil","Address":"Nil","Phone":"Nil"}],"condition":"Good"},{"stationID":"RO-14","stationName":"Prathmik Vidyalaya Bhadaura Rohta 01","latitude":"29.0427","longitude":"77.5160","polingCenterPhoto":"../img/mediPanchayat.png","routes":"../img/3.png","collectionPoint":"../img/3.png","population":"6000","voters":"3000","villageMohalla":"Bhadaura 01","path":"#/menu/tab/medicalDetails","respectedPpl":[{"Name":"Fhool Kumar","so":"Mahender","Address":"Bhadaura P.s. Rohta","Phone":"9758442167"},{"Name":"Krishanpal","so":"Rajaram","Address":"Bhadaura P.s. Rohta","Phone":"9720668485"},{"Name":"Nattan Singh","so":"Chandan Singh","Address":"Bhadaura P.s. Rohta","Phone":"Nil"},{"Name":"Kuwarpal","so":"Gyan Singh","Address":"Bhadaura P.s. Rohta","Phone":"8533949933"}],"retiredGovtSer":[{"Name":"Harjeet Saini","so":"Kale Saini","Address":"Bhadaura P.s. Rohta","Phone":"Nil"},{"Name":"Chander pal Saini","so":"Lal Singh","Address":"Bhadaura P.s. Rohta","Phone":"9837780300"},{"Name":"Virender Singh","so":"Shanker Singh","Address":"Bhadaura P.s. Rohta","Phone":"9897469798"},{"Name":"Viaipal ","so":"Shyam Singh","Address":"Bhadaura P.s. Rohta","Phone":"9058634024"},{"Name":"Nattan Singh","so":"Chanda singh","Address":"Bhadaura P.s. Rohta","Phone":"Nil"},{"Name":"Virender Singh","so":"Charn Singh","Address":"Bhadaura P.s. Rohta","Phone":"Nil"},{"Name":"Vijender","so":"Dhara Singh","Address":"Bhadaura P.s. Rohta","Phone":"Nil"}],"neighbourPolling":[{"Name":"Rishipal","so":"Jodha Ram","Address":"Bhadaura P.s. Rohta","Phone":"8006293622"},{"Name":"Ramkumar","so":"Kishana","Address":"Bhadaura P.s. Rohta","Phone":"9690922992"},{"Name":"Ragvir Saini","so":"Chander Bhan","Address":"Bhadaura P.s. Rohta","Phone":"9536587271"},{"Name":"Yogender","so":"Surajmal","Address":"Bhadaura P.s. Rohta","Phone":"Nil"}],"armsLicenseHolder":[{"Name":"Fhool Kumar","so":"Mahender","Address":"Bhadaura P.s. Rohta","Phone":"9758442167","Weapon":"DBBL"},{"Name":"Natthan Singh","so":"Chandan Singh","Address":"Bhadaura P.s. Rohta","Phone":"Nil","Weapon":"DBBL"},{"Name":"Rishipal ","so":"Dharam Singh","Address":"Bhadaura P.s. Rohta","Phone":"9456499149","Weapon":"DBBL"},{"Name":"Surender ","so":"Chanderbal","Address":"Bhadaura P.s. Rohta","Phone":"9634019644","Weapon":"DBBL"},{"Name":"Virender Kumar ","so":"Sishpal","Address":"Bhadaura P.s. Rohta","Phone":"8449755609","Weapon":"DBBL"},{"Name":"Krishanpal","so":"Rajaram","Address":"Bhadaura P.s. Rohta","Phone":"9720668485","Weapon":"DBBL"},{"Name":"Nepal Singh","so":"Mahvir Singh","Address":"Bhadaura P.s. Rohta","Phone":"8532037551","Weapon":"DBBL"},{"Name":"Lovekush","so":"kaluram","Address":"Bhadaura P.s. Rohta","Phone":"9412835103","Weapon":"DBBL"},{"Name":"Suresh malik","so":"Giriraj","Address":"Bhadaura P.s. Rohta","Phone":"9719758280","Weapon":"DBBL"},{"Name":"Maoujpal ","so":"Jaivir","Address":"Bhadaura P.s. Rohta","Phone":"9012843442","Weapon":"DBBL"},{"Name":"Rajesh","so":"Maheshpal","Address":"Bhadaura P.s. Rohta","Phone":"Nil","Weapon":"Revolver"},{"Name":"Kuwarpal ","so":"Gyan Singh","Address":"Bhadaura P.s. Rohta","Phone":"8533949933","Weapon":"Rifle"},{"Name":"Harender","so":"Jaswant Singh","Address":"Bhadaura P.s. Rohta","Phone":"Nil","Weapon":"Rifle"},{"Name":"Krishanpal ","so":"Horam","Address":"Bhadaura P.s. Rohta","Phone":"8126514176","Weapon":"DBBL"}],"chowkidar":[{"Name":"Inderpal   ","so":"Nil","Address":"Bhadaura P.s. Rohta","Phone":"9012018682"}],"councellor":[{"Name":"Smt. Kaveeta  ","so":"Nil ","Address":"Bhadaura P.s. Roht","Phone":"8859525448"}],"historySheeter":[{"Name":"Virender","so":"Albel","Address":"Bhadaura P.s. Rohta","Status":"Jail","Phone":"Nil"},{"Name":"Lokender aka Lukka","so":"Mansingh","Address":"Bhadaura P.s. Rohta","Status":"Jail","Phone":"Nil"},{"Name":"yogesh","so":"Bhopal","Address":"Bhadaura P.s. Rohta","Status":"Jail","Phone":"Nil"}],"convictedCriminals":[{"Name":"Nil","so":"Nil","Address":"Nil","crimeno":"Nil","Section":"Nil"}],"crimes5Yrs":[{"Name":"Vikah aka Fouji","so":"Guruwachan","crimeno":"181/12","Section":"392 IPC","Address":"Bhadaura P.s. Rohta"},{"Name":"Vikah aka Fouji","so":"Guruwachan","crimeno":"261/12","Section":"392 IPC","Address":"Bhadaura P.s. Rohta"},{"Name":"Vishwash","so":"Bhopal","crimeno":"323/13","Section":"302,394,341 IPC","Address":"Bhadaura P.s. Rohta"},{"Name":"Nitin","so":"Vishwash","crimeno":"323/13","Section":"302,394,341 IPC","Address":"Bhadaura P.s. Rohta"},{"Name":"Kapil","so":"Dushyant","crimeno":"323/13","Section":"302,394,341 IPC","Address":"Bhadaura P.s. Rohta"},{"Name":"Rajan","so":"Dushyant","crimeno":"323/13","Section":"302,394,341 IPC","Address":"Bhadaura P.s. Rohta"},{"Name":"Mobin ","so":"Mahboob","crimeno":"24/78/14","Section":"302 Ipc","Address":"Bhadaura P.s. Rohta"},{"Name":"Sonveer aka Sonu","so":"Arvind","crimeno":"79/15","Section":"392 IPC","Address":"Bhadaura P.s. Rohta"}],"electionCrimes":[{"Name":"Nil","so":"Nil","crimeno":"Nil","Section":"Nil","Address":"Nil"}],"politician":[{"Name":"Nil","so":"Nil","Address":"Nil","Phone":"Nil"}],"boundDownUnder":"15","vulnerabilityDetails":"Very Critical","warrantedCriminals":[{"Name":"Nil","so":"Nil","Address":"Nil","Phone":"Nil"}],"condition":"Good"},{"stationID":"RO-15","stationName":"Prathmik Vidyalaya Meerpur","latitude":"29.0559","longitude":"77.5146","polingCenterPhoto":"../img/mediPanchayat.png","routes":"../img/3.png","collectionPoint":"../img/3.png","population":"4500","voters":"2000","villageMohalla":"Meerpur","path":"#/menu/tab/medicalDetails","respectedPpl":[{"Name":"Rohtash","so":"RitiGiri","Address":"Meerpur P.s. Rohta","Phone":"9536694122"},{"Name":"Chain Giri","so":"Jeet Giri","Address":"Meerpur P.s. Rohta","Phone":"9411445418"},{"Name":"Premgiri","so":"Mangal Giri","Address":"Meerpur P.s. Rohta","Phone":"9639908997"},{"Name":"Mahender Sharma","so":"Harvansh Sharma","Address":"Meerpur P.s. Rohta","Phone":"7534968565"},{"Name":"Chander Sen","so":"Jagat Singh","Address":"Meerpur P.s. Rohta","Phone":"Nil"}],"retiredGovtSer":[{"Name":"Ramlal","so":"Dharam Singh","Address":"Meerpur P.s. Rohta","Phone":"Nil"},{"Name":"Deshpal ","so":"Baljit Singh","Address":"Meerpur P.s. Rohta","Phone":"Nil"},{"Name":"Snoveer Singh","so":"Pritam Singh","Address":"Meerpur P.s. Rohta","Phone":"Nil"},{"Name":"Viaypal","so":"Mahavir Singh","Address":"Meerpur P.s. Rohta","Phone":"Nil"},{"Name":"Ranveer Singh","so":"Bhanu","Address":"Meerpur P.s. Rohta","Phone":"Nil"},{"Name":"Mahender Sharma","so":"Harvansh","Address":"Meerpur P.s. Rohta","Phone":"7534968565"}],"neighbourPolling":[{"Name":"Bhagwan Singh","so":"Amar Singh","Address":"Meerpur P.s. Rohta","Phone":"7574919620"},{"Name":"Ishwar Singh","so":"Aman Singh","Address":"Meerpur P.s. Rohta","Phone":"9837623134"},{"Name":"Pappu ","so":"Ran Singh","Address":"Meerpur P.s. Rohta","Phone":"9759137362"},{"Name":"Stpal Singh","so":"Bheem Singh","Address":"Meerpur P.s. Rohta","Phone":"9759423472"},{"Name":"Mahak Singh","so":"Rajender Singh","Address":"Meerpur P.s. Rohta","Phone":"9568959996"}],"armsLicenseHolder":[{"Name":"Bhagwan Singh","so":"Amar Singh","Address":"Meerpur P.s. Rohta","Phone":"Nil","Weapon":"DBBL"},{"Name":"Rohtash ","so":"Atar Singh","Address":"Meerpur P.s. Rohta","Phone":"Nil","Weapon":"DBBL"},{"Name":"Sonveer","so":"Pritam Singh","Address":"Meerpur P.s. Rohta","Phone":"Nil","Weapon":"DBBL"},{"Name":"Vijaipal ","so":"Mahavir Singh","Address":"Meerpur P.s. Rohta","Phone":"Nil","Weapon":"DBBL"},{"Name":"Vinod","so":"Sardar Giri","Address":"Meerpur P.s. Rohta","Phone":"9818280999","Weapon":"Rifle"},{"Name":"Anil Kumar","so":"Jayprakash","Address":"Meerpur P.s. Rohta","Phone":"Nil","Weapon":"Rifle"},{"Name":"Jaikishan","so":"Munssilal","Address":"Meerpur P.s. Rohta","Phone":"Nil","Weapon":"SBBL"},{"Name":"Vijender","so":"Munssilal","Address":"Meerpur P.s. Rohta","Phone":"Nil","Weapon":"Pistel"},{"Name":"Dhalchand","so":"Munssilal","Address":"Meerpur P.s. Rohta","Phone":"Nil","Weapon":"Revolver"},{"Name":"Surender","so":"Balveer Singh","Address":"Meerpur P.s. Rohta","Phone":"Nil","Weapon":"DBBL"},{"Name":"Bhujvir","so":"Hari Singh","Address":"Meerpur P.s. Rohta","Phone":"Nil","Weapon":"DBBL"},{"Name":"Vir Singh","so":"Om Singh","Address":"Meerpur P.s. Rohta","Phone":"Nil","Weapon":"Revolver"},{"Name":"Devender ","so":"Kawal Singh","Address":"Meerpur P.s. Rohta","Phone":"Nil","Weapon":"Revolver"}],"chowkidar":[{"Name":"Nil   ","so":"Nil","Address":"Nil","Phone":"Nil"}],"councellor":[{"Name":"Gyanander Tyagi  ","so":"Nil ","Address":"Meerpur P.s. Rohta","Phone":"9639672983"}],"historySheeter":[{"Name":"Tuleram","so":"Ramdash","Address":"Meerpur P.s. Rohta","Status":"Present","Phone":"Nil"},{"Name":"Karn Singh","so":"Raghuvir","Address":"Meerpur P.s. Rohta","Status":"Present","Phone":"Nil"}],"convictedCriminals":[{"Name":"Nil","so":"Nil","Address":"Nil","crimeno":"Nil","Section":"Nil"}],"crimes5Yrs":[{"Name":"Dharmender","so":"Jaikumar","crimeno":"50/01","Section":"392,411 ipc","Address":"Meerpur P.s. Rohta"}],"electionCrimes":[{"Name":"Nil","so":"Nil","crimeno":"Nil","Section":"Nil","Address":"Nil"}],"politician":[{"Name":"Nil","so":"Nil","Address":"Nil","Phone":"Nil"}],"boundDownUnder":"22","vulnerabilityDetails":" Critical","warrantedCriminals":[{"Name":"Nil","so":"Nil","Address":"Nil","Phone":"Nil"}],"condition":"Good"},{"stationID":"RO-16","stationName":"Prathmik Vidyalaya Lahore Garh","latitude":"29.0572","longitude":"77.5115","polingCenterPhoto":"../img/mediPanchayat.png","routes":"../img/3.png","collectionPoint":"../img/3.png","population":"700","voters":"360","villageMohalla":"Lahore Garh","path":"#/menu/tab/medicalDetails","respectedPpl":[{"Name":"Janeshwar Dayal","so":"Sher Singh","Address":"Lahore Garh p.s. Rohta","Phone":"9536696989"},{"Name":"Rambhul Tyagi","so":"Omprakash Singh","Address":"Lahore Garh p.s. Rohta","Phone":"9358803380"},{"Name":"Bhrmjeet","so":"Ramniwash","Address":"Lahore Garh p.s. Rohta","Phone":"9136464355"},{"Name":"Keshoram Tyagi","so":"Bheem Sain Tyagi","Address":"Lahore Garh p.s. Rohta","Phone":"9760646615"}],"retiredGovtSer":[{"Name":"Janeshwar Dayal","so":"Sher Singh","Address":"Lahore Garh p.s. Rohta","Phone":"9536696989"},{"Name":"Ravidatt Tyagi","so":"Tarif Singh","Address":"Lahore Garh p.s. Rohta","Phone":"9258183545"},{"Name":"Hari Prakash","so":"Sher Singh","Address":"Lahore Garh p.s. Rohta","Phone":"9456636818"},{"Name":"Mahavir Singh","so":"Chandarbhan","Address":"Lahore Garh p.s. Rohta","Phone":"9760826541"},{"Name":"Pramod Kumar","so":"Tejpal","Address":"Lahore Garh p.s. Rohta","Phone":"9897945368"}],"neighbourPolling":[{"Name":"Sandeep Tyagi","so":"Dharmpal","Address":"Lahore Garh p.s. Rohta","Phone":"9410886460"},{"Name":"Bhram pal","so":"Atar Singh","Address":"Lahore Garh p.s. Rohta","Phone":"9627333785"},{"Name":"Dharmpal","so":"Atar Singh","Address":"Lahore Garh p.s. Rohta","Phone":"8868852576"},{"Name":"Anand Tyagi","so":"Jgat Singh","Address":"Lahore Garh p.s. Rohta","Phone":"9690035661"}],"armsLicenseHolder":[{"Name":"Ramawtar Tyagi","so":"Visnuudatt Tyagi","Address":"Lahore Garh p.s. Rohta","Phone":"Nil","Weapon":"DBBL"}],"chowkidar":[{"Name":"Kiranpal   ","so":"Nil","Address":"Lahore Garh p.s. Rohta","Phone":"9012078682"}],"councellor":[{"Name":"Gyanander Tyagi ","so":"Nil ","Address":"Meerpur P.s. Rohta","Phone":"9639672983"}],"historySheeter":[{"Name":"Nil","so":"Nil","Address":"Nil","Status":"Nil","Phone":"Nil"}],"convictedCriminals":[{"Name":"Nil","so":"Nil","Address":"Nil","crimeno":"Nil","Section":"Nil"}],"crimes5Yrs":[{"Name":"Harender","so":"Gaje Singh","crimeno":"98/14","Section":"302,307,504 IPC","Address":"Kalina p.s. Saroorpur"},{"Name":"Vikash","so":"Nil","crimeno":"134/15","Section":"363,366,342,376,504,506,323 IPC","Address":"Ishapur Gan Nahar p.s. Incholli"},{"Name":"Sonu ","so":"Sukka","crimeno":"134/15","Section":"363,366,342,376,504,506,323 IPC","Address":"Naragpur p.s. Saroorpur"}],"electionCrimes":[{"Name":"Nil","so":"Nil","crimeno":"Nil","Section":"Nil","Address":"Nil"}],"politician":[{"Name":"Nil","so":"Nil","Address":"Nil","Phone":"Nil"}],"boundDownUnder":"10","vulnerabilityDetails":" General","warrantedCriminals":[{"Name":"Nil","so":"Nil","Address":"Nil","Phone":"Nil"}],"condition":"Good"},{"stationID":"RO-17","stationName":"Prathmik Vidyalaya Banwaripur","latitude":"29.0551","longitude":"77.5229","polingCenterPhoto":"../img/mediPanchayat.png","routes":"../img/3.png","collectionPoint":"../img/3.png","population":"1200","voters":"670","villageMohalla":"Banwaripur","path":"#/menu/tab/medicalDetails","respectedPpl":[{"Name":"Suresh Tyagi","so":"Jaypraksh","Address":"Banwaripur p.s. Rohta","Phone":"9997457060"},{"Name":"Rajeshwar Giri","so":"Lajja Giri","Address":"Banwaripur p.s. Rohta","Phone":"7078036668"},{"Name":"Vinod Tyagi","so":"Anoop Tyagi","Address":"Banwaripur p.s. Rohta","Phone":"9759771884"},{"Name":"Jaichand Tyagi","so":"Asharam","Address":"Banwaripur p.s. Rohta","Phone":"9758280251"},{"Name":"Sanjeev Sharma","so":"Kaluram Sharma","Address":"Banwaripur p.s. Rohta","Phone":"9759299308"}],"retiredGovtSer":[{"Name":"Mahipal Singh","so":"Hardeva","Address":"Banwaripur p.s. Rohta","Phone":"9058167050"},{"Name":"Chittar Singh","so":"Ganga Charan","Address":"Banwaripur p.s. Rohta","Phone":"Nil"}],"neighbourPolling":[{"Name":"Salekh Chand","so":"Bhure Singh","Address":"Banwaripur p.s. Rohta","Phone":"8755094891"},{"Name":"Styprakash","so":"Bhure Singh","Address":"Banwaripur p.s. Rohta","Phone":"Nil"},{"Name":"Sonu ","so":"Mahipal","Address":"Banwaripur p.s. Rohta","Phone":"9759548360"},{"Name":"Manoj","so":"Bhramjeet","Address":"Banwaripur p.s. Rohta","Phone":"8958054499"}],"armsLicenseHolder":[{"Name":"Satyprakash","so":"Mahavir Singh","Address":"Banwaripur p.s. Rohta","Phone":"Nil","Weapon":"SBBL"},{"Name":"Jaichand Tyagi","so":"Asharam","Address":"Banwaripur p.s. Rohta","Phone":"Nil","Weapon":"Revolver"},{"Name":"Devender","so":"Ramfhal Tyagi","Address":"Banwaripur p.s. Rohta","Phone":"Nil","Weapon":"DBBL"},{"Name":"Ompraksh","so":"Jairam","Address":"Banwaripur p.s. Rohta","Phone":"9997457060","Weapon":"DBBL"},{"Name":"Vinod Kumar ","so":"Anoop Singh","Address":"Banwaripur p.s. Rohta","Phone":"Nil","Weapon":"Pistel"}],"chowkidar":[{"Name":"Nil   ","so":"Nil","Address":"Nil","Phone":"Nil"}],"councellor":[{"Name":"Gyanander Tyagi  ","so":"Nil ","Address":"Meerpur P.s. Rohta","Phone":"9639672983"}],"historySheeter":[{"Name":"Nil","so":"Nil","Address":"Nil","Status":"Nil","Phone":"Nil"}],"convictedCriminals":[{"Name":"Nil","so":"Nil","Address":"Nil","crimeno":"Nil","Section":"Nil"}],"crimes5Yrs":[{"Name":"Nil","so":"Nil","crimeno":"Nil","Section":"Nil","Address":"Nil"}],"electionCrimes":[{"Name":"Nil","so":"Nil","crimeno":"Nil","Section":"Nil","Address":"Nil"}],"politician":[{"Name":"Nil","so":"Nil","Address":"Nil","Phone":"Nil"}],"boundDownUnder":"6","vulnerabilityDetails":" General","warrantedCriminals":[{"Name":"Nil","so":"Nil","Address":"Nil","Phone":"Nil"}],"condition":"Good"},{"stationID":"RO-18","stationName":"Prathmik Vidyalaya Mirzapur","latitude":"29.0681","longitude":"77.5337","polingCenterPhoto":"../img/mediPanchayat.png","routes":"../img/3.png","collectionPoint":"../img/3.png","population":"2500","voters":"1180","villageMohalla":"Mirzapur","path":"#/menu/tab/medicalDetails","respectedPpl":[{"Name":"Vishram Singh","so":"Pritam Singh","Address":"Mirzapur P.s. rohta","Phone":"9837533581"},{"Name":"Ram Kumar","so":"Sunahri","Address":"Mirzapur P.s. rohta","Phone":"Nil"},{"Name":"Satish","so":"Balkishan","Address":"Mirzapur P.s. rohta","Phone":"9761829619"},{"Name":"Vijender","so":"Chander Bhan","Address":"Mirzapur P.s. rohta","Phone":"Nil"},{"Name":"Ram Singh","so":"Ratan Singh","Address":"Mirzapur P.s. rohta","Phone":"Nil"},{"Name":"Balesh","so":"Chitranjan","Address":"Mirzapur P.s. rohta","Phone":"Nil"}],"retiredGovtSer":[{"Name":"Vishram Singh","so":"Pritam Singh","Address":"Mirzapur P.s. rohta","Phone":"9837533581"},{"Name":"Rakesh Kumar","so":"Vishram Singh","Address":"Mirzapur P.s. rohta","Phone":"9456481648"},{"Name":"Ram Kumar","so":"Suahri Singh","Address":"Mirzapur P.s. rohta","Phone":"Nil"},{"Name":"Ramkumar","so":"Ratan Singh","Address":"Mirzapur P.s. rohta","Phone":"Nil"},{"Name":"Vir Singh","so":"Dalpat Singh","Address":"Mirzapur P.s. rohta","Phone":"Nil"}],"neighbourPolling":[{"Name":"Santarpal","so":"Bhule Singh","Address":"Mirzapur P.s. Rohta","Phone":"8923103840"},{"Name":"Narender Saini","so":"Ranjeet Saini","Address":"Mirzapur P.s. Rohta","Phone":"9997330960"},{"Name":"Dharmpal ","so":"Ramanand","Address":"Mirzapur P.s. Rohta","Phone":"9568981306"},{"Name":"Krishanpal","so":"Ramesh Sharma","Address":"Mirzapur P.s. Rohta","Phone":"9917332362"},{"Name":"Baburam","so":"Mukhtyara","Address":"Mirzapur P.s. Rohta","Phone":"Nil"}],"armsLicenseHolder":[{"Name":"Surender","so":"Ram Kumar","Address":"Mirzapur P.s. Rohta","Phone":"Nil","Weapon":"DBBL"},{"Name":"Umesh","so":"Vishram Singh","Address":"Mirzapur P.s. Rohta","Phone":"9837533581","Weapon":"SBBL"},{"Name":"Rajesh ","so":"Chitranjan","Address":"Mirzapur P.s. Rohta","Phone":"Nil","Weapon":"DBBL"},{"Name":"Virender ","so":"Chander Bhan","Address":"Mirzapur P.s. Rohta","Phone":"Nil","Weapon":"Revolver"},{"Name":"Sanjay ","so":"Shalekh Chand","Address":"Mirzapur P.s. Rohta","Phone":"Nil","Weapon":"Revolver"}],"chowkidar":[{"Name":"Syoraj Singh   ","so":"Nil","Address":"Mirzapur P.s. Rohta","Phone":"Nil"}],"councellor":[{"Name":"Sachin Kumar  ","so":"Nil ","Address":"Mirzapur P.s. Rohta","Phone":"9758601330"}],"historySheeter":[{"Name":"Nil","so":"Nil","Address":"Nil","Status":"Nil","Phone":"Nil"}],"convictedCriminals":[{"Name":"Nil","so":"Nil","Address":"Nil","crimeno":"Nil","Section":"Nil"}],"crimes5Yrs":[{"Name":"Ravinder","so":"Rajvir","crimeno":"285/13","Section":"307 IPC","Address":"Mirzapur P.s. Rohta"},{"Name":"Monu aka ","so":"Vir Singh","crimeno":"285/13","Section":"308 IPC","Address":"Mirzapur P.s. Rohta"}],"electionCrimes":[{"Name":"Nil","so":"Nil","crimeno":"Nil","Section":"Nil","Address":"Nil"}],"politician":[{"Name":"Nil","so":"Nil","Address":"Nil","Phone":"Nil"}],"boundDownUnder":"13","vulnerabilityDetails":" General","warrantedCriminals":[{"Name":"Nil","so":"Nil","Address":"Nil","Phone":"Nil"}],"condition":"Good"},{"stationID":"RO-19","stationName":"Prathmik Vidyalaya Damghari","latitude":"29.0659","longitude":"77.5331","polingCenterPhoto":"../img/mediPanchayat.png","routes":"../img/3.png","collectionPoint":"../img/3.png","population":"1000","voters":"450","villageMohalla":"Damgari","path":"#/menu/tab/medicalDetails","respectedPpl":[{"Name":"Mubarik","so":"Meharddin","Address":"Damgari p.s. Rohta","Phone":"9058584417"},{"Name":"Sharif","so":"Nasir Ali","Address":"Damgari p.s. Rohta","Phone":"9639943435"},{"Name":"Rafi Mohammad aka bhure","so":"Ali Hasan","Address":"Damgari p.s. Rohta","Phone":"9758004762"},{"Name":"Alam","so":"Allahdia","Address":"Damgari p.s. Rohta","Phone":"7078573647"}],"retiredGovtSer":[{"Name":"Rafi Maohammad aka Bhurte","so":"Ali Hasan","Address":"Damgari p.s. Rohta","Phone":"9758004762"},{"Name":"Abbas","so":"Majid","Address":"Damgari p.s. Rohta","Phone":"Nil"}],"neighbourPolling":[{"Name":"Tahir","so":"Muntyaj","Address":"Damgari p.s. Rohta","Phone":"9758029705"},{"Name":"Samshad","so":"Maherddin","Address":"Damgari p.s. Rohta","Phone":"9058222525"},{"Name":"Asmohammad","so":"Nasir Ali","Address":"Damgari p.s. Rohta","Phone":"Nil"}],"armsLicenseHolder":[{"Name":"Mubarak","so":"Maharddin","Address":"Damgari p.s. Rohta","Phone":"9058584417","Weapon":"DBBL"},{"Name":"Rafi Mohammd Aka Bhure","so":"Ali Hasan","Address":"Damgari p.s. Rohta","Phone":"9758004762","Weapon":"DBBL"},{"Name":"Abbad ali ","so":"Majid","Address":"Damgari p.s. Rohta","Phone":"Nil","Weapon":"DBBL"},{"Name":"Rohit tyagi ","so":"Kalu","Address":"Damgari p.s. Rohta","Phone":"Nil","Weapon":"SBBL"},{"Name":"Mustafa","so":"Ishaq","Address":"Damgari p.s. Rohta","Phone":"Nil","Weapon":"DBBL"}],"chowkidar":[{"Name":"Nil   ","so":"Nil","Address":"Nil","Phone":"Nil"}],"councellor":[{"Name":"Ahwani Kumar  ","so":"Nil ","Address":"Damgari p.s. Rohta","Phone":"9917405372"}],"historySheeter":[{"Name":"Nil","so":"Nil","Address":"Nil","Status":"Nil","Phone":"Nil"}],"convictedCriminals":[{"Name":"Nil","so":"Nil","Address":"Nil","crimeno":"Nil","Section":"Nil"}],"crimes5Yrs":[{"Name":"Zahur Ali","so":"Sakur Ali","crimeno":"323/14","Section":"302 IPC","Address":"Damgari p.s. Rohta"},{"Name":"Saddam","so":"Zahur Ali","crimeno":"323/14","Section":"303 IPC","Address":"Damgari p.s. Rohta"},{"Name":"Salman","so":"Zahur Ali","crimeno":"323/14","Section":"304 IPC","Address":"Damgari p.s. Rohta"}],"electionCrimes":[{"Name":"Nil","so":"Nil","crimeno":"Nil","Section":"Nil","Address":"Nil"}],"politician":[{"Name":"Nil","so":"Nil","Address":"Nil","Phone":"Nil"}],"boundDownUnder":"27","vulnerabilityDetails":" General","warrantedCriminals":[{"Name":"Nil","so":"Nil","Address":"Nil","Phone":"Nil"}],"condition":"Good"},{"stationID":"RO-20","stationName":"Prathmik Vidyalaya Badam","latitude":"29.0656","longitude":"77.5637","polingCenterPhoto":"../img/mediPanchayat.png","routes":"../img/3.png","collectionPoint":"../img/3.png","population":"3500","voters":"2700","villageMohalla":"Baram","path":"#/menu/tab/medicalDetails","respectedPpl":[{"Name":"Monu","so":"Surender Singh","Address":"Baram p.s. Rohta","Phone":"9675506840"},{"Name":"Amarish Tyagi","so":"Omkar","Address":"Baram p.s. Rohta","Phone":"8126844027"},{"Name":"Brajbhusan","so":"Syam Sunder","Address":"Baram p.s. Rohta","Phone":"9627333982"},{"Name":"Subham","so":"Amrish","Address":"Baram p.s. Rohta","Phone":"7500620524"},{"Name":"Pradeep Tyagi","so":"Satish","Address":"Baram p.s. Rohta","Phone":"9690437304"},{"Name":"Satrudhan","so":"Bhramjeet","Address":"Baram p.s. Rohta","Phone":"8449974792"}],"retiredGovtSer":[{"Name":"Bhagmal","so":"Chanderbhan","Address":"Baram p.s. Rohta","Phone":"Nil"},{"Name":"Prama Tyagi","so":"Ramswroop","Address":"Baram p.s. Rohta","Phone":"Nil"},{"Name":"Arun","so":"Nil","Address":"Baram p.s. Rohta","Phone":"Nil"},{"Name":"Vinod","so":"Omprakash","Address":"Baram p.s. Rohta","Phone":"Nil"}],"neighbourPolling":[{"Name":"Paveen","so":"Harvir`","Address":"Baram p.s. Rohta","Phone":"7078981238"},{"Name":"Jagvir ","so":"Chandan","Address":"Baram p.s. Rohta","Phone":"7351883143"},{"Name":"Arvind","so":"Mahender tyagi","Address":"Baram p.s. Rohta","Phone":"9917708356"},{"Name":"Sanjay Tyagi","so":"Bhudhprakash","Address":"Baram p.s. Rohta","Phone":"9634193975"},{"Name":"Awadhesh","so":"Ganga Charn","Address":"Baram p.s. Rohta","Phone":"Nil"}],"armsLicenseHolder":[{"Name":"Monu Tyagi","so":"Surender Singh","Address":"Baram p.s. Rohta","Phone":"Nil","Weapon":"DBBL"},{"Name":"Vinod Kumar","so":"Ramdas","Address":"Baram p.s. Rohta","Phone":"Nil","Weapon":"DBBL"},{"Name":"Basant Kumar","so":"Omkar","Address":"Baram p.s. Rohta","Phone":"Nil","Weapon":"SBBL"},{"Name":"Ajeet Kumar","so":"Pramal Singh","Address":"Baram p.s. Rohta","Phone":"Nil","Weapon":"DBBL"},{"Name":"Munesh Kumar","so":"Kaliram","Address":"Baram p.s. Rohta","Phone":"Nil","Weapon":"DBBL"},{"Name":"Sunil Kumar","so":"Ilam Singh","Address":"Baram p.s. Rohta","Phone":"Nil","Weapon":"Rifle"},{"Name":"Prveen kimar","so":"Ramawatar","Address":"Baram p.s. Rohta","Phone":"Nil","Weapon":"DBBL"},{"Name":"Vijaykumar","so":"Pramal Singh","Address":"Baram p.s. Rohta","Phone":"Nil","Weapon":"Rifle"},{"Name":"Bhraj Bhusan","so":"Shyamsunder","Address":"Baram p.s. Rohta","Phone":"Nil","Weapon":"Rifle"},{"Name":"Shiv Kumar","so":"Khemchand","Address":"Baram p.s. Rohta","Phone":"Nil","Weapon":"DBBL"},{"Name":"Radheshyam","so":"Omprakash","Address":"Baram p.s. Rohta","Phone":"Nil","Weapon":"Revolver"},{"Name":"Shri Bhagwan Sharma","so":"Rishal Sharma","Address":"Baram p.s. Rohta","Phone":"Nil","Weapon":"Rifle"},{"Name":"Rajeev Tyagi","so":"Bhramanand Tyagi","Address":"Baram p.s. Rohta","Phone":"Nil","Weapon":"Revolver"},{"Name":"Omkar","so":"Bhishambar Sharma","Address":"Baram p.s. Rohta","Phone":"Nil","Weapon":"SBBL"},{"Name":"Lokesh Tyagi","so":"Kaliram Tyagi","Address":"Baram p.s. Rohta","Phone":"Nil","Weapon":"Rifle"},{"Name":"rahul Sharma","so":"Shri Bhagwan Sharma","Address":"Baram p.s. Rohta","Phone":"Nil","Weapon":"Revolver"}],"chowkidar":[{"Name":"Ramkishan    ","so":"Nil","Address":"Baram p.s. Rohta","Phone":"8171309097"}],"councellor":[{"Name":"Monu Tyagi  ","so":"Nil ","Address":"Baram p.s. Rohta","Phone":"9675506840"}],"historySheeter":[{"Name":"Bhrajbhusan","so":"Jayprakash","Address":"Baram p.s. Rohta","Status":"Present","Phone":"Nil"}],"convictedCriminals":[{"Name":"Nil","so":"Nil","Address":"Nil","crimeno":"Nil","Section":"Nil"}],"crimes5Yrs":[{"Name":"Krishn Tyagi","so":"Shiv Nandan","crimeno":"33/13","Section":"392 IPC","Address":"Baram p.s. Rohta"},{"Name":"Golu Aka Parveen","so":"Parmod","crimeno":"290/13","Section":"376GH,342 IPC,3/4 Posco Act","Address":"Baram p.s. Rohta"},{"Name":"Krishn Tyagi","so":"Shiv Nandan","crimeno":"290/13","Section":"376GH,342 IPC,3/4 Posco Act","Address":"Baram p.s. Rohta"}],"electionCrimes":[{"Name":"Nil","so":"Nil","crimeno":"Nil","Section":"Nil","Address":"Nil"}],"politician":[{"Name":"Nil","so":"Nil","Address":"Nil","Phone":"Nil"}],"boundDownUnder":"15","vulnerabilityDetails":" General","warrantedCriminals":[{"Name":"Nil","so":"Nil","Address":"Nil","Phone":"Nil"}],"condition":"Good"},{"stationID":"RO-21","stationName":"Ucch Prathmik Vidyalaya Badam 02","latitude":"29.0656","longitude":"77.5637","polingCenterPhoto":"../img/mediPanchayat.png","routes":"../img/3.png","collectionPoint":"../img/3.png","population":"3500","voters":"2700","villageMohalla":"Baram","path":"#/menu/tab/medicalDetails","respectedPpl":[{"Name":"Monu","so":"Surender Singh","Address":"Baram p.s. Rohta","Phone":"9675506840"},{"Name":"Amarish Tyagi","so":"Omkar","Address":"Baram p.s. Rohta","Phone":"8126844027"},{"Name":"Brajbhusan","so":"Syam Sunder","Address":"Baram p.s. Rohta","Phone":"9627333982"},{"Name":"Subham","so":"Amrish","Address":"Baram p.s. Rohta","Phone":"7500620524"},{"Name":"Pradeep Tyagi","so":"Satish","Address":"Baram p.s. Rohta","Phone":"9690437304"},{"Name":"Satrudhan","so":"Bhramjeet","Address":"Baram p.s. Rohta","Phone":"8449974792"}],"retiredGovtSer":[{"Name":"Bhagmal","so":"Chanderbhan","Address":"Baram p.s. Rohta","Phone":"Nil"},{"Name":"Prama Tyagi","so":"Ramswroop","Address":"Baram p.s. Rohta","Phone":"Nil"},{"Name":"Arun","so":"Nil","Address":"Baram p.s. Rohta","Phone":"Nil"},{"Name":"Vinod","so":"Omprakash","Address":"Baram p.s. Rohta","Phone":"Nil"}],"neighbourPolling":[{"Name":"Paveen","so":"Harvir`","Address":"Baram p.s. Rohta","Phone":"7078981238"},{"Name":"Jagvir ","so":"Chandan","Address":"Baram p.s. Rohta","Phone":"7351883143"},{"Name":"Arvind","so":"Mahender tyagi","Address":"Baram p.s. Rohta","Phone":"9917708356"},{"Name":"Sanjay Tyagi","so":"Bhudhprakash","Address":"Baram p.s. Rohta","Phone":"9634193975"},{"Name":"Awadhesh","so":"Ganga Charn","Address":"Baram p.s. Rohta","Phone":"Nil"}],"armsLicenseHolder":[{"Name":"Monu Tyagi","so":"Surender Singh","Address":"Baram p.s. Rohta","Phone":"Nil","Weapon":"DBBL"},{"Name":"Vinod Kumar","so":"Ramdas","Address":"Baram p.s. Rohta","Phone":"Nil","Weapon":"DBBL"},{"Name":"Basant Kumar","so":"Omkar","Address":"Baram p.s. Rohta","Phone":"Nil","Weapon":"SBBL"},{"Name":"Ajeet Kumar","so":"Pramal Singh","Address":"Baram p.s. Rohta","Phone":"Nil","Weapon":"DBBL"},{"Name":"Munesh Kumar","so":"Kaliram","Address":"Baram p.s. Rohta","Phone":"Nil","Weapon":"DBBL"},{"Name":"Sunil Kumar","so":"Ilam Singh","Address":"Baram p.s. Rohta","Phone":"Nil","Weapon":"Rifle"},{"Name":"Prveen kimar","so":"Ramawatar","Address":"Baram p.s. Rohta","Phone":"Nil","Weapon":"DBBL"},{"Name":"Vijaykumar","so":"Pramal Singh","Address":"Baram p.s. Rohta","Phone":"Nil","Weapon":"Rifle"},{"Name":"Bhraj Bhusan","so":"Shyamsunder","Address":"Baram p.s. Rohta","Phone":"Nil","Weapon":"Rifle"},{"Name":"Shiv Kumar","so":"Khemchand","Address":"Baram p.s. Rohta","Phone":"Nil","Weapon":"DBBL"},{"Name":"Radheshyam","so":"Omprakash","Address":"Baram p.s. Rohta","Phone":"Nil","Weapon":"Revolver"},{"Name":"Shri Bhagwan Sharma","so":"Rishal Sharma","Address":"Baram p.s. Rohta","Phone":"Nil","Weapon":"Rifle"},{"Name":"Rajeev Tyagi","so":"Bhramanand Tyagi","Address":"Baram p.s. Rohta","Phone":"Nil","Weapon":"Revolver"},{"Name":"Omkar","so":"Bhishambar Sharma","Address":"Baram p.s. Rohta","Phone":"Nil","Weapon":"SBBL"},{"Name":"Lokesh Tyagi","so":"Kaliram Tyagi","Address":"Baram p.s. Rohta","Phone":"Nil","Weapon":"Rifle"},{"Name":"rahul Sharma","so":"Shri Bhagwan Sharma","Address":"Baram p.s. Rohta","Phone":"Nil","Weapon":"Revolver"}],"chowkidar":[{"Name":"Ramkishan    ","so":"Nil","Address":"Baram p.s. Rohta","Phone":"8171309097"}],"councellor":[{"Name":"Monu Tyagi  ","so":"Nil ","Address":"Baram p.s. Rohta","Phone":"9675506840"}],"historySheeter":[{"Name":"Bhrajbhusan","so":"Jayprakash","Address":"Baram p.s. Rohta","Status":"Present","Phone":"Nil"}],"convictedCriminals":[{"Name":"Nil","so":"Nil","Address":"Nil","crimeno":"Nil","Section":"Nil"}],"crimes5Yrs":[{"Name":"Krishn Tyagi","so":"Shiv Nandan","crimeno":"33/13","Section":"392 IPC","Address":"Baram p.s. Rohta"},{"Name":"Golu Aka Parveen","so":"Parmod","crimeno":"290/13","Section":"376GH,342 IPC,3/4 Posco Act","Address":"Baram p.s. Rohta"},{"Name":"Krishn Tyagi","so":"Shiv Nandan","crimeno":"290/13","Section":"376GH,342 IPC,3/4 Posco Act","Address":"Baram p.s. Rohta"}],"electionCrimes":[{"Name":"Nil","so":"Nil","crimeno":"Nil","Section":"Nil","Address":"Nil"}],"politician":[{"Name":"Nil","so":"Nil","Address":"Nil","Phone":"Nil"}],"boundDownUnder":"15","vulnerabilityDetails":" General","warrantedCriminals":[{"Name":"Nil","so":"Nil","Address":"Nil","Phone":"Nil"}],"condition":"Good"},{"stationID":"RO-22","stationName":"Prathmik Vidyalaya Khwajampur Majra","latitude":"29.0457","longitude":"77.5538","polingCenterPhoto":"../img/mediPanchayat.png","routes":"../img/3.png","collectionPoint":"../img/3.png","population":"1700","voters":"950","villageMohalla":"Khwajampur Majra","path":"#/menu/tab/medicalDetails","respectedPpl":[{"Name":"Lakshman Singh","so":"Mam Chand","Address":"Khwajampur Majra p.s Rohta","Phone":"Nil"},{"Name":"jaI Pal","so":"Latur Singh","Address":"Khwajampur Majra p.s Rohta","Phone":"Nil"},{"Name":"Hariom","so":"Lakshman Singh","Address":"Khwajampur Majra p.s Rohta","Phone":"Nil"},{"Name":"Ashok ","so":"Jagan Nath","Address":"Khwajampur Majra p.s Rohta","Phone":"Nil"},{"Name":"Manmohan ","so":"Suresh","Address":"Khwajampur Majra p.s Rohta","Phone":"Nil"},{"Name":"Rajender","so":"Jograj","Address":"Khwajampur Majra p.s Rohta","Phone":"Nil"}],"retiredGovtSer":[{"Name":"Suresh","so":"Ram Singh","Address":"Khwajampur Majra p.s Rohta","Phone":null}],"neighbourPolling":[{"Name":"Bedu ","so":"Deep Chand","Address":"Khwajampur Majra p.s Rohta","Phone":"9759182009"},{"Name":"Vinod","so":"Deep Chand","Address":"Khwajampur Majra p.s Rohta","Phone":"9627046581"},{"Name":"Ashok","so":"Rishi","Address":"Khwajampur Majra p.s Rohta","Phone":"8958835627"},{"Name":"Mahender","so":"Khajan","Address":"Khwajampur Majra p.s Rohta","Phone":"9690602464"},{"Name":"Lokender","so":"Jaivir","Address":"Khwajampur Majra p.s Rohta","Phone":"8937999168"}],"armsLicenseHolder":[{"Name":"Raj Kiran Singh","so":"Aman Singh","Address":"Khwajampur Majra p.s Rohta","Phone":"Nil","Weapon":"DBBL"},{"Name":"Vijenderkumar","so":"Jagmal Singh","Address":"Khwajampur Majra p.s Rohta","Phone":"Nil","Weapon":"DBBL"},{"Name":"Gajender Kumar","so":"Jagmal Singh","Address":"Khwajampur Majra p.s Rohta","Phone":"Nil","Weapon":"DBBL"},{"Name":"Ashok Kumar","so":"Jagannath Prsad","Address":"Khwajampur Majra p.s Rohta","Phone":"Nil","Weapon":"DBBL"},{"Name":"Vijay Kumar","so":"Prakash Chand","Address":"Khwajampur Majra p.s Rohta","Phone":"Nil","Weapon":"DBBL"},{"Name":"Krishan Gopal","so":"Kirodimal","Address":"Khwajampur Majra p.s Rohta","Phone":"Nil","Weapon":"DBBL"},{"Name":"Bhagirath Singh","so":"Chander Bhan","Address":"Khwajampur Majra p.s Rohta","Phone":"Nil","Weapon":"DBBL"},{"Name":"Kamal Kumar","so":"Rajkiran","Address":"Khwajampur Majra p.s Rohta","Phone":"Nil","Weapon":"Rifle"},{"Name":"Sunil Kumar","so":"Tilak Ram","Address":"Khwajampur Majra p.s Rohta","Phone":"Nil","Weapon":"DBBL"}],"chowkidar":[{"Name":"Nil    ","so":"Nil","Address":"Nil","Phone":"Nil"}],"councellor":[{"Name":"Sonveer Rana  ","so":"Nil ","Address":"Khwajampur Majra p.s Rohta","Phone":"8439212610"}],"historySheeter":[{"Name":"Nil","so":"Nil","Address":"Nil","Status":"Nil","Phone":"Nil"}],"convictedCriminals":[{"Name":"Nil","so":"Nil","Address":"Nil","crimeno":"Nil","Section":"Nil"}],"crimes5Yrs":[{"Name":"Nil","so":"Nil","crimeno":"Nil","Section":"Nil","Address":"Nil"}],"electionCrimes":[{"Name":"Nil","so":"Nil","crimeno":"Nil","Section":"Nil","Address":"Nil"}],"politician":[{"Name":"Nil","so":"Nil","Address":"Nil","Phone":"Nil"}],"boundDownUnder":"9","vulnerabilityDetails":" General","warrantedCriminals":[{"Name":"Nil","so":"Nil","Address":"Nil","Phone":"Nil"}],"condition":"Good"},{"stationID":"RO-23","stationName":"Khand Vikash Karyalya Rasulpur Rohta","latitude":"29.0378","longitude":"77.5430","polingCenterPhoto":"../img/mediPanchayat.png","routes":"../img/3.png","collectionPoint":"../img/3.png","population":"20000","voters":"8700","villageMohalla":"Rasulpur Rohta","path":"#/menu/tab/medicalDetails","respectedPpl":[{"Name":"Ompal","so":"Aman Singh","Address":"Rasulpur Rohta p.s. Rohta","Phone":"8869044987"},{"Name":"Jang Bahadur","so":"Ompal","Address":"Rasulpur Rohta p.s. Rohta","Phone":"9568055476"},{"Name":"Shri Balister","so":"Mahavir","Address":"Rasulpur Rohta p.s. Rohta","Phone":"9636432901"},{"Name":"Asif Poorva Prdhan","so":"Nil","Address":"Rasulpur Rohta p.s. Rohta","Phone":"9411688750"},{"Name":"Hari Shrama","so":"Mahesh Shrama","Address":"Rasulpur Rohta p.s. Rohta","Phone":"9758770423"}],"retiredGovtSer":[{"Name":"Mahak Singh","so":"Badan Singh","Address":"Rasulpur Rohta p.s. Rohta","Phone":"8475900435"},{"Name":"Vir Singh","so":"Bhawar Singh","Address":"Rasulpur Rohta p.s. Rohta","Phone":"Nil"},{"Name":"Jang Bahadur","so":"Narender","Address":"Rasulpur Rohta p.s. Rohta","Phone":"7351963256"},{"Name":"Harpal","so":"Mohar Singh","Address":"Rasulpur Rohta p.s. Rohta","Phone":"9358294421"},{"Name":"Mahender ","so":"Dhram Singh","Address":"Rasulpur Rohta p.s. Rohta","Phone":"Nil"}],"neighbourPolling":[{"Name":"Nil","so":"Nil","Address":"Nil","Phone":"Nil"}],"armsLicenseHolder":[{"Name":"Kawal Singh","so":"Ramchander","Address":"Rasulpur Rohta p.s. Rohta","Phone":"Nil","Weapon":"SBBL"},{"Name":"Sandeep","so":"Rajveer","Address":"Rasulpur Rohta p.s. Rohta","Phone":"Nil","Weapon":"SBBL"},{"Name":"Manoj","so":"Narender","Address":"Rasulpur Rohta p.s. Rohta","Phone":"Nil","Weapon":"Rifle"},{"Name":"Bank Syndicat","so":"Nil","Address":"Rasulpur Rohta p.s. Rohta","Phone":"Nil","Weapon":"DBBL"},{"Name":"Jagat Singh","so":"Sishpal Singh","Address":"Rasulpur Rohta p.s. Rohta","Phone":"Nil","Weapon":"DBBL"},{"Name":"Kishan","so":"Swaroop","Address":"Rasulpur Rohta p.s. Rohta","Phone":"Nil","Weapon":"Rifle"},{"Name":"Rajeev Rathi","so":"Bhopal","Address":"Rasulpur Rohta p.s. Rohta","Phone":"Nil","Weapon":"DBBL"},{"Name":"Anuj Kumar","so":"Chanderpal","Address":"Rasulpur Rohta p.s. Rohta","Phone":"Nil","Weapon":"DBBL"},{"Name":"Chandram","so":"Karan Singh","Address":"Rasulpur Rohta p.s. Rohta","Phone":"Nil","Weapon":"Revolver"},{"Name":"Ritu Raj","so":"Vinod Kumar","Address":"Rasulpur Rohta p.s. Rohta","Phone":"Nil","Weapon":"PIstel"},{"Name":"Sunil Kumar","so":"bhrajbhusan","Address":"Rasulpur Rohta p.s. Rohta","Phone":"Nil","Weapon":"Rifle"},{"Name":"Pramod Kumar","so":"bhram Singh","Address":"Rasulpur Rohta p.s. Rohta","Phone":"Nil","Weapon":"PIstel"},{"Name":"Bhraj Mohan","so":"Charan Singh","Address":"Rasulpur Rohta p.s. Rohta","Phone":"Nil","Weapon":"Revolver"},{"Name":"Vipin Kumar","so":"Nepal Singh","Address":"Rasulpur Rohta p.s. Rohta","Phone":"Nil","Weapon":"DBBL"},{"Name":"Narender","so":"Bharm Singh","Address":"Rasulpur Rohta p.s. Rohta","Phone":"Nil","Weapon":"DBBL"},{"Name":"Yogesh Kumar","so":"Ramvir","Address":"Rasulpur Rohta p.s. Rohta","Phone":"Nil","Weapon":"DBBL"},{"Name":"Distrik Cop. Bank","so":"Nil","Address":"Rasulpur Rohta p.s. Rohta","Phone":"Nil","Weapon":"DBBL"},{"Name":"Jangbhadur","so":"Narender","Address":"Rasulpur Rohta p.s. Rohta","Phone":"Nil","Weapon":"Revolver"},{"Name":"Amit Kumar","so":"Suresh Chand","Address":"Rasulpur Rohta p.s. Rohta","Phone":"Nil","Weapon":"DBBL"},{"Name":"Bhrabhusan","so":"Ferumal","Address":"Rasulpur Rohta p.s. Rohta","Phone":"Nil","Weapon":"DBBL"}],"chowkidar":[{"Name":"Sattar     ","so":"Nil","Address":"Rasulpur Rohta p.s. Rohta","Phone":"Nil"}],"councellor":[{"Name":"Jangbhadur   ","so":"Nil ","Address":"Rasulpur Rohta p.s. Rohta","Phone":"9568055476"}],"historySheeter":[{"Name":"Amit aka Bhura aka Ankit","so":"Bhrajpal","Address":"Rasulpur Rohta p.s. Rohta","Status":"Jail","Phone":"Nil"},{"Name":"Sandeep aka Bhartu Nai","so":"Dharmvi Nai","Address":"Rasulpur Rohta p.s. Rohta","Status":"Jail","Phone":"Nil"}],"convictedCriminals":[{"Name":"Nil","so":"Nil","Address":"Nil","crimeno":"Nil","Section":"Nil"}],"crimes5Yrs":[{"Name":"Mahrban","so":"Amsuddin","crimeno":"112/13","Section":"392 IPC","Address":"Gautam Bhuddh Nagar"},{"Name":"Seema","so":"w/o Monu Sharma","crimeno":"51/137/13","Section":"363,366,3(2) SC/ST Act","Address":"Rasulpur Rohta p.s. Rohta"},{"Name":"Narender","so":"Sensarpal","crimeno":"51/137/13","Section":"363,366,3(2) SC/ST Act","Address":"Dibolli Kankerkhera"},{"Name":"Amit Thakur","so":"N/A","crimeno":"29/119/14","Section":"302 IPC","Address":"Antek Bihar Meerut"},{"Name":"Sunil Kumar","so":"N/A","crimeno":"29/119/14","Section":"303 IPC","Address":"Antek Bihar Meerut"},{"Name":"Vikky","so":"Bhrampal","crimeno":"34/125/14","Section":"302,394 IPC","Address":"Rasulpur Rohta p.s. Rohta"},{"Name":"Dhrampal","so":"Kale","crimeno":"69/211/14","Section":"302 IPC","Address":"Rasulpur Rohta p.s. Rohta"},{"Name":"Dharmender","so":"Dhrampal","crimeno":"69/211/14","Section":"303 IPC","Address":"Rasulpur Rohta p.s. Rohta"},{"Name":"Jitender","so":"Kalu","crimeno":"69/211/14","Section":"304 IPC","Address":"Rasulpur Rohta p.s. Rohta"},{"Name":"Amit aka Babalu","so":"Rajvir","crimeno":"09.14","Section":"302,307 IPC","Address":"Rasulpur Rohta p.s. Rohta"},{"Name":"Parvender","so":"Shubhash","crimeno":"19/14","Section":"392 IPC","Address":"Rasulpur Rohta p.s. Rohta"},{"Name":"Mohit","so":"Vinod aka Lineman","crimeno":"19/14","Section":"392IPC","Address":"Rasulpur Rohta p.s. Rohta"},{"Name":"Anish","so":"Ali sher","crimeno":"19/14","Section":"392IPC","Address":"Rasulpur Rohta p.s. Rohta"},{"Name":"Sagar","so":"Satish","crimeno":"19/14","Section":"392 IPC","Address":"Rasulpur Rohta p.s. Rohta"},{"Name":"Mohit","so":"Amarpal","crimeno":"54/15","Section":"392 IPC","Address":"Rasulpur Rohta p.s. Rohta"},{"Name":"Amit aka Pauwa","so":"Dhrampal","crimeno":"129/15","Section":"302 IPC","Address":"Rasulpur Rohta p.s. Rohta"},{"Name":"Meharaj aka Meraaz","so":"Sahabuddin","crimeno":"169/15","Section":"392 IPC","Address":"Rasulpur Rohta p.s. Rohta"},{"Name":"Rajender aka Lala","so":"Jeetram","crimeno":"184/15","Section":"376D,506 IPC, Posco Act","Address":"Rasulpur Rohta p.s. Rohta"},{"Name":"Niraj ","so":"Brijesh","crimeno":"184/15","Section":"376D,506 IPC, Posco Act","Address":"Rasulpur Rohta p.s. Rohta"},{"Name":"Monu aka Amit","so":"Kawarpal","crimeno":"237/16","Section":"302,386,216,120B IPC","Address":"Rasulpur Rohta p.s. Rohta"},{"Name":"SHiv Kumar","so":"Bhram Singh","crimeno":"237/16","Section":"302,386,216,120B IPC","Address":"Rasulpur Rohta p.s. Rohta"},{"Name":"Pawan ","so":"Rajvir","crimeno":"237/16","Section":"302,386,216,120B IPC","Address":"Rasulpur Rohta p.s. Rohta"},{"Name":"Kawarpal","so":"Dharmvir","crimeno":"237/16","Section":"302,386,216,120B IPC","Address":"Rasulpur Rohta p.s. Rohta"},{"Name":"Ratanpal","so":"Baru","crimeno":"237/16","Section":"302,386,216,120B IPC","Address":"Rasulpur Rohta p.s. Rohta"},{"Name":"Yashpal","so":"Dhramvir","crimeno":"237/16","Section":"302,386,216,120B IPC","Address":"Rasulpur Rohta p.s. Rohta"},{"Name":"Naresh","so":"Praklash","crimeno":"242/16","Section":"147,148,149,452,386,302,34 IPC,3(2)V SC/ST Act","Address":"Rasulpur Rohta p.s. Rohta"},{"Name":"Monu aka Amit","so":"Kawarpal","crimeno":"242/16","Section":"147,148,149,452,386,302,34 IPC,3(2)V SC/ST Act","Address":"Rasulpur Rohta p.s. Rohta"},{"Name":"Deepak ","so":"naresh","crimeno":"242/16","Section":"147,148,149,452,386,302,34 IPC,3(2)V SC/ST Act","Address":"Rasulpur Rohta p.s. Rohta"}],"electionCrimes":[{"Name":"Nil","so":"Nil","crimeno":"Nil","Section":"Nil","Address":"Nil"}],"politician":[{"Name":"Nil","so":"Nil","Address":"Nil","Phone":"Nil"}],"boundDownUnder":"30","vulnerabilityDetails":" Very Critical","warrantedCriminals":[{"Name":"Nil","so":"Nil","Address":"Nil","Phone":"Nil"}],"condition":"Good"},{"stationID":"RO-24","stationName":"Rajkiya Kanya Jr. High School Rasulpur Rohta 02","latitude":"29.0306","longitude":"77.5454","polingCenterPhoto":"../img/mediPanchayat.png","routes":"../img/3.png","collectionPoint":"../img/3.png","population":"20000","voters":"8700","villageMohalla":"Rasulpur Rohta","path":"#/menu/tab/medicalDetails","respectedPpl":[{"Name":"Ompal","so":"Aman Singh","Address":"Rasulpur Rohta p.s. Rohta","Phone":"8869044987"},{"Name":"Jang Bahadur","so":"Ompal","Address":"Rasulpur Rohta p.s. Rohta","Phone":"9568055476"},{"Name":"Shri Balister","so":"Mahavir","Address":"Rasulpur Rohta p.s. Rohta","Phone":"9636432901"},{"Name":"Asif Poorva Prdhan","so":"Nil","Address":"Rasulpur Rohta p.s. Rohta","Phone":"9411688750"},{"Name":"Hari Shrama","so":"Mahesh Shrama","Address":"Rasulpur Rohta p.s. Rohta","Phone":"9758770423"}],"retiredGovtSer":[{"Name":"Mahak Singh","so":"Badan Singh","Address":"Rasulpur Rohta p.s. Rohta","Phone":"8475900435"},{"Name":"Vir Singh","so":"Bhawar Singh","Address":"Rasulpur Rohta p.s. Rohta","Phone":"Nil"},{"Name":"Jang Bahadur","so":"Narender","Address":"Rasulpur Rohta p.s. Rohta","Phone":"7351963256"},{"Name":"Harpal","so":"Mohar Singh","Address":"Rasulpur Rohta p.s. Rohta","Phone":"9358294421"},{"Name":"Mahender ","so":"Dhram Singh","Address":"Rasulpur Rohta p.s. Rohta","Phone":"Nil"}],"neighbourPolling":[{"Name":"Balister ","so":"Mahavir","Address":"Rashulpur Rohta","Phone":"9636432901"},{"Name":"Lalit","so":"Baburam","Address":"Rashulpur Rohta","Phone":"9536434024"},{"Name":"Chander pal","so":"Khadak Singh","Address":"Rashulpur Rohta","Phone":"9639239933"}],"armsLicenseHolder":[{"Name":"Kawal Singh","so":"Ramchander","Address":"Rasulpur Rohta p.s. Rohta","Phone":"Nil","Weapon":"SBBL"},{"Name":"Sandeep","so":"Rajveer","Address":"Rasulpur Rohta p.s. Rohta","Phone":"Nil","Weapon":"SBBL"},{"Name":"Manoj","so":"Narender","Address":"Rasulpur Rohta p.s. Rohta","Phone":"Nil","Weapon":"Rifle"},{"Name":"Bank Syndicat","so":"Nil","Address":"Rasulpur Rohta p.s. Rohta","Phone":"Nil","Weapon":"DBBL"},{"Name":"Jagat Singh","so":"Sishpal Singh","Address":"Rasulpur Rohta p.s. Rohta","Phone":"Nil","Weapon":"DBBL"},{"Name":"Kishan","so":"Swaroop","Address":"Rasulpur Rohta p.s. Rohta","Phone":"Nil","Weapon":"Rifle"},{"Name":"Rajeev Rathi","so":"Bhopal","Address":"Rasulpur Rohta p.s. Rohta","Phone":"Nil","Weapon":"DBBL"},{"Name":"Anuj Kumar","so":"Chanderpal","Address":"Rasulpur Rohta p.s. Rohta","Phone":"Nil","Weapon":"DBBL"},{"Name":"Chandram","so":"Karan Singh","Address":"Rasulpur Rohta p.s. Rohta","Phone":"Nil","Weapon":"Revolver"},{"Name":"Ritu Raj","so":"Vinod Kumar","Address":"Rasulpur Rohta p.s. Rohta","Phone":"Nil","Weapon":"PIstel"},{"Name":"Sunil Kumar","so":"bhrajbhusan","Address":"Rasulpur Rohta p.s. Rohta","Phone":"Nil","Weapon":"Rifle"},{"Name":"Pramod Kumar","so":"bhram Singh","Address":"Rasulpur Rohta p.s. Rohta","Phone":"Nil","Weapon":"PIstel"},{"Name":"Bhraj Mohan","so":"Charan Singh","Address":"Rasulpur Rohta p.s. Rohta","Phone":"Nil","Weapon":"Revolver"},{"Name":"Vipin Kumar","so":"Nepal Singh","Address":"Rasulpur Rohta p.s. Rohta","Phone":"Nil","Weapon":"DBBL"},{"Name":"Narender","so":"Bharm Singh","Address":"Rasulpur Rohta p.s. Rohta","Phone":"Nil","Weapon":"DBBL"},{"Name":"Yogesh Kumar","so":"Ramvir","Address":"Rasulpur Rohta p.s. Rohta","Phone":"Nil","Weapon":"DBBL"},{"Name":"Distrik Cop. Bank","so":"Nil","Address":"Rasulpur Rohta p.s. Rohta","Phone":"Nil","Weapon":"DBBL"},{"Name":"Jangbhadur","so":"Narender","Address":"Rasulpur Rohta p.s. Rohta","Phone":"Nil","Weapon":"Revolver"},{"Name":"Amit Kumar","so":"Suresh Chand","Address":"Rasulpur Rohta p.s. Rohta","Phone":"Nil","Weapon":"DBBL"},{"Name":"Bhrabhusan","so":"Ferumal","Address":"Rasulpur Rohta p.s. Rohta","Phone":"Nil","Weapon":"DBBL"}],"chowkidar":[{"Name":"Sattar     ","so":"Nil","Address":"Rasulpur Rohta p.s. Rohta","Phone":"Nil"}],"councellor":[{"Name":"Jangbhadur   ","so":"Nil ","Address":"Rasulpur Rohta p.s. Rohta","Phone":"9568055476"}],"historySheeter":[{"Name":"Amit aka Bhura aka Ankit","so":"Bhrajpal","Address":"Rasulpur Rohta p.s. Rohta","Status":"Jail","Phone":"Nil"},{"Name":"Sandeep aka Bhartu Nai","so":"Dharmvi Nai","Address":"Rasulpur Rohta p.s. Rohta","Status":"Jail","Phone":"Nil"}],"convictedCriminals":[{"Name":"Nil","so":"Nil","Address":"Nil","crimeno":"Nil","Section":"Nil"}],"crimes5Yrs":[{"Name":"Mahrban","so":"Amsuddin","crimeno":"112/13","Section":"392 IPC","Address":"Gautam Bhuddh Nagar"},{"Name":"Seema","so":"w/o Monu Sharma","crimeno":"51/137/13","Section":"363,366,3(2) SC/ST Act","Address":"Rasulpur Rohta p.s. Rohta"},{"Name":"Narender","so":"Sensarpal","crimeno":"51/137/13","Section":"363,366,3(2) SC/ST Act","Address":"Dibolli Kankerkhera"},{"Name":"Amit Thakur","so":"N/A","crimeno":"29/119/14","Section":"302 IPC","Address":"Antek Bihar Meerut"},{"Name":"Sunil Kumar","so":"N/A","crimeno":"29/119/14","Section":"303 IPC","Address":"Antek Bihar Meerut"},{"Name":"Vikky","so":"Bhrampal","crimeno":"34/125/14","Section":"302,394 IPC","Address":"Rasulpur Rohta p.s. Rohta"},{"Name":"Dhrampal","so":"Kale","crimeno":"69/211/14","Section":"302 IPC","Address":"Rasulpur Rohta p.s. Rohta"},{"Name":"Dharmender","so":"Dhrampal","crimeno":"69/211/14","Section":"303 IPC","Address":"Rasulpur Rohta p.s. Rohta"},{"Name":"Jitender","so":"Kalu","crimeno":"69/211/14","Section":"304 IPC","Address":"Rasulpur Rohta p.s. Rohta"},{"Name":"Amit aka Babalu","so":"Rajvir","crimeno":"09.14","Section":"302,307 IPC","Address":"Rasulpur Rohta p.s. Rohta"},{"Name":"Parvender","so":"Shubhash","crimeno":"19/14","Section":"392 IPC","Address":"Rasulpur Rohta p.s. Rohta"},{"Name":"Mohit","so":"Vinod aka Lineman","crimeno":"19/14","Section":"392IPC","Address":"Rasulpur Rohta p.s. Rohta"},{"Name":"Anish","so":"Ali sher","crimeno":"19/14","Section":"392IPC","Address":"Rasulpur Rohta p.s. Rohta"},{"Name":"Sagar","so":"Satish","crimeno":"19/14","Section":"392 IPC","Address":"Rasulpur Rohta p.s. Rohta"},{"Name":"Mohit","so":"Amarpal","crimeno":"54/15","Section":"392 IPC","Address":"Rasulpur Rohta p.s. Rohta"},{"Name":"Amit aka Pauwa","so":"Dhrampal","crimeno":"129/15","Section":"302 IPC","Address":"Rasulpur Rohta p.s. Rohta"},{"Name":"Meharaj aka Meraaz","so":"Sahabuddin","crimeno":"169/15","Section":"392 IPC","Address":"Rasulpur Rohta p.s. Rohta"},{"Name":"Rajender aka Lala","so":"Jeetram","crimeno":"184/15","Section":"376D,506 IPC, Posco Act","Address":"Rasulpur Rohta p.s. Rohta"},{"Name":"Niraj ","so":"Brijesh","crimeno":"184/15","Section":"376D,506 IPC, Posco Act","Address":"Rasulpur Rohta p.s. Rohta"},{"Name":"Monu aka Amit","so":"Kawarpal","crimeno":"237/16","Section":"302,386,216,120B IPC","Address":"Rasulpur Rohta p.s. Rohta"},{"Name":"SHiv Kumar","so":"Bhram Singh","crimeno":"237/16","Section":"302,386,216,120B IPC","Address":"Rasulpur Rohta p.s. Rohta"},{"Name":"Pawan ","so":"Rajvir","crimeno":"237/16","Section":"302,386,216,120B IPC","Address":"Rasulpur Rohta p.s. Rohta"},{"Name":"Kawarpal","so":"Dharmvir","crimeno":"237/16","Section":"302,386,216,120B IPC","Address":"Rasulpur Rohta p.s. Rohta"},{"Name":"Ratanpal","so":"Baru","crimeno":"237/16","Section":"302,386,216,120B IPC","Address":"Rasulpur Rohta p.s. Rohta"},{"Name":"Yashpal","so":"Dhramvir","crimeno":"237/16","Section":"302,386,216,120B IPC","Address":"Rasulpur Rohta p.s. Rohta"},{"Name":"Naresh","so":"Praklash","crimeno":"242/16","Section":"147,148,149,452,386,302,34 IPC,3(2)V SC/ST Act","Address":"Rasulpur Rohta p.s. Rohta"},{"Name":"Monu aka Amit","so":"Kawarpal","crimeno":"242/16","Section":"147,148,149,452,386,302,34 IPC,3(2)V SC/ST Act","Address":"Rasulpur Rohta p.s. Rohta"},{"Name":"Deepak ","so":"naresh","crimeno":"242/16","Section":"147,148,149,452,386,302,34 IPC,3(2)V SC/ST Act","Address":"Rasulpur Rohta p.s. Rohta"}],"electionCrimes":[{"Name":"Nil","so":"Nil","crimeno":"Nil","Section":"Nil","Address":"Nil"}],"politician":[{"Name":"Nil","so":"Nil","Address":"Nil","Phone":"Nil"}],"boundDownUnder":"30","vulnerabilityDetails":" Very Critical","warrantedCriminals":[{"Name":"Nil","so":"Nil","Address":"Nil","Phone":"Nil"}],"condition":"Good"},{"stationID":"RO-25","stationName":"Kendriy Prathmik Vidyalaya Rasulpur Rohta 03","latitude":"29.0328","longitude":"77.5477 ","polingCenterPhoto":"../img/mediPanchayat.png","routes":"../img/3.png","collectionPoint":"../img/3.png","population":"20000","voters":"8700","villageMohalla":"Rasulpur Rohta","path":"#/menu/tab/medicalDetails","respectedPpl":[{"Name":"Ompal","so":"Aman Singh","Address":"Rasulpur Rohta p.s. Rohta","Phone":"8869044987"},{"Name":"Jang Bahadur","so":"Ompal","Address":"Rasulpur Rohta p.s. Rohta","Phone":"9568055476"},{"Name":"Shri Balister","so":"Mahavir","Address":"Rasulpur Rohta p.s. Rohta","Phone":"9636432901"},{"Name":"Asif Poorva Prdhan","so":"Nil","Address":"Rasulpur Rohta p.s. Rohta","Phone":"9411688750"},{"Name":"Hari Shrama","so":"Mahesh Shrama","Address":"Rasulpur Rohta p.s. Rohta","Phone":"9758770423"}],"retiredGovtSer":[{"Name":"Mahak Singh","so":"Badan Singh","Address":"Rasulpur Rohta p.s. Rohta","Phone":"8475900435"},{"Name":"Vir Singh","so":"Bhawar Singh","Address":"Rasulpur Rohta p.s. Rohta","Phone":"Nil"},{"Name":"Jang Bahadur","so":"Narender","Address":"Rasulpur Rohta p.s. Rohta","Phone":"7351963256"},{"Name":"Harpal","so":"Mohar Singh","Address":"Rasulpur Rohta p.s. Rohta","Phone":"9358294421"},{"Name":"Mahender ","so":"Dhram Singh","Address":"Rasulpur Rohta p.s. Rohta","Phone":"Nil"}],"neighbourPolling":[{"Name":"Jangbhadur","so":"Ompal","Address":"Rashulpur Rohta","Phone":"9568055476"},{"Name":"Ompal","so":"Pritam Singh","Address":"Rashulpur Rohta","Phone":"9897749658"},{"Name":"Shranvir","so":"Bhram Singh","Address":"Rashulpur Rohta","Phone":"9012819391"},{"Name":"Hariom","so":"Sukhpal","Address":"Rashulpur Rohta","Phone":"9720520755"}],"armsLicenseHolder":[{"Name":"Kawal Singh","so":"Ramchander","Address":"Rasulpur Rohta p.s. Rohta","Phone":"Nil","Weapon":"SBBL"},{"Name":"Sandeep","so":"Rajveer","Address":"Rasulpur Rohta p.s. Rohta","Phone":"Nil","Weapon":"SBBL"},{"Name":"Manoj","so":"Narender","Address":"Rasulpur Rohta p.s. Rohta","Phone":"Nil","Weapon":"Rifle"},{"Name":"Bank Syndicat","so":"Nil","Address":"Rasulpur Rohta p.s. Rohta","Phone":"Nil","Weapon":"DBBL"},{"Name":"Jagat Singh","so":"Sishpal Singh","Address":"Rasulpur Rohta p.s. Rohta","Phone":"Nil","Weapon":"DBBL"},{"Name":"Kishan","so":"Swaroop","Address":"Rasulpur Rohta p.s. Rohta","Phone":"Nil","Weapon":"Rifle"},{"Name":"Rajeev Rathi","so":"Bhopal","Address":"Rasulpur Rohta p.s. Rohta","Phone":"Nil","Weapon":"DBBL"},{"Name":"Anuj Kumar","so":"Chanderpal","Address":"Rasulpur Rohta p.s. Rohta","Phone":"Nil","Weapon":"DBBL"},{"Name":"Chandram","so":"Karan Singh","Address":"Rasulpur Rohta p.s. Rohta","Phone":"Nil","Weapon":"Revolver"},{"Name":"Ritu Raj","so":"Vinod Kumar","Address":"Rasulpur Rohta p.s. Rohta","Phone":"Nil","Weapon":"PIstel"},{"Name":"Sunil Kumar","so":"bhrajbhusan","Address":"Rasulpur Rohta p.s. Rohta","Phone":"Nil","Weapon":"Rifle"},{"Name":"Pramod Kumar","so":"bhram Singh","Address":"Rasulpur Rohta p.s. Rohta","Phone":"Nil","Weapon":"PIstel"},{"Name":"Bhraj Mohan","so":"Charan Singh","Address":"Rasulpur Rohta p.s. Rohta","Phone":"Nil","Weapon":"Revolver"},{"Name":"Vipin Kumar","so":"Nepal Singh","Address":"Rasulpur Rohta p.s. Rohta","Phone":"Nil","Weapon":"DBBL"},{"Name":"Narender","so":"Bharm Singh","Address":"Rasulpur Rohta p.s. Rohta","Phone":"Nil","Weapon":"DBBL"},{"Name":"Yogesh Kumar","so":"Ramvir","Address":"Rasulpur Rohta p.s. Rohta","Phone":"Nil","Weapon":"DBBL"},{"Name":"Distrik Cop. Bank","so":"Nil","Address":"Rasulpur Rohta p.s. Rohta","Phone":"Nil","Weapon":"DBBL"},{"Name":"Jangbhadur","so":"Narender","Address":"Rasulpur Rohta p.s. Rohta","Phone":"Nil","Weapon":"Revolver"},{"Name":"Amit Kumar","so":"Suresh Chand","Address":"Rasulpur Rohta p.s. Rohta","Phone":"Nil","Weapon":"DBBL"},{"Name":"Bhrabhusan","so":"Ferumal","Address":"Rasulpur Rohta p.s. Rohta","Phone":"Nil","Weapon":"DBBL"}],"chowkidar":[{"Name":"Sattar     ","so":"Nil","Address":"Rasulpur Rohta p.s. Rohta","Phone":"Nil"}],"councellor":[{"Name":"Jangbhadur   ","so":"Nil ","Address":"Rasulpur Rohta p.s. Rohta","Phone":"9568055476"}],"historySheeter":[{"Name":"Amit aka Bhura aka Ankit","so":"Bhrajpal","Address":"Rasulpur Rohta p.s. Rohta","Status":"Jail","Phone":"Nil"},{"Name":"Sandeep aka Bhartu Nai","so":"Dharmvi Nai","Address":"Rasulpur Rohta p.s. Rohta","Status":"Jail","Phone":"Nil"}],"convictedCriminals":[{"Name":"Nil","so":"Nil","Address":"Nil","crimeno":"Nil","Section":"Nil"}],"crimes5Yrs":[{"Name":"Mahrban","so":"Amsuddin","crimeno":"112/13","Section":"392 IPC","Address":"Gautam Bhuddh Nagar"},{"Name":"Seema","so":"w/o Monu Sharma","crimeno":"51/137/13","Section":"363,366,3(2) SC/ST Act","Address":"Rasulpur Rohta p.s. Rohta"},{"Name":"Narender","so":"Sensarpal","crimeno":"51/137/13","Section":"363,366,3(2) SC/ST Act","Address":"Dibolli Kankerkhera"},{"Name":"Amit Thakur","so":"N/A","crimeno":"29/119/14","Section":"302 IPC","Address":"Antek Bihar Meerut"},{"Name":"Sunil Kumar","so":"N/A","crimeno":"29/119/14","Section":"303 IPC","Address":"Antek Bihar Meerut"},{"Name":"Vikky","so":"Bhrampal","crimeno":"34/125/14","Section":"302,394 IPC","Address":"Rasulpur Rohta p.s. Rohta"},{"Name":"Dhrampal","so":"Kale","crimeno":"69/211/14","Section":"302 IPC","Address":"Rasulpur Rohta p.s. Rohta"},{"Name":"Dharmender","so":"Dhrampal","crimeno":"69/211/14","Section":"303 IPC","Address":"Rasulpur Rohta p.s. Rohta"},{"Name":"Jitender","so":"Kalu","crimeno":"69/211/14","Section":"304 IPC","Address":"Rasulpur Rohta p.s. Rohta"},{"Name":"Amit aka Babalu","so":"Rajvir","crimeno":"09.14","Section":"302,307 IPC","Address":"Rasulpur Rohta p.s. Rohta"},{"Name":"Parvender","so":"Shubhash","crimeno":"19/14","Section":"392 IPC","Address":"Rasulpur Rohta p.s. Rohta"},{"Name":"Mohit","so":"Vinod aka Lineman","crimeno":"19/14","Section":"392IPC","Address":"Rasulpur Rohta p.s. Rohta"},{"Name":"Anish","so":"Ali sher","crimeno":"19/14","Section":"392IPC","Address":"Rasulpur Rohta p.s. Rohta"},{"Name":"Sagar","so":"Satish","crimeno":"19/14","Section":"392 IPC","Address":"Rasulpur Rohta p.s. Rohta"},{"Name":"Mohit","so":"Amarpal","crimeno":"54/15","Section":"392 IPC","Address":"Rasulpur Rohta p.s. Rohta"},{"Name":"Amit aka Pauwa","so":"Dhrampal","crimeno":"129/15","Section":"302 IPC","Address":"Rasulpur Rohta p.s. Rohta"},{"Name":"Meharaj aka Meraaz","so":"Sahabuddin","crimeno":"169/15","Section":"392 IPC","Address":"Rasulpur Rohta p.s. Rohta"},{"Name":"Rajender aka Lala","so":"Jeetram","crimeno":"184/15","Section":"376D,506 IPC, Posco Act","Address":"Rasulpur Rohta p.s. Rohta"},{"Name":"Niraj ","so":"Brijesh","crimeno":"184/15","Section":"376D,506 IPC, Posco Act","Address":"Rasulpur Rohta p.s. Rohta"},{"Name":"Monu aka Amit","so":"Kawarpal","crimeno":"237/16","Section":"302,386,216,120B IPC","Address":"Rasulpur Rohta p.s. Rohta"},{"Name":"SHiv Kumar","so":"Bhram Singh","crimeno":"237/16","Section":"302,386,216,120B IPC","Address":"Rasulpur Rohta p.s. Rohta"},{"Name":"Pawan ","so":"Rajvir","crimeno":"237/16","Section":"302,386,216,120B IPC","Address":"Rasulpur Rohta p.s. Rohta"},{"Name":"Kawarpal","so":"Dharmvir","crimeno":"237/16","Section":"302,386,216,120B IPC","Address":"Rasulpur Rohta p.s. Rohta"},{"Name":"Ratanpal","so":"Baru","crimeno":"237/16","Section":"302,386,216,120B IPC","Address":"Rasulpur Rohta p.s. Rohta"},{"Name":"Yashpal","so":"Dhramvir","crimeno":"237/16","Section":"302,386,216,120B IPC","Address":"Rasulpur Rohta p.s. Rohta"},{"Name":"Naresh","so":"Praklash","crimeno":"242/16","Section":"147,148,149,452,386,302,34 IPC,3(2)V SC/ST Act","Address":"Rasulpur Rohta p.s. Rohta"},{"Name":"Monu aka Amit","so":"Kawarpal","crimeno":"242/16","Section":"147,148,149,452,386,302,34 IPC,3(2)V SC/ST Act","Address":"Rasulpur Rohta p.s. Rohta"},{"Name":"Deepak ","so":"naresh","crimeno":"242/16","Section":"147,148,149,452,386,302,34 IPC,3(2)V SC/ST Act","Address":"Rasulpur Rohta p.s. Rohta"}],"electionCrimes":[{"Name":"Nil","so":"Nil","crimeno":"Nil","Section":"Nil","Address":"Nil"}],"politician":[{"Name":"Nil","so":"Nil","Address":"Nil","Phone":"Nil"}],"boundDownUnder":"30","vulnerabilityDetails":" Very Critical","warrantedCriminals":[{"Name":"Nil","so":"Nil","Address":"Nil","Phone":"Nil"}],"condition":"Good"},{"stationID":"RO-26","stationName":"Prathmik Vidyalaya Rasulpur Marhi","latitude":"29.0189","longitude":"77.5555 ","polingCenterPhoto":"../img/mediPanchayat.png","routes":"../img/3.png","collectionPoint":"../img/3.png","population":"4500","voters":"1550","villageMohalla":"Rasulpur Marhi","path":"#/menu/tab/medicalDetails","respectedPpl":[{"Name":"Santeep Kumar","so":"Ompal Singh","Address":"Rasulpur Marhi","Phone":"9456639545"},{"Name":"Mahavir Singh","so":"Tanshuk Lal","Address":"Rasulpur Marhi","Phone":"Nil"},{"Name":"Sujit Kumar","so":"Ompal Singh","Address":"Rasulpur Marhi","Phone":"Nil"},{"Name":"Arvind Kumar","so":"Rajeshwar Prsad","Address":"Rasulpur Marhi","Phone":"Nil"},{"Name":"Gyanesh Kumar","so":"Rajkumar","Address":"Rasulpur Marhi","Phone":"Nil"}],"retiredGovtSer":[{"Name":"Ashok","so":"Omprakash","Address":"Rasulpur Marhi","Phone":"Nil"}],"neighbourPolling":[{"Name":"Sandeep","so":"Ompal singh","Address":"Rasulpur Marhi","Phone":"9456639545"},{"Name":"Ravinderpal ","so":"Bhagmal","Address":"Rasulpur Marhi","Phone":"9917779655"},{"Name":"Mahenderpal","so":"Narang","Address":"Rasulpur Marhi","Phone":"7500474181"},{"Name":"Ajeet Gupta","so":"Rajeshwar Prasad","Address":"Rasulpur Marhi","Phone":"9719454426"},{"Name":"Sujeet Kumar","so":"Ompal Singh","Address":"Rasulpur Marhi","Phone":"9456204951"}],"armsLicenseHolder":[{"Name":"Sandeep Kumar","so":"Ompal","Address":"Rasulpur Marhi p.s. Rohta","Phone":"Nil","Weapon":"DBBL"},{"Name":"Uday Singh","so":"Kaluram","Address":"Rasulpur Marhi p.s. Rohta","Phone":"Nil","Weapon":"DBBL"},{"Name":"Hem Singh","so":"Bhram Singh","Address":"Rasulpur Marhi p.s. Rohta","Phone":"Nil","Weapon":"Rifle"},{"Name":"Ranveer Singh","so":"Hardan Singh","Address":"Rasulpur Marhi p.s. Rohta","Phone":"Nil","Weapon":"DBBL"},{"Name":"Gyanesh","so":"Rajpal","Address":"Rasulpur Marhi p.s. Rohta","Phone":"Nil","Weapon":"DBBL"},{"Name":"Mahavir Singh","so":"Tansuklal","Address":"Rasulpur Marhi p.s. Rohta","Phone":"Nil","Weapon":"DBBL"},{"Name":"Iqbal Singh","so":"Sobir","Address":"Rasulpur Marhi p.s. Rohta","Phone":"Nil","Weapon":"DBBL"},{"Name":"Naveen Sharma","so":"Ramkishan","Address":"Rasulpur Marhi p.s. Rohta","Phone":"Nil","Weapon":"DBBL"},{"Name":"Iqbal Singh","so":"Surajan Singh","Address":"Rasulpur Marhi p.s. Rohta","Phone":"Nil","Weapon":"DBBL"},{"Name":"Shukrampal ","so":"Surjan Singh","Address":"Rasulpur Marhi p.s. Rohta","Phone":"Nil","Weapon":"Rifle"},{"Name":"Ummedpal Singh ","so":"Ranveer Singh","Address":"Rasulpur Marhi p.s. Rohta","Phone":"Nil","Weapon":"DBBL"},{"Name":"Arvind","so":"Rajeshwar Prashad","Address":"Rasulpur Marhi p.s. Rohta","Phone":"Nil","Weapon":"Rifle"},{"Name":"Shudhir Kumar","so":"Mamchand","Address":"Rasulpur Marhi p.s. Rohta","Phone":"Nil","Weapon":"Revolver"}],"chowkidar":[{"Name":"Nil     ","so":"Nil","Address":"Nil","Phone":"Nil"}],"councellor":[{"Name":"Sandeep Kumar   ","so":"Nil ","Address":"Rasulpur Marhi p.s. Rohta","Phone":"9897102918"}],"historySheeter":[{"Name":"Jeetpal","so":"Nyadre","Address":"Rasulpur Marhi p.s. Rohta","Status":"Missing","Phone":"Nil"}],"convictedCriminals":[{"Name":"Nil","so":"Nil","Address":"Nil","crimeno":"Nil","Section":"Nil"}],"crimes5Yrs":[{"Name":"Dhramvir","so":"Mahender","crimeno":"427/12","Section":"302,427 IPC","Address":"Rasulpur Marhi p.s. Rohta"},{"Name":"Naresh","so":"Dhramvir","crimeno":"427/12","Section":"302,427 IPC","Address":"Rasulpur Marhi p.s. Rohta"},{"Name":"Manoj","so":"Dhramvir","crimeno":"427/12","Section":"302,427 IPC","Address":"Rasulpur Marhi p.s. Rohta"},{"Name":"Kumharesh","so":"Mahender","crimeno":"427/12","Section":"302,427 IPC","Address":"Rasulpur Marhi p.s. Rohta"},{"Name":"Rahul","so":"Subhash","crimeno":"195/13","Section":"302,34 IPC,","Address":"Bawali p.s. Barout Baghpat"},{"Name":"Rahul aka Kallu","so":"Jagpal","crimeno":"115/14","Section":"392 IPC","Address":"Amanullapur p.s. Rohta"},{"Name":"Anees","so":"Alisher","crimeno":"19/15","Section":"392,411 IPC","Address":"Rasulpur Marhi p.s. Rohta"}],"electionCrimes":[{"Name":"Nil","so":"Nil","crimeno":"Nil","Section":"Nil","Address":"Nil"}],"politician":[{"Name":"Nil","so":"Nil","Address":"Nil","Phone":"Nil"}],"boundDownUnder":"10","vulnerabilityDetails":"  Critical","warrantedCriminals":[{"Name":"Nil","so":"Nil","Address":"Nil","Phone":"Nil"}],"condition":"Good"},{"stationID":"RO-27","stationName":"Prathmik Vidyalaya Shahpur Jainpur","latitude":"29.0096","longitude":"77.6066 ","polingCenterPhoto":"../img/mediPanchayat.png","routes":"../img/3.png","collectionPoint":"../img/3.png","population":"5000","voters":"2132","villageMohalla":"Shahpur Jainpur","path":"#/menu/tab/medicalDetails","respectedPpl":[{"Name":"Hardeep Singh","so":"Prtap Singh","Address":"Shahpur Jainpur p.s. Rohta","Phone":"8859005468"},{"Name":"Gyan Vir Singh","so":"Mayaram Singh","Address":"Shahpur Jainpur p.s. Rohta","Phone":"9837014776"},{"Name":"Mahipal Singh","so":"Hukum Singh","Address":"Shahpur Jainpur p.s. Rohta","Phone":"9058296254"},{"Name":"Raj","so":"Ramfhal","Address":"Shahpur Jainpur p.s. Rohta","Phone":"9760864081"},{"Name":"Mahipal","so":"Kale Singh","Address":"Shahpur Jainpur p.s. Rohta","Phone":"Nil"}],"retiredGovtSer":[{"Name":"Jile Singh","so":"Bhram Singh","Address":"Shahpur Jainpur p.s. Rohta","Phone":"Nil"},{"Name":"Baburam ","so":"Sukhvir","Address":"Shahpur Jainpur p.s. Rohta","Phone":"Nil"},{"Name":"Janjeev","so":"Waran Singh","Address":"Shahpur Jainpur p.s. Rohta","Phone":"Nil"},{"Name":"bhrajpal","so":"Jhagaru","Address":"Shahpur Jainpur p.s. Rohta","Phone":"Nil"},{"Name":"Satender","so":"Sardar","Address":"Shahpur Jainpur p.s. Rohta","Phone":"Nil"},{"Name":"Pramod","so":"Randhir","Address":"Shahpur Jainpur p.s. Rohta","Phone":"Nil"},{"Name":"Satvir ","so":"Deewan","Address":"Shahpur Jainpur p.s. Rohta","Phone":"Nil"},{"Name":"Devender ","so":"Jaivir","Address":"Shahpur Jainpur p.s. Rohta","Phone":"Nil"},{"Name":"Pushpender","so":"Dehal Singh","Address":"Shahpur Jainpur p.s. Rohta","Phone":"Nil"}],"neighbourPolling":[{"Name":"Vijender Singh","so":"Jhagru Singh","Address":"Shahpur Jainpur p.s. Rohta","Phone":"9917192411"},{"Name":"Dhanraj","so":"Bhrajpal","Address":"Shahpur Jainpur p.s. Rohta","Phone":"8273707752"},{"Name":"Gyanender ","so":"Lallu","Address":"Shahpur Jainpur p.s. Rohta","Phone":"9719304270"},{"Name":"Rajender","so":"Lallu","Address":"Shahpur Jainpur p.s. Rohta","Phone":"9690858896"},{"Name":"Santlal","so":"Dile ram","Address":"Shahpur Jainpur p.s. Rohta","Phone":"9058112763"}],"armsLicenseHolder":[{"Name":"Devender","so":"Jaivir Singh","Address":"Shahpur Jainpur p.s. Rohta","Phone":"Nil","Weapon":"DBBL"},{"Name":"Rajender ","so":"Lakhiram","Address":"Shahpur Jainpur p.s. Rohta","Phone":"Nil","Weapon":"DBBL"},{"Name":"Vijender","so":"Jhagaru","Address":"Shahpur Jainpur p.s. Rohta","Phone":"Nil","Weapon":"Rifle"},{"Name":"harender ","so":"Shawraj Singh","Address":"Shahpur Jainpur p.s. Rohta","Phone":"Nil","Weapon":"Rifle"}],"chowkidar":[{"Name":"Jagdish      ","so":"Nil","Address":"Shahpur Jainpur p.s. Rohta","Phone":"9756529287"}],"councellor":[{"Name":"Harender Singh   ","so":"Nil ","Address":"Shahpur Jainpur p.s. Rohta","Phone":"9719815870"}],"historySheeter":[{"Name":"Parveen","so":"Wahidu Dhobbi","Address":"Shahpur Jainpur p.s. Rohta","Status":"Present","Phone":"Nil"}],"convictedCriminals":[{"Name":"Nil","so":"Nil","Address":"Nil","crimeno":"Nil","Section":"Nil"}],"crimes5Yrs":[{"Name":"Azad","so":"Shri Ram","crimeno":"548/12","Section":"498A,323,504,376 IPC","Address":"Bhahmori p.s. Dorala"},{"Name":"Hasin aka Noor Mohammad","so":"Ibrahim","crimeno":"37/15","Section":"392 IPC","Address":"Lisari gate Meerut Shyam Nagar"},{"Name":"Irshad aka Chotu","so":"Mohd. Khali","crimeno":"37/15","Section":"392 IPC","Address":"Ahmednagar p.s. Lisari Gate Meerut"}],"electionCrimes":[{"Name":"Nil","so":"Nil","crimeno":"Nil","Section":"Nil","Address":"Nil"}],"politician":[{"Name":"Nil","so":"Nil","Address":"Nil","Phone":"Nil"}],"boundDownUnder":"15","vulnerabilityDetails":"  Very Critical","warrantedCriminals":[{"Name":"Nil","so":"Nil","Address":"Nil","Phone":"Nil"}],"condition":"Good"},{"stationID":"RO-28","stationName":"Prathmik Vidyalaya Azampur","latitude":"29.0227","longitude":"77.5907 ","polingCenterPhoto":"../img/mediPanchayat.png","routes":"../img/3.png","collectionPoint":"../img/3.png","population":"1800","voters":"1054","villageMohalla":"Azampur","path":"#/menu/tab/medicalDetails","respectedPpl":[{"Name":"Krishan Sharma","so":"Mahvir Sharma","Address":"Azampur p.s. Rohta","Phone":"9639624364"},{"Name":"Ashok Kumar","so":"Sukhvir Singh","Address":"Azampur p.s. Rohta","Phone":"Nil"},{"Name":"Mukesh Kumar","so":"Rajpal Sharma","Address":"Azampur p.s. Rohta","Phone":"7409793421"}],"retiredGovtSer":[{"Name":"Gajraj","so":"Sobharam","Address":"Azampur p.s. rohta","Phone":"Nil"},{"Name":"Boby","so":"Beail Singh","Address":"Azampur p.s. rohta","Phone":"Nil"}],"neighbourPolling":[{"Name":"Shukpal Singh","so":"Mangla Singh","Address":"Azampur p.s. rohta","Phone":"Nil"},{"Name":"Mukesh Kumar","so":"Rajpal Sharma","Address":"Azampur p.s. rohta","Phone":"7409793421"},{"Name":"Krishan Sharma","so":"Mahavir Sharma","Address":"Azampur p.s. rohta","Phone":"9639624364"},{"Name":"Yameen","so":"Wahid","Address":"Azampur p.s. rohta","Phone":"8755561953"}],"armsLicenseHolder":[{"Name":"Ashok Kumar","so":"Shukhvir Singh","Address":"Azampur p.s. rohta","Phone":"Nil","Weapon":"DBBL"},{"Name":"Yashpal Singh","so":"Bhram Singh","Address":"Azampur p.s. rohta","Phone":"Nil","Weapon":"DBBL"}],"chowkidar":[{"Name":"Nil      ","so":"Nil","Address":"Nil","Phone":"Nil"}],"councellor":[{"Name":"Smt. Neeta   ","so":"Nil ","Address":"Azampur p.s. rohta","Phone":"9759873306"}],"historySheeter":[{"Name":"Kranpal","so":"Raghuvir Singh","Address":"Azampur p.s. rohta","Status":"Present","Phone":"Nil"}],"convictedCriminals":[{"Name":"Nil","so":"Nil","Address":"Nil","crimeno":"Nil","Section":"Nil"}],"crimes5Yrs":[{"Name":"Sahnwaj","so":"Bhura","crimeno":"442/14","Section":"392,411,342 IPC","Address":"Azampur p.s. rohta"},{"Name":"Irafan","so":"Bhura","crimeno":"442/14","Section":"392,411,342 IPC","Address":"Azampur p.s. rohta"},{"Name":"Sajid ","so":"Bhura","crimeno":"442/14","Section":"392,411,342 IPC","Address":"Azampur p.s. rohta"}],"electionCrimes":[{"Name":"Nil","so":"Nil","crimeno":"Nil","Section":"Nil","Address":"Nil"}],"politician":[{"Name":"Nil","so":"Nil","Address":"Nil","Phone":"Nil"}],"boundDownUnder":"10","vulnerabilityDetails":"General","warrantedCriminals":[{"Name":"Nil","so":"Nil","Address":"Nil","Phone":"Nil"}],"condition":"Good"},{"stationID":"RO-29","stationName":"Prathmik Vidyalaya Puth khas","latitude":"29.0287","longitude":"77.5856 ","polingCenterPhoto":"../img/mediPanchayat.png","routes":"../img/3.png","collectionPoint":"../img/3.png","population":"10000","voters":"5500","villageMohalla":"Puth Khas","path":"#/menu/tab/medicalDetails","respectedPpl":[{"Name":"Sureshpal","so":"Mahavir Singh","Address":"Puth Khas p.s. Rohta","Phone":"Nil"},{"Name":"Sanjay","so":"Sureshpal","Address":"Puth Khas p.s. Rohta","Phone":"Nil"},{"Name":"Kawarpal ","so":"Mahavir","Address":"Puth Khas p.s. Rohta","Phone":"Nil"},{"Name":"Vinod Giri ","so":"Diwan Giri","Address":"Puth Khas p.s. Rohta","Phone":"Nil"},{"Name":"Rajkumar","so":"fhool Chand","Address":"Puth Khas p.s. Rohta","Phone":"Nil"}],"retiredGovtSer":[{"Name":"Ramawatar Shastri","so":"Ratanlal Sharma","Address":"Puth Khas p.s. Rohta","Phone":"9719821382"}],"neighbourPolling":[{"Name":"Anil ","so":"Sdata Ram","Address":"Puth Khas p.s. Rohta","Phone":"9759289310"},{"Name":"Rajesh","so":"Ramdatt","Address":"Puth Khas p.s. Rohta","Phone":"8393011197"},{"Name":"Devender","so":"Hem Singh","Address":"Puth Khas p.s. Rohta","Phone":"9756776430"},{"Name":"Sunil","so":"Data Ram","Address":"Puth Khas p.s. Rohta","Phone":"8430118039"},{"Name":"Sunil","so":"Hem Singh","Address":"Puth Khas p.s. Rohta","Phone":"9756776430"}],"armsLicenseHolder":[{"Name":"Niraj","so":"Babu Singh","Address":"Puth Khas p.s. Rohta","Phone":"Nil","Weapon":"Rifle"},{"Name":"Digender","so":"Sensharpal","Address":"Puth Khas p.s. Rohta","Phone":"Nil","Weapon":"Rifle"},{"Name":"Anwar","so":"Faiyaz","Address":"Puth Khas p.s. Rohta","Phone":"Nil","Weapon":"DBBL"},{"Name":"Chaman ","so":"Tejpal","Address":"Puth Khas p.s. Rohta","Phone":"Nil","Weapon":"DBBL"},{"Name":"Sandeep Kumar","so":"Mahavir","Address":"Puth Khas p.s. Rohta","Phone":"Nil","Weapon":"DBBL"},{"Name":"Jagdish","so":"Jagan Nath","Address":"Puth Khas p.s. Rohta","Phone":"Nil","Weapon":"Revolver"},{"Name":"Suresh","so":"Mahavir Singh","Address":"Puth Khas p.s. Rohta","Phone":"Nil","Weapon":"DBBL"},{"Name":"Abrar Ahmad","so":"Sarikul","Address":"Puth Khas p.s. Rohta","Phone":"Nil","Weapon":"DBBL"},{"Name":"Kuwarpal","so":"Mahavir Singh","Address":"Puth Khas p.s. Rohta","Phone":"Nil","Weapon":"DBBL"},{"Name":"Arvind Kumar","so":"mange Ram","Address":"Puth Khas p.s. Rohta","Phone":"Nil","Weapon":"Revolver"},{"Name":"Gullu ","so":"Fakira","Address":"Puth Khas p.s. Rohta","Phone":"Nil","Weapon":"Rifle"},{"Name":"Sahnwaj","so":"Kaluwa","Address":"Puth Khas p.s. Rohta","Phone":"Nil","Weapon":"SBBL"},{"Name":"Mahesh Rana","so":"Mahender Singh","Address":"Puth Khas p.s. Rohta","Phone":"Nil","Weapon":"DBBL"},{"Name":"Ashu ","so":"Fakira","Address":"Puth Khas p.s. Rohta","Phone":"Nil","Weapon":"Revolver"},{"Name":"Ali sher","so":"Yameen","Address":"Puth Khas p.s. Rohta","Phone":"Nil","Weapon":"DBBL"},{"Name":"Asmohammad","so":"Mohd. Habib","Address":"Puth Khas p.s. Rohta","Phone":"Nil","Weapon":"DBBL"},{"Name":"Salim Khan","so":"Babu Khan","Address":"Puth Khas p.s. Rohta","Phone":"Nil","Weapon":"DBBL"},{"Name":"Salim Khan","so":"Rafik","Address":"Puth Khas p.s. Rohta","Phone":"Nil","Weapon":"Revolver"},{"Name":"Vijender","so":"Sharanpal","Address":"Puth Khas p.s. Rohta","Phone":"Nil","Weapon":"Rifle"},{"Name":"Yogesh","so":"Jaypal","Address":"Puth Khas p.s. Rohta","Phone":"Nil","Weapon":"Revolver"},{"Name":"Pawan Kumar","so":"Te jpal","Address":"Puth Khas p.s. Rohta","Phone":"Nil","Weapon":"Revolver"},{"Name":"Gulser","so":"Yaseen","Address":"Puth Khas p.s. Rohta","Phone":"Nil","Weapon":"Rifle"}],"chowkidar":[{"Name":"Khursed ","so":"Nil","Address":"Puth Khas p.s. Rohta","Phone":"Nil"}],"councellor":[{"Name":"Smt. Poonam Devi","so":"Nil ","Address":"Puth Khas p.s. Rohta","Phone":"9456230043"}],"historySheeter":[{"Name":"Rishipal","so":"Hardan Singh","Address":"Puth Khas p.s. Rohta","Status":"Present","Phone":"Nil"},{"Name":"Ved","so":"Harlal","Address":"Puth Khas p.s. Rohta","Status":"Missing","Phone":"Nil"}],"convictedCriminals":[{"Name":"Nil","so":"Nil","Address":"Nil","crimeno":"Nil","Section":"Nil"}],"crimes5Yrs":[{"Name":"Nawiba","so":"Hakimuddin","crimeno":"82/13","Section":"395,412 IPC","Address":"Puth Khas p.s. Rohta"},{"Name":"Monu","so":"Ram Shrama","crimeno":"386/12","Section":"395,412 IPC","Address":"Puth Khas p.s. Rohta"},{"Name":"Guddu","so":"Fhool Singh","crimeno":"286/14","Section":"393 IPC","Address":"Puth Khas p.s. Rohta"}],"electionCrimes":[{"Name":"Nil","so":"Nil","crimeno":"Nil","Section":"Nil","Address":"Nil"}],"politician":[{"Name":"Nil","so":"Nil","Address":"Nil","Phone":"Nil"}],"boundDownUnder":"20","vulnerabilityDetails":"Very critical","warrantedCriminals":[{"Name":"Nil","so":"Nil","Address":"Nil","Phone":"Nil"}],"condition":"Good"},{"stationID":"RO-30","stationName":"M.P.M Jr. High School Puth khas 02","latitude":"29.0288","longitude":"77.5814 ","polingCenterPhoto":"../img/mediPanchayat.png","routes":"../img/3.png","collectionPoint":"../img/3.png","population":"10000","voters":"5500","villageMohalla":"Puth Khas","path":"#/menu/tab/medicalDetails","respectedPpl":[{"Name":"Sureshpal","so":"Mahavir Singh","Address":"Puth Khas p.s. Rohta","Phone":"Nil"},{"Name":"Sanjay","so":"Sureshpal","Address":"Puth Khas p.s. Rohta","Phone":"Nil"},{"Name":"Kawarpal ","so":"Mahavir","Address":"Puth Khas p.s. Rohta","Phone":"Nil"},{"Name":"Vinod Giri ","so":"Diwan Giri","Address":"Puth Khas p.s. Rohta","Phone":"Nil"},{"Name":"Rajkumar","so":"fhool Chand","Address":"Puth Khas p.s. Rohta","Phone":"Nil"}],"retiredGovtSer":[{"Name":"Ramawatar Shastri","so":"Ratanlal Sharma","Address":"Puth Khas p.s. Rohta","Phone":"9719821382"}],"neighbourPolling":[{"Name":"Nil","so":"Nil","Address":"Nil","Phone":"Nil"}],"armsLicenseHolder":[{"Name":"Niraj","so":"Babu Singh","Address":"Puth Khas p.s. Rohta","Phone":"Nil","Weapon":"Rifle"},{"Name":"Digender","so":"Sensharpal","Address":"Puth Khas p.s. Rohta","Phone":"Nil","Weapon":"Rifle"},{"Name":"Anwar","so":"Faiyaz","Address":"Puth Khas p.s. Rohta","Phone":"Nil","Weapon":"DBBL"},{"Name":"Chaman ","so":"Tejpal","Address":"Puth Khas p.s. Rohta","Phone":"Nil","Weapon":"DBBL"},{"Name":"Sandeep Kumar","so":"Mahavir","Address":"Puth Khas p.s. Rohta","Phone":"Nil","Weapon":"DBBL"},{"Name":"Jagdish","so":"Jagan Nath","Address":"Puth Khas p.s. Rohta","Phone":"Nil","Weapon":"Revolver"},{"Name":"Suresh","so":"Mahavir Singh","Address":"Puth Khas p.s. Rohta","Phone":"Nil","Weapon":"DBBL"},{"Name":"Abrar Ahmad","so":"Sarikul","Address":"Puth Khas p.s. Rohta","Phone":"Nil","Weapon":"DBBL"},{"Name":"Kuwarpal","so":"Mahavir Singh","Address":"Puth Khas p.s. Rohta","Phone":"Nil","Weapon":"DBBL"},{"Name":"Arvind Kumar","so":"mange Ram","Address":"Puth Khas p.s. Rohta","Phone":"Nil","Weapon":"Revolver"},{"Name":"Gullu ","so":"Fakira","Address":"Puth Khas p.s. Rohta","Phone":"Nil","Weapon":"Rifle"},{"Name":"Sahnwaj","so":"Kaluwa","Address":"Puth Khas p.s. Rohta","Phone":"Nil","Weapon":"SBBL"},{"Name":"Mahesh Rana","so":"Mahender Singh","Address":"Puth Khas p.s. Rohta","Phone":"Nil","Weapon":"DBBL"},{"Name":"Ashu ","so":"Fakira","Address":"Puth Khas p.s. Rohta","Phone":"Nil","Weapon":"Revolver"},{"Name":"Ali sher","so":"Yameen","Address":"Puth Khas p.s. Rohta","Phone":"Nil","Weapon":"DBBL"},{"Name":"Asmohammad","so":"Mohd. Habib","Address":"Puth Khas p.s. Rohta","Phone":"Nil","Weapon":"DBBL"},{"Name":"Salim Khan","so":"Babu Khan","Address":"Puth Khas p.s. Rohta","Phone":"Nil","Weapon":"DBBL"},{"Name":"Salim Khan","so":"Rafik","Address":"Puth Khas p.s. Rohta","Phone":"Nil","Weapon":"Revolver"},{"Name":"Vijender","so":"Sharanpal","Address":"Puth Khas p.s. Rohta","Phone":"Nil","Weapon":"Rifle"},{"Name":"Yogesh","so":"Jaypal","Address":"Puth Khas p.s. Rohta","Phone":"Nil","Weapon":"Revolver"},{"Name":"Pawan Kumar","so":"Te jpal","Address":"Puth Khas p.s. Rohta","Phone":"Nil","Weapon":"Revolver"},{"Name":"Gulser","so":"Yaseen","Address":"Puth Khas p.s. Rohta","Phone":"Nil","Weapon":"Rifle"}],"chowkidar":[{"Name":"Khursed ","so":"Nil","Address":"Puth Khas p.s. Rohta","Phone":"Nil"}],"councellor":[{"Name":"Smt. Poonam Devi","so":"Nil ","Address":"Puth Khas p.s. Rohta","Phone":"9456230043"}],"historySheeter":[{"Name":"Rishipal","so":"Hardan Singh","Address":"Puth Khas p.s. Rohta","Status":"Present","Phone":"Nil"},{"Name":"Ved","so":"Harlal","Address":"Puth Khas p.s. Rohta","Status":"Missing","Phone":"Nil"}],"convictedCriminals":[{"Name":"Nil","so":"Nil","Address":"Nil","crimeno":"Nil","Section":"Nil"}],"crimes5Yrs":[{"Name":"Nawiba","so":"Hakimuddin","crimeno":"82/13","Section":"395,412 IPC","Address":"Puth Khas p.s. Rohta"},{"Name":"Monu","so":"Ram Shrama","crimeno":"386/12","Section":"395,412 IPC","Address":"Puth Khas p.s. Rohta"},{"Name":"Guddu","so":"Fhool Singh","crimeno":"286/14","Section":"393 IPC","Address":"Puth Khas p.s. Rohta"}],"electionCrimes":[{"Name":"Nil","so":"Nil","crimeno":"Nil","Section":"Nil","Address":"Nil"}],"politician":[{"Name":"Nil","so":"Nil","Address":"Nil","Phone":"Nil"}],"boundDownUnder":"20","vulnerabilityDetails":"Very critical","warrantedCriminals":[{"Name":"Nil","so":"Nil","Address":"Nil","Phone":"Nil"}],"condition":"Good"},{"stationID":"RO-31","stationName":"Ucch Prathmik Vidyalaya Bhadaura Rohta 02","latitude":"29.0404","longitude":"77.5142 ","polingCenterPhoto":"../img/mediPanchayat.png","routes":"../img/3.png","collectionPoint":"../img/3.png","population":"6000","voters":"3000","villageMohalla":"Bhadaura ","path":"#/menu/tab/medicalDetails","respectedPpl":[{"Name":"Fhool Kumar","so":"Mahender","Address":"Bhadaura P.s. Rohta","Phone":"9758442167"},{"Name":"Krishanpal","so":"Rajaram","Address":"Bhadaura P.s. Rohta","Phone":"9720668485"},{"Name":"Nattan Singh","so":"Chandan Singh","Address":"Bhadaura P.s. Rohta","Phone":"Nil"},{"Name":"Kuwarpal","so":"Gyan Singh","Address":"Bhadaura P.s. Rohta","Phone":"8533949933"}],"retiredGovtSer":[{"Name":"Harjeet Saini","so":"Kale Saini","Address":"Bhadaura P.s. Rohta","Phone":"Nil"},{"Name":"Chander pal Saini","so":"Lal Singh","Address":"Bhadaura P.s. Rohta","Phone":"9837780300"},{"Name":"Virender Singh","so":"Shanker Singh","Address":"Bhadaura P.s. Rohta","Phone":"9897469798"},{"Name":"Viaipal ","so":"Shyam Singh","Address":"Bhadaura P.s. Rohta","Phone":"9058634024"},{"Name":"Nattan Singh","so":"Chanda singh","Address":"Bhadaura P.s. Rohta","Phone":"Nil"},{"Name":"Virender Singh","so":"Charn Singh","Address":"Bhadaura P.s. Rohta","Phone":"Nil"},{"Name":"Vijender","so":"Dhara Singh","Address":"Bhadaura P.s. Rohta","Phone":"Nil"}],"neighbourPolling":[{"Name":"Nil","so":"Nil","Address":"Nil","Phone":"Nil"}],"armsLicenseHolder":[{"Name":"Fhool Kumar","so":"Mahender","Address":"Bhadaura P.s. Rohta","Phone":"9758442167","Weapon":"DBBL"},{"Name":"Natthan Singh","so":"Chandan Singh","Address":"Bhadaura P.s. Rohta","Phone":"Nil","Weapon":"DBBL"},{"Name":"Rishipal ","so":"Dharam Singh","Address":"Bhadaura P.s. Rohta","Phone":"9456499149","Weapon":"DBBL"},{"Name":"Surender ","so":"Chanderbal","Address":"Bhadaura P.s. Rohta","Phone":"9634019644","Weapon":"DBBL"},{"Name":"Virender Kumar ","so":"Sishpal","Address":"Bhadaura P.s. Rohta","Phone":"8449755609","Weapon":"DBBL"},{"Name":"Krishanpal","so":"Rajaram","Address":"Bhadaura P.s. Rohta","Phone":"9720668485","Weapon":"DBBL"},{"Name":"Nepal Singh","so":"Mahvir Singh","Address":"Bhadaura P.s. Rohta","Phone":"8532037551","Weapon":"DBBL"},{"Name":"Lovekush","so":"kaluram","Address":"Bhadaura P.s. Rohta","Phone":"9412835103","Weapon":"DBBL"},{"Name":"Suresh malik","so":"Giriraj","Address":"Bhadaura P.s. Rohta","Phone":"9719758280","Weapon":"DBBL"},{"Name":"Maoujpal ","so":"Jaivir","Address":"Bhadaura P.s. Rohta","Phone":"9012843442","Weapon":"DBBL"},{"Name":"Rajesh","so":"Maheshpal","Address":"Bhadaura P.s. Rohta","Phone":"Nil","Weapon":"Revolver"},{"Name":"Kuwarpal ","so":"Gyan Singh","Address":"Bhadaura P.s. Rohta","Phone":"8533949933","Weapon":"Rifle"},{"Name":"Harender","so":"Jaswant Singh","Address":"Bhadaura P.s. Rohta","Phone":"Nil","Weapon":"Rifle"},{"Name":"Krishanpal ","so":"Horam","Address":"Bhadaura P.s. Rohta","Phone":"8126514176","Weapon":"DBBL"}],"chowkidar":[{"Name":"Inderpal  ","so":"Nil","Address":"Bhadaura P.s. Rohta","Phone":"9012018682"}],"councellor":[{"Name":"Smt. Kaveeta","so":"Nil ","Address":"PBhadaura P.s. Rohta","Phone":"8859525448"}],"historySheeter":[{"Name":"Virender","so":"Albel","Address":"Bhadaura P.s. Rohta","Status":"Jail","Phone":"Nil"},{"Name":"Lokender aka Lukka","so":"Mansingh","Address":"Bhadaura P.s. Rohta","Status":"Jail","Phone":"Nil"},{"Name":"yogesh","so":"Bhopal","Address":"Bhadaura P.s. Rohta","Status":"Jail","Phone":"Nil"}],"convictedCriminals":[{"Name":"Nil","so":"Nil","Address":"Nil","crimeno":"Nil","Section":"Nil"}],"crimes5Yrs":[{"Name":"Vikah aka Fouji","so":"Guruwachan","crimeno":"181/12","Section":"392 IPC","Address":"Bhadaura P.s. Rohta"},{"Name":"Vikah aka Fouji","so":"Guruwachan","crimeno":"261/12","Section":"392 IPC","Address":"Bhadaura P.s. Rohta"},{"Name":"Vishwash","so":"Bhopal","crimeno":"323/13","Section":"302,394,341 IPC","Address":"Bhadaura P.s. Rohta"},{"Name":"Nitin","so":"Vishwash","crimeno":"323/13","Section":"302,394,341 IPC","Address":"Bhadaura P.s. Rohta"},{"Name":"Kapil","so":"Dushyant","crimeno":"323/13","Section":"302,394,341 IPC","Address":"Bhadaura P.s. Rohta"},{"Name":"Rajan","so":"Dushyant","crimeno":"323/13","Section":"302,394,341 IPC","Address":"Bhadaura P.s. Rohta"},{"Name":"Mobin ","so":"Mahboob","crimeno":"24/78/14","Section":"302 Ipc","Address":"Bhadaura P.s. Rohta"},{"Name":"Sonveer aka Sonu","so":"Arvind","crimeno":"79/15","Section":"392 IPC","Address":"Bhadaura P.s. Rohta"}],"electionCrimes":[{"Name":"Nil","so":"Nil","crimeno":"Nil","Section":"Nil","Address":"Nil"}],"politician":[{"Name":"Nil","so":"Nil","Address":"Nil","Phone":"Nil"}],"boundDownUnder":"25","vulnerabilityDetails":"Very critical","warrantedCriminals":[{"Name":"Nil","so":"Nil","Address":"Nil","Phone":"Nil"}],"condition":"Good"},{"stationID":"RO-32","stationName":"Prathmik Vidyalaya Jattpura","latitude":"29.0547","longitude":"77.5950 ","polingCenterPhoto":"../img/mediPanchayat.png","routes":"../img/3.png","collectionPoint":"../img/3.png","population":"4000","voters":"1695","villageMohalla":"Jatpura ","path":"#/menu/tab/medicalDetails","respectedPpl":[{"Name":"Rajvir","so":"Bhagwan Singh","Address":"Jatpura p.s. Rohta","Phone":"9897330050"},{"Name":"Kawarpal","so":"Ram Das","Address":"Jatpura p.s. Rohta","Phone":"Nil"},{"Name":"Rajkumar","so":"Harpal Singh","Address":"Jatpura p.s. Rohta","Phone":"Nil"},{"Name":"Ilam Singh","so":"Mukhatyar","Address":"Jatpura p.s. Rohta","Phone":"Nil"},{"Name":"Bijender ","so":"Karam Singh","Address":"Jatpura p.s. Rohta","Phone":"Nil"},{"Name":"Vinod ","so":"Mahender","Address":"Jatpura p.s. Rohta","Phone":"Nil"}],"retiredGovtSer":[{"Name":"Vijaypal","so":"Rajvir Singh","Address":"Jatpura p.s. Rohta","Phone":"Nil"},{"Name":"Bijender","so":"Karam Singh","Address":"Jatpura p.s. Rohta","Phone":"Nil"},{"Name":"Rameshwar","so":"Ram chander","Address":"Jatpura p.s. Rohta","Phone":"Nil"},{"Name":"Nawab","so":"Dhram Singh","Address":"Jatpura p.s. Rohta","Phone":"Nil"},{"Name":"Kesowram","so":"Bhudh Singh","Address":"Jatpura p.s. Rohta","Phone":"Nil"},{"Name":"Bhrampal","so":"Nahar Singh","Address":"Jatpura p.s. Rohta","Phone":"Nil"},{"Name":"Vijaypal","so":"Dhara Singh","Address":"Jatpura p.s. Rohta","Phone":"Nil"}],"neighbourPolling":[{"Name":"Sudeshpal","so":"Tejpal Singh","Address":"Jatpura p.s. Rohta","Phone":"Nil"},{"Name":"Rakesh Kumar","so":"Karam Singh","Address":"Jatpura p.s. Rohta","Phone":"7451863068"},{"Name":"Chanderpal Rana ","so":"Harpal","Address":"Jatpura p.s. Rohta","Phone":"9411892680"},{"Name":"Vijay Pal","so":"Rajveer","Address":"Jatpura p.s. Rohta","Phone":"Nil"},{"Name":"Virpal","so":"HArpal","Address":"Jatpura p.s. Rohta","Phone":"Nil"}],"armsLicenseHolder":[{"Name":"Dhramender Singh","so":"Brajpal","Address":"Jatpura p.s. Rohta","Phone":"Nil","Weapon":"DBBL"},{"Name":"Harvir Singh","so":"Shyam Singh","Address":"Jatpura p.s. Rohta","Phone":"Nil","Weapon":"DBBL"},{"Name":"Radheshyam Sharam","so":"Atamaram ","Address":"Jatpura p.s. Rohta","Phone":"Nil","Weapon":"SBBL"},{"Name":"Vinod Giri","so":"Jagdish Giri","Address":"Jatpura p.s. Rohta","Phone":"Nil","Weapon":"DBBL"},{"Name":"Kapil Sharma","so":"Devender Sharma","Address":"Jatpura p.s. Rohta","Phone":"Nil","Weapon":"Rifle"},{"Name":"Satpal","so":"Dhara Singh","Address":"Jatpura p.s. Rohta","Phone":"Nil","Weapon":"DBBL"},{"Name":"Chanvir ","so":"Vikram Singh","Address":"Jatpura p.s. Rohta","Phone":"Nil","Weapon":"DBBL"},{"Name":"Vikram ","so":"Indraj","Address":"Jatpura p.s. Rohta","Phone":"Nil","Weapon":"SBBL"}],"chowkidar":[{"Name":"Nil  ","so":"Nil","Address":"Nil","Phone":"Nil"}],"councellor":[{"Name":"Vinod Kumar","so":"Nil ","Address":"Jatpura p.s. Rohta","Phone":"9719448101"}],"historySheeter":[{"Name":"Nil","so":"Nil","Address":"Nil","Status":"Nil","Phone":"Nil"}],"convictedCriminals":[{"Name":"Nil","so":"Nil","Address":"Nil","crimeno":"Nil","Section":"Nil"}],"crimes5Yrs":[{"Name":"Sonu","so":"Sensharpal","crimeno":"414/13","Section":"392 IPC","Address":"Bahadur pur P.s. Sardhana"},{"Name":"Mohar Singh","so":"Jagdish","crimeno":"329/14","Section":"302,201 IPC","Address":"Jatpura p.s. Rohta"}],"electionCrimes":[{"Name":"Nil","so":"Nil","crimeno":"Nil","Section":"Nil","Address":"Nil"}],"politician":[{"Name":"Nil","so":"Nil","Address":"Nil","Phone":"Nil"}],"boundDownUnder":"10","vulnerabilityDetails":"Very critical","warrantedCriminals":[{"Name":"Nil","so":"Nil","Address":"Nil","Phone":"Nil"}],"condition":"Good"},{"stationID":"RO-33","stationName":"Prathmik Vidyalaya Salahpur","latitude":"29.0442","longitude":"77.5730 ","polingCenterPhoto":"../img/mediPanchayat.png","routes":"../img/3.png","collectionPoint":"../img/3.png","population":"5800","voters":"2200","villageMohalla":"Salahpur ","path":"#/menu/tab/medicalDetails","respectedPpl":[{"Name":"Mustakim","so":"Najakat","Address":"Salahpur P.s. Rohta","Phone":"9719833733"},{"Name":"Farakat Ali","so":"Liyakat Ali","Address":"Salahpur P.s. Rohta","Phone":"9897979991"},{"Name":"Zakir Ali","so":"Majid Kha","Address":"Salahpur P.s. Rohta","Phone":"9917207861"},{"Name":"Mukram Ali","so":"Itejar ali","Address":"Salahpur P.s. Rohta","Phone":"9837042708"},{"Name":"Zakir Ali","so":"Haji Iteyak Ali","Address":"Salahpur P.s. Rohta","Phone":"7830553234"},{"Name":"Kallu ","so":"Chander Bhan","Address":"Salahpur P.s. Rohta","Phone":"9837845060"}],"retiredGovtSer":[{"Name":"Atar Singh","so":"Jile Singh","Address":"Salahpur P.s. Rohta","Phone":"Nil"},{"Name":"Ali Ahmad","so":"Ali Sher","Address":"Salahpur P.s. Rohta","Phone":"Nil"}],"neighbourPolling":[{"Name":"Rak Kumar","so":"Raghuvir","Address":"Salahpur P.s. Rohta","Phone":"9761568504"},{"Name":"Gurudayal","so":"Ram Shran","Address":"Salahpur P.s. Rohta","Phone":"Nil"},{"Name":"Styapal","so":"Ram Niwas","Address":"Salahpur P.s. Rohta","Phone":"9917269914"},{"Name":"Shudhir ","so":"Ajab Singh","Address":"Salahpur P.s. Rohta","Phone":"9758704343"},{"Name":"Jaivir ","so":"Ram Niwas","Address":"Salahpur P.s. Rohta","Phone":"9758603704"}],"armsLicenseHolder":[{"Name":"Warish","so":"Sakur","Address":"Salahpur P.s. Rohta","Phone":"Nil","Weapon":"DBBL"},{"Name":"Khalil","so":"Majid","Address":"Salahpur P.s. Rohta","Phone":"Nil","Weapon":"SBBL"},{"Name":"Asif ","so":"Ansar Ali","Address":"Salahpur P.s. Rohta","Phone":"Nil","Weapon":"DBBL"},{"Name":"Hasnu","so":"Dafedar","Address":"Salahpur P.s. Rohta","Phone":"Nil","Weapon":"SBBL"},{"Name":"Bundu","so":"Wahid","Address":"Salahpur P.s. Rohta","Phone":"Nil","Weapon":"DBBL"},{"Name":"Yunush","so":"Wali","Address":"Salahpur P.s. Rohta","Phone":"Nil","Weapon":"SBBL"},{"Name":"Akhtar","so":"Nijam Ali","Address":"Salahpur P.s. Rohta","Phone":"Nil","Weapon":"SBBL"},{"Name":"Zahid","so":"Aslam","Address":"Salahpur P.s. Rohta","Phone":"Nil","Weapon":"SBBL"},{"Name":"Vijaypal","so":"Chanderbhan","Address":"Salahpur P.s. Rohta","Phone":"Nil","Weapon":"DBBL"},{"Name":"Parvinder","so":"Kallu","Address":"Salahpur P.s. Rohta","Phone":"Nil","Weapon":"Revolere"},{"Name":"Najakat ","so":"Intejar","Address":"Salahpur P.s. Rohta","Phone":"7520031198","Weapon":"Rifle"},{"Name":"Abid","so":"Intejar","Address":"Salahpur P.s. Rohta","Phone":"9412201332","Weapon":"Pistel"},{"Name":"Mukaram aka Nanaha","so":"Intejar","Address":"Salahpur P.s. Rohta","Phone":"9837042708","Weapon":"Pistel"},{"Name":"Taiyab","so":"Intejar","Address":"Salahpur P.s. Rohta","Phone":"9358438544","Weapon":"Pistel"}],"chowkidar":[{"Name":"Ramvir   ","so":"Nil","Address":"Salahpur p.s. Rohta","Phone":"Nil"}],"councellor":[{"Name":"Smt. Sanno Begam","so":"Nil ","Address":"Salahpur p.s. Rohta","Phone":"9720494257"}],"historySheeter":[{"Name":"Nil","so":"Nil","Address":"Nil","Status":"Nil","Phone":"Nil"}],"convictedCriminals":[{"Name":"Nil","so":"Nil","Address":"Nil","crimeno":"Nil","Section":"Nil"}],"crimes5Yrs":[{"Name":"Taj Mohammad","so":"Manjur","crimeno":"369/12","Section":"392,506 IPC","Address":"Salahpur p.s. Rohta"},{"Name":"Lukman","so":"Manjur","crimeno":"369/12","Section":"392,506 IPC","Address":"Salahpur p.s. Rohta"}],"electionCrimes":[{"Name":"Nil","so":"Nil","crimeno":"Nil","Section":"Nil","Address":"Nil"}],"politician":[{"Name":"Nil","so":"Nil","Address":"Nil","Phone":"Nil"}],"boundDownUnder":"15","vulnerabilityDetails":"Very critical","warrantedCriminals":[{"Name":"Nil","so":"Nil","Address":"Nil","Phone":"Nil"}],"condition":"Good"},{"stationID":"RO-34","stationName":" Kanya Prathmik Vidyalaya Arnawali","latitude":"29.0218","longitude":"77.6086 ","polingCenterPhoto":"../img/mediPanchayat.png","routes":"../img/3.png","collectionPoint":"../img/3.png","population":"3800","voters":"1924","villageMohalla":"Arnawali ","path":"#/menu/tab/medicalDetails","respectedPpl":[{"Name":"Manoj Shrama","so":"Anand Sowaroop Shrama","Address":"Arnawali p.s. Rohta","Phone":"9719541122"},{"Name":"Dharmeder Kumar","so":"rampal ","Address":"Arnawali p.s. Rohta","Phone":"7830107485"},{"Name":"Narender Shrama","so":"Jagdish Prasad Sharma","Address":"Arnawali p.s. Rohta","Phone":"9286015997"},{"Name":"Amrish Sharma","so":"Ramprakash Shrama","Address":"Arnawali p.s. Rohta","Phone":"9634558900"},{"Name":"Ashok Kumar Yadav","so":"Bankelal","Address":"Arnawali p.s. Rohta","Phone":"9759478510"},{"Name":"Bhullan Singh","so":"Jas Ram","Address":"Arnawali p.s. Rohta","Phone":"8126787688"},{"Name":"Dinesh Kumar","so":" Hari Singh","Address":"Arnawali p.s. Rohta","Phone":"9759128492"},{"Name":"Niraj Singh","so":"Rajvir Singh","Address":"Arnawali p.s. Rohta","Phone":"9761146907"},{"Name":"Rajender Singh","so":"Prakash Chand","Address":"Arnawali p.s. Rohta","Phone":"8897627703"}],"retiredGovtSer":[{"Name":"Nil","so":"Nil","Address":"Nil","Phone":"Nil"}],"neighbourPolling":[{"Name":"Chander Datt Sharma","so":"Jagpal Shrama","Address":"Arnawali p.s. Rohta","Phone":"9837277873"},{"Name":"Shri Kant Sharma","so":"Satyapl Shrama","Address":"Arnawali p.s. Rohta","Phone":"9627840277"},{"Name":"Ashok Kumar","so":"Jayprakash Shrama","Address":"Arnawali p.s. Rohta","Phone":"8477975064"},{"Name":"Vikash Kumar","so":"Narender","Address":"Arnawali p.s. Rohta","Phone":"9627980496"},{"Name":"Sensharpal","so":"Bullan Singh","Address":"Arnawali p.s. Rohta","Phone":"8126787688"}],"armsLicenseHolder":[{"Name":"Krishan Gopal","so":"SRAdhelal","Address":"Arnawali p.s. Rohta","Phone":"Nil","Weapon":"DBBL"},{"Name":"Satenderpal","so":"Rishal Singh","Address":"Arnawali p.s. Rohta","Phone":"Nil","Weapon":"DBBL"},{"Name":"Kulddep Singh","so":"Mahender Singh","Address":"Arnawali p.s. Rohta","Phone":"Nil","Weapon":"DBBL"},{"Name":"Manoj Shrama","so":"Anand Showaroop","Address":"Arnawali p.s. Rohta","Phone":"9719541122","Weapon":"Pistel"},{"Name":"Vinod Bharti","so":"Maharaj Singh","Address":"Arnawali p.s. Rohta","Phone":"Nil","Weapon":"DBBL"},{"Name":"Ramkripal","so":"Anar Singh","Address":"Arnawali p.s. Rohta","Phone":"Nil","Weapon":"DBBL"},{"Name":"Inderpaql Singh","so":"Rishal Singh","Address":"Arnawali p.s. Rohta","Phone":"9837017771","Weapon":"Rifle"},{"Name":"Amrish Shrama","so":"Ramprakash","Address":"Arnawali p.s. Rohta","Phone":"9634558900","Weapon":"Revolver"},{"Name":"Sachin Sagwan","so":"Narender Singh","Address":"Arnawali p.s. Rohta","Phone":"Nil","Weapon":"DBBL"},{"Name":"Raj Kumar Sharma","so":"Jayprakash Shrama ","Address":"Arnawali p.s. Rohta","Phone":"Nil","Weapon":"DBBL"},{"Name":"Chanderdutt","so":"Jagpal Sharma","Address":"Arnawali p.s. Rohta","Phone":"Nil","Weapon":"Revolver"},{"Name":"Devender Shrama ","so":"Jagdish Prasad Shrama","Address":"Arnawali p.s. Rohta","Phone":"9286015997","Weapon":"DBBL"},{"Name":"Ashok Kumar","so":"Rampal Singh","Address":"Arnawali p.s. Rohta","Phone":"9761186376","Weapon":"Revolver"},{"Name":"Rajender Kumar","so":"Prakash Chand","Address":"Arnawali p.s. Rohta","Phone":"9897627703","Weapon":"Rifle"},{"Name":"Nitin Anand Shrama","so":"manoj Shrama","Address":"Arnawali p.s. Rohta","Phone":"8126536688","Weapon":"Rifle"}],"chowkidar":[{"Name":"Nil   ","so":"Nil","Address":"Nil","Phone":"Nil"}],"councellor":[{"Name":"Bittu Singh","so":"Nil ","Address":"Arnawali p.s. Rohta","Phone":"9761491444"}],"historySheeter":[{"Name":"Bhrat","so":"Mamchand","Address":"Arnawali p.s. Rohta","Status":"Present","Phone":"Nil"},{"Name":"Ramesh ","so":"Mohar Singh","Address":"Arnawali p.s. Rohta","Status":"Present","Phone":"Nil"},{"Name":"Narender","so":"Rampal","Address":"Arnawali p.s. Rohta","Status":"Jail","Phone":"Nil"},{"Name":"Munesh","so":"Amar Singh","Address":"Arnawali p.s. Rohta","Status":"Present","Phone":"Nil"}],"convictedCriminals":[{"Name":"Nil","so":"Nil","Address":"Nil","crimeno":"Nil","Section":"Nil"}],"crimes5Yrs":[{"Name":"Devender Shrama","so":"Gowardhan Shrama","crimeno":"25/16","Section":"302 IPC ","Address":"Arnawali p.s. Rohta"},{"Name":"Akash Shrama","so":"Ashok Shrama","crimeno":"25/16","Section":"302 IPC ","Address":"Arnawali p.s. Rohta"},{"Name":"Priyanka","so":"w/o Kuldeep","crimeno":"25/16","Section":"302 IPC ","Address":"Arnawali p.s. Rohta"}],"electionCrimes":[{"Name":"Nil","so":"Nil","crimeno":"Nil","Section":"Nil","Address":"Nil"}],"politician":[{"Name":"Nil","so":"Nil","Address":"Nil","Phone":"Nil"}],"boundDownUnder":"15","vulnerabilityDetails":"critical","warrantedCriminals":[{"Name":"Nil","so":"Nil","Address":"Nil","Phone":"Nil"}],"condition":"Good"},{"stationID":"RO-35","stationName":"Prathmik Vidyalaya Arnawali 02","latitude":"29.0229","longitude":"77.6036 ","polingCenterPhoto":"../img/mediPanchayat.png","routes":"../img/3.png","collectionPoint":"../img/3.png","population":"3800","voters":"1924","villageMohalla":"Arnawali 02 ","path":"#/menu/tab/medicalDetails","respectedPpl":[{"Name":"Manoj Shrama","so":"Anand Sowaroop Shrama","Address":"Arnawali p.s. Rohta","Phone":"9719541122"},{"Name":"Dharmeder Kumar","so":"rampal ","Address":"Arnawali p.s. Rohta","Phone":"7830107485"},{"Name":"Narender Shrama","so":"Jagdish Prasad Sharma","Address":"Arnawali p.s. Rohta","Phone":"9286015997"},{"Name":"Amrish Sharma","so":"Ramprakash Shrama","Address":"Arnawali p.s. Rohta","Phone":"9634558900"},{"Name":"Ashok Kumar Yadav","so":"Bankelal","Address":"Arnawali p.s. Rohta","Phone":"9759478510"},{"Name":"Bhullan Singh","so":"Jas Ram","Address":"Arnawali p.s. Rohta","Phone":"8126787688"},{"Name":"Dinesh Kumar","so":" Hari Singh","Address":"Arnawali p.s. Rohta","Phone":"9759128492"},{"Name":"Niraj Singh","so":"Rajvir Singh","Address":"Arnawali p.s. Rohta","Phone":"9761146907"},{"Name":"Rajender Singh","so":"Prakash Chand","Address":"Arnawali p.s. Rohta","Phone":"8897627703"}],"retiredGovtSer":[{"Name":"Nil","so":"Nil","Address":"Nil","Phone":"Nil"}],"neighbourPolling":[{"Name":"Chander Datt Sharma","so":"Jagpal Shrama","Address":"Arnawali p.s. Rohta","Phone":"9837277873"},{"Name":"Shri Kant Sharma","so":"Satyapl Shrama","Address":"Arnawali p.s. Rohta","Phone":"9627840277"},{"Name":"Ashok Kumar","so":"Jayprakash Shrama","Address":"Arnawali p.s. Rohta","Phone":"8477975064"},{"Name":"Vikash Kumar","so":"Narender","Address":"Arnawali p.s. Rohta","Phone":"9627980496"},{"Name":"Sensharpal","so":"Bullan Singh","Address":"Arnawali p.s. Rohta","Phone":"8126787688"}],"armsLicenseHolder":[{"Name":"Krishan Gopal","so":"SRAdhelal","Address":"Arnawali p.s. Rohta","Phone":"Nil","Weapon":"DBBL"},{"Name":"Satenderpal","so":"Rishal Singh","Address":"Arnawali p.s. Rohta","Phone":"Nil","Weapon":"DBBL"},{"Name":"Kulddep Singh","so":"Mahender Singh","Address":"Arnawali p.s. Rohta","Phone":"Nil","Weapon":"DBBL"},{"Name":"Manoj Shrama","so":"Anand Showaroop","Address":"Arnawali p.s. Rohta","Phone":"9719541122","Weapon":"Pistel"},{"Name":"Vinod Bharti","so":"Maharaj Singh","Address":"Arnawali p.s. Rohta","Phone":"Nil","Weapon":"DBBL"},{"Name":"Ramkripal","so":"Anar Singh","Address":"Arnawali p.s. Rohta","Phone":"Nil","Weapon":"DBBL"},{"Name":"Inderpaql Singh","so":"Rishal Singh","Address":"Arnawali p.s. Rohta","Phone":"9837017771","Weapon":"Rifle"},{"Name":"Amrish Shrama","so":"Ramprakash","Address":"Arnawali p.s. Rohta","Phone":"9634558900","Weapon":"Revolver"},{"Name":"Sachin Sagwan","so":"Narender Singh","Address":"Arnawali p.s. Rohta","Phone":"Nil","Weapon":"DBBL"},{"Name":"Raj Kumar Sharma","so":"Jayprakash Shrama ","Address":"Arnawali p.s. Rohta","Phone":"Nil","Weapon":"DBBL"},{"Name":"Chanderdutt","so":"Jagpal Sharma","Address":"Arnawali p.s. Rohta","Phone":"Nil","Weapon":"Revolver"},{"Name":"Devender Shrama ","so":"Jagdish Prasad Shrama","Address":"Arnawali p.s. Rohta","Phone":"9286015997","Weapon":"DBBL"},{"Name":"Ashok Kumar","so":"Rampal Singh","Address":"Arnawali p.s. Rohta","Phone":"9761186376","Weapon":"Revolver"},{"Name":"Rajender Kumar","so":"Prakash Chand","Address":"Arnawali p.s. Rohta","Phone":"9897627703","Weapon":"Rifle"},{"Name":"Nitin Anand Shrama","so":"manoj Shrama","Address":"Arnawali p.s. Rohta","Phone":"8126536688","Weapon":"Rifle"}],"chowkidar":[{"Name":"Nil   ","so":"Nil","Address":"Nil","Phone":"Nil"}],"councellor":[{"Name":"Bittu Singh","so":"Nil ","Address":"Arnawali p.s. Rohta","Phone":"9761491444"}],"historySheeter":[{"Name":"Bhrat","so":"Mamchand","Address":"Arnawali p.s. Rohta","Status":"Present","Phone":"Nil"},{"Name":"Ramesh ","so":"Mohar Singh","Address":"Arnawali p.s. Rohta","Status":"Present","Phone":"Nil"},{"Name":"Narender","so":"Rampal","Address":"Arnawali p.s. Rohta","Status":"Jail","Phone":"Nil"},{"Name":"Munesh","so":"Amar Singh","Address":"Arnawali p.s. Rohta","Status":"Present","Phone":"Nil"}],"convictedCriminals":[{"Name":"Nil","so":"Nil","Address":"Nil","crimeno":"Nil","Section":"Nil"}],"crimes5Yrs":[{"Name":"Devender Shrama","so":"Gowardhan Shrama","crimeno":"25/16","Section":"302 IPC ","Address":"Arnawali p.s. Rohta"},{"Name":"Akash Shrama","so":"Ashok Shrama","crimeno":"25/16","Section":"302 IPC ","Address":"Arnawali p.s. Rohta"},{"Name":"Priyanka","so":"w/o Kuldeep","crimeno":"25/16","Section":"302 IPC ","Address":"Arnawali p.s. Rohta"}],"electionCrimes":[{"Name":"Nil","so":"Nil","crimeno":"Nil","Section":"Nil","Address":"Nil"}],"politician":[{"Name":"Nil","so":"Nil","Address":"Nil","Phone":"Nil"}],"boundDownUnder":"15","vulnerabilityDetails":"critical","warrantedCriminals":[{"Name":"Nil","so":"Nil","Address":"Nil","Phone":"Nil"}],"condition":"Good"},{"stationID":"RO-36","stationName":"Prathmik Vidyalaya Satwai","latitude":"29.0101","longitude":"77.5455 ","polingCenterPhoto":"../img/mediPanchayat.png","routes":"../img/3.png","collectionPoint":"../img/3.png","population":"5000","voters":"2600","villageMohalla":"Satwa, MansabGrah ","path":"#/menu/tab/medicalDetails","respectedPpl":[{"Name":"Kawarpal","so":"Bhawar Singh","Address":"Satwa, MansabGrah p.s. Rohta","Phone":"9639231851"},{"Name":"Bhule ","so":"Hukum Singh","Address":"Satwa, MansabGrah p.s. Rohta","Phone":"Nil"},{"Name":"Ajaypal","so":"Ramesh","Address":"Satwa, MansabGrah p.s. Rohta","Phone":"9690336686"},{"Name":"Raj Singh","so":"Ratan Singh","Address":"Satwa, MansabGrah p.s. Rohta","Phone":"9759159047"},{"Name":"PaWAN Singh","so":"Brajvir Singh","Address":"Satwa, MansabGrah p.s. Rohta","Phone":"9410028436"},{"Name":"Jitenderpal","so":"Ilam Singh","Address":"Satwa, MansabGrah p.s. Rohta","Phone":"7351011011"}],"retiredGovtSer":[{"Name":"Krishan Kumar ","so":"Shankerlal","Address":"Satwai p.s. Rohta","Phone":"9759661817"},{"Name":"Ramesh Chand","so":"Chanderbhan","Address":"Satwai p.s. Rohta","Phone":"Nil"},{"Name":"Dharamvir Singh","so":"Kishan Lal","Address":"Satwai p.s. Rohta","Phone":"8006401977"},{"Name":"Shiv Lal","so":"Buddhan","Address":"Satwai p.s. Rohta","Phone":"Nil"},{"Name":"Sunder","so":"Shital Singh","Address":"Satwai p.s. Rohta","Phone":"Nil"},{"Name":"Ranveer Singh","so":"Behu","Address":"Satwai p.s. Rohta","Phone":"Nil"},{"Name":"Ajaypal","so":"Ramesh","Address":"Satwai p.s. Rohta","Phone":"9690336686"}],"neighbourPolling":[{"Name":"Nil","so":"Nil","Address":"Nil","Phone":"Nil"}],"armsLicenseHolder":[{"Name":"Arun Kumar ","so":"Jayprakash","Address":"Satwai p.s. Rohta","Phone":"Nil","Weapon":"DBBL"},{"Name":"Virender","so":"Mahavir Dutt","Address":"Satwai p.s. Rohta","Phone":"9917200685","Weapon":"DBBL"},{"Name":"Bhule Singh","so":"Hukam Singh","Address":"Satwai p.s. Rohta","Phone":"9639231851","Weapon":"DBBL"},{"Name":"Satyvir Singh","so":"Than Singh","Address":"Satwai p.s. Rohta","Phone":"9758445023","Weapon":"Rifle"},{"Name":"Devender","so":"Atul Singh","Address":"Satwai p.s. Rohta","Phone":"9410885139","Weapon":"Rifle"},{"Name":"Vinay","so":"brijesh Kumar","Address":"Satwai p.s. Rohta","Phone":"9410270350","Weapon":"DBBL"},{"Name":"Sonveer","so":"Ganga Sarn","Address":"Satwai p.s. Rohta","Phone":"9719167168","Weapon":"Revolver"},{"Name":"Jitenderpal","so":"Ilam Singh","Address":"Satwai p.s. Rohta","Phone":"7351011011","Weapon":"DBBL"},{"Name":"Ajay Vir ","so":"Mangeram","Address":"Satwai p.s. Rohta","Phone":"9756202424","Weapon":"Rifle"},{"Name":"Inder","so":"Bhawar Singh","Address":"Satwai p.s. Rohta","Phone":"Nil","Weapon":"DBBL"}],"chowkidar":[{"Name":"Arun Kumar   ","so":"Nil","Address":"Satwai p.s. Rohta","Phone":"Nil"}],"councellor":[{"Name":"Satvir Singh","so":"Nil ","Address":"Satwai p.s. Rohta","Phone":"9758445023"}],"historySheeter":[{"Name":"Nil","so":"Nil","Address":"Nil","Status":"Nil","Phone":"Nil"}],"convictedCriminals":[{"Name":"Nil","so":"Nil","Address":"Nil","crimeno":"Nil","Section":"Nil"}],"crimes5Yrs":[{"Name":"Nil","so":"Nil","crimeno":"Nil","Section":"Nil","Address":"Nil"}],"electionCrimes":[{"Name":"Nil","so":"Nil","crimeno":"Nil","Section":"Nil","Address":"Nil"}],"politician":[{"Name":"Nil","so":"Nil","Address":"Nil","Phone":"Nil"}],"boundDownUnder":"10","vulnerabilityDetails":"critical","warrantedCriminals":[{"Name":"Nil","so":"Nil","Address":"Nil","Phone":"Nil"}],"condition":"Good"},{"stationID":"RO-37","stationName":"Prathmik Vidyalaya Amanullahpur","latitude":"28.9545","longitude":"77.7353 ","polingCenterPhoto":"../img/mediPanchayat.png","routes":"../img/3.png","collectionPoint":"../img/3.png","population":"3200","voters":"1500","villageMohalla":"Amanullahpur ","path":"#/menu/tab/medicalDetails","respectedPpl":[{"Name":"Showaraj Singh","so":"Sher Singh","Address":"Amanullahpur p.s. Rohta","Phone":"9410860355"},{"Name":"Chatar Singh","so":"Mahavir Singh","Address":"Amanullahpur p.s. Rohta","Phone":"9412083576"},{"Name":"Rajender Singh","so":"Balavant Singh","Address":"Amanullahpur p.s. Rohta","Phone":"9690063697"},{"Name":"Hatender ","so":"Charan Singh","Address":"Amanullahpur p.s. Rohta","Phone":"8273136874"},{"Name":"Sunil Sharma","so":"Shri Chand","Address":"Amanullahpur p.s. Rohta","Phone":"8937937450"}],"retiredGovtSer":[{"Name":"Nepal Singh","so":"Mukhtyar Singh","Address":"Amanullahpur p.s. Rohta","Phone":"Nil"},{"Name":"Rajvir Singh","so":"Tara Singh","Address":"Amanullahpur p.s. Rohta","Phone":"9319450268"},{"Name":"Jagpal Singh","so":"Dilawar Singh","Address":"Amanullahpur p.s. Rohta","Phone":"Nil"},{"Name":"Surender ","so":"Baljor","Address":"Amanullahpur p.s. Rohta","Phone":"Nil"},{"Name":"Devender ","so":"Jayprakash","Address":"Amanullahpur p.s. Rohta","Phone":"Nil"}],"neighbourPolling":[{"Name":"Nepal ","so":"Shyam Singh","Address":"Amanullahpur p.s. Rohta","Phone":"9761582649"},{"Name":"Narender ","so":"Ishwar","Address":"Amanullahpur p.s. Rohta","Phone":"8445706157"},{"Name":"Pawan Vir","so":"Charan Singh","Address":"Amanullahpur p.s. Rohta","Phone":"9759342284"},{"Name":"Harvir","so":"Charan Singh","Address":"Amanullahpur p.s. Rohta","Phone":"9690170795"},{"Name":"Sukram","so":"Baljeet","Address":"Amanullahpur p.s. Rohta","Phone":"Nil"}],"armsLicenseHolder":[{"Name":"Rajpal ","so":"Shiv Charan","Address":"Amanullahpur p.s. Rohta","Phone":"Nil","Weapon":"DBBL"},{"Name":"Mangeram","so":"Sukhvir","Address":"Amanullahpur p.s. Rohta","Phone":"Nil","Weapon":"DBBL"},{"Name":"Amar Vir","so":"Vijaypal","Address":"Amanullahpur p.s. Rohta","Phone":"Nil","Weapon":"Rifle"},{"Name":"Surender","so":"Raghunandan","Address":"Amanullahpur p.s. Rohta","Phone":"9720204141","Weapon":"Rifle"}],"chowkidar":[{"Name":"Shiv Kumar  ","so":"Nil","Address":"Amanullahpur p.s. Rohta","Phone":"Nil"}],"councellor":[{"Name":"Jitender Singh","so":"Nil ","Address":"Amanullahpur p.s. Rohta","Phone":"9761146408"}],"historySheeter":[{"Name":"Nil","so":"Nil","Address":"Nil","Status":"Nil","Phone":"Nil"}],"convictedCriminals":[{"Name":"Nil","so":"Nil","Address":"Nil","crimeno":"Nil","Section":"Nil"}],"crimes5Yrs":[{"Name":"Rahul ","so":"Jagpal","crimeno":"115/14","Section":"392,411 IPC","Address":"Amanullahpur p.s. Rohta"}],"electionCrimes":[{"Name":"Nil","so":"Nil","crimeno":"Nil","Section":"Nil","Address":"Nil"}],"politician":[{"Name":"Nil","so":"Nil","Address":"Nil","Phone":"Nil"}],"boundDownUnder":"10","vulnerabilityDetails":"General","warrantedCriminals":[{"Name":"Nil","so":"Nil","Address":"Nil","Phone":"Nil"}],"condition":"Good"},{"stationID":"RO-38","stationName":"Ucch Prathmik Vidyalaya Dunger","latitude":"29.0465","longitude":"77.5892 ","polingCenterPhoto":"../img/mediPanchayat.png","routes":"../img/3.png","collectionPoint":"../img/3.png","population":"7000","voters":"2600","villageMohalla":"Gram Dunger ","path":"#/menu/tab/medicalDetails","respectedPpl":[{"Name":"Master Braj","so":"Ramniwash","Address":"Gram Dunger p.s. Rohta","Phone":"9758533005"},{"Name":"Dheyan Singh","so":"Tarif Singh","Address":"Gram Dunger p.s. Rohta","Phone":"9927188912"},{"Name":"Chander sain","so":"Vijender Singh","Address":"Gram Dunger p.s. Rohta","Phone":"9927306387"},{"Name":"Ashok Kumar","so":"bram Singh","Address":"Gram Dunger p.s. Rohta","Phone":"9410889848"},{"Name":"Mahavir Singh","so":"Janak Singh","Address":"Gram Dunger p.s. Rohta","Phone":"9719291067"},{"Name":"Anil Kumar","so":"Vijay Singh","Address":"Gram Dunger p.s. Rohta","Phone":"9837449390"},{"Name":"Raj Kumar Sharma","so":"Tara Chand","Address":"Gram Dunger p.s. Rohta","Phone":"9917667078"}],"retiredGovtSer":[{"Name":"Dhyan Singh","so":"Tarif Singh","Address":"Gram Dunger P.s. Rohta","Phone":"9927188912"},{"Name":"Mahakar","so":"Nahar Singh","Address":"Gram Dunger P.s. Rohta","Phone":"Nil"},{"Name":"Bhraj pal","so":"Ramniwash","Address":"Gram Dunger P.s. Rohta","Phone":"9758533005"},{"Name":"Mahavir","so":"Harvansh","Address":"Gram Dunger P.s. Rohta","Phone":"Nil"},{"Name":"Nagender","so":"Sadanand","Address":"Gram Dunger P.s. Rohta","Phone":"Nil"}],"neighbourPolling":[{"Name":"Rampal ","so":"Rukan Singh","Address":"Gram Dunger p.s. Rohta","Phone":"8445683120"},{"Name":"Surender","so":"Ram Chander","Address":"Gram Dunger p.s. Rohta","Phone":"Nil"},{"Name":"Anil","so":"Sishpal","Address":"Gram Dunger p.s. Rohta","Phone":"8937903371"},{"Name":"Arjun","so":"Rohtash","Address":"Gram Dunger p.s. Rohta","Phone":"9917988404"},{"Name":"Rajender ","so":"Ram Chander ","Address":"Gram Dunger p.s. Rohta","Phone":"9568238680"}],"armsLicenseHolder":[{"Name":"Chander Sain","so":"Vijender Singh","Address":"Dunger p.a. Rohta","Phone":"9927306387","Weapon":"DBBL"},{"Name":"Narender","so":"Vijender Singh","Address":"Dunger p.a. Rohta","Phone":"9927301540","Weapon":"Rifle"},{"Name":"Shil Kumar","so":"Amarpal","Address":"Dunger p.a. Rohta","Phone":"Nil","Weapon":"Rifle"},{"Name":"Azad Singh","so":"Iqram","Address":"Dunger p.a. Rohta","Phone":"Nil","Weapon":"DBBL"},{"Name":"Maharaj Singh","so":"LAKSHAMAN","Address":"Dunger p.a. Rohta","Phone":"8954383221","Weapon":"Rifle"},{"Name":"Gajraj Singh","so":"Mahraj Singh","Address":"Dunger p.a. Rohta","Phone":"Nil","Weapon":"Rifle"},{"Name":"Rajender","so":"Asharam","Address":"Dunger p.a. Rohta","Phone":"Nil","Weapon":"DBBL"},{"Name":"Chandepal ","so":"Bhawar Singh","Address":"Dunger p.a. Rohta","Phone":"Nil","Weapon":"DBBL"},{"Name":"Nepal Singh","so":"Dalel Singh","Address":"Dunger p.a. Rohta","Phone":"Nil","Weapon":"DBBL"},{"Name":"Jitender","so":"Sukhvir","Address":"Dunger p.a. Rohta","Phone":"Nil","Weapon":"DBBL"},{"Name":"Lalit ","so":"Ram Kishan","Address":"Dunger p.a. Rohta","Phone":"Nil","Weapon":"DBBL"},{"Name":"Billu","so":"Dhram Vir","Address":"Dunger p.a. Rohta","Phone":"Nil","Weapon":"DBBL"},{"Name":"Sukhpal","so":"Ajab Singh","Address":"Dunger p.a. Rohta","Phone":"9639227709","Weapon":"Rifle"},{"Name":"Inderpal","so":"Maharaj Singh","Address":"Dunger p.a. Rohta","Phone":"9997614703","Weapon":"Revolver"}],"chowkidar":[{"Name":"Bittu   ","so":"Nil","Address":"Dunger p.a. Rohta","Phone":"Nil"}],"councellor":[{"Name":"Smt. Rajviri","so":"Nil ","Address":"Dunger p.a. Rohta","Phone":"9720520671"}],"historySheeter":[{"Name":"Ashokm Kumar","so":"Kalu","Address":"Dunger p.a. Rohta","Status":"Present","Phone":"Nil"},{"Name":"Ranvir","so":"Chatare ","Address":"Dunger p.a. Rohta","Status":"Missing","Phone":"Nil"}],"convictedCriminals":[{"Name":"Nil","so":"Nil","Address":"Nil","crimeno":"Nil","Section":"Nil"}],"crimes5Yrs":[{"Name":"Vinod","so":"Dhramvir","crimeno":"112/15","Section":"302,498A IPC 3/4 D Act","Address":"Dunger p.a. Rohta"},{"Name":"Billu","so":"Dhramvir","crimeno":"112/15","Section":"302,498A IPC 3/4 D Act","Address":"Dunger p.a. Rohta"}],"electionCrimes":[{"Name":"Nil","so":"Nil","crimeno":"Nil","Section":"Nil","Address":"Nil"}],"politician":[{"Name":"Nil","so":"Nil","Address":"Nil","Phone":"Nil"}],"boundDownUnder":"10","vulnerabilityDetails":"Very Critical","warrantedCriminals":[{"Name":"Nil","so":"Nil","Address":"Nil","Phone":"Nil"}],"condition":"Good"}]