[{"stationID":"NC-01","stationName":"Kailashwati Trust Dharamshala Gandhinagar","latitude":"28.97511","longitude":"  77.71651","polingCenterPhoto":"/img/mediPanchayat.png","routes":"/img/3.png","collectionPoint":"/img/3.png","population":"Nil","voters":"2411","villageMohalla":"Gandhi Nagar","path":"#/menu/tab/medicalDetails","respectedPpl":[{"Name":"Baal Mukand Saini","so":"Ram Jee Laal","Address":"Gandhi Nagar Meerut","Phone":"8439240669"},{"Name":"Sumit Jindal","so":"Vijay Kumar","Address":"Gandhi Nagar Meerut","Phone":"9557365059"},{"Name":"Praveen Kumar","so":"Shanti Sharma","Address":"Gandhi Nagar Meerut","Phone":"9460254305"},{"Name":"Utsah","so":"Praveen","Address":"Gandhi Nagar Meerut","Phone":"9634837483"},{"Name":"Munna Singh","so":"Hukum Singh","Address":"Gandhi Nagar Meerut","Phone":"9412061790"}],"retiredGovtSer":[{"Name":"Jasveer Tyagi","so":"Chaman Singh","Address":"Phool Bagh Colony","Phone":"1212600379"},{"Name":"Deewan Singh","so":"Ram Dayal","Address":"660 Phool Bagh Colony","Phone":"9412269509"},{"Name":"Dharam Pal","so":"Maam Chand","Address":"881 Phool Bagh Colony","Phone":"9412365052"},{"Name":"Kishan Lal","so":"Hoshiyar","Address":"334 Nehru Nagar","Phone":"Nil"},{"Name":"Kashi Ram","so":"Chandra Sain","Address":"712 Phool Bagh Colony","Phone":"121260902"}],"neighbourPolling":[{"Name":"Rajendra Kumar","so":"Ghasita Ram","Address":"108 Devi Nagar","Phone":"Nil"},{"Name":"Anil Kumar","so":"Indra Sain","Address":"Gandhi Nagar","Phone":"9917618622"},{"Name":"Amit Sachdeva","so":"Ramesh","Address":"Gandhi Nagar","Phone":"9897350995"},{"Name":"Devi Kumar","so":"Lt. Sv Gaud","Address":"Gandhi Nagar","Phone":"9260045047"},{"Name":"Braj Mohan","so":"Yogendra Sharma","Address":"Gandhi Nagar","Phone":"8935870410"}],"armsLicenseHolder":[{"Name":"Shyam Sundar","so":"Nil","Address":"20 Gandhi Nagar","Phone":"Nil","Weapon":"Nil"},{"Name":"Anirudh Dhillon","so":"Nil","Address":"15 Gandhi Nagar","Phone":"9219191002","Weapon":"Nil"},{"Name":"Rakesh Kumar","so":"Nil","Address":"16 Gandhi Nagar","Phone":"9837294667","Weapon":"Nil"},{"Name":"Manish Sharma","so":"Suresh Mohan Sharma","Address":"711 Gandhi Nagar","Phone":"9536733333","Weapon":"Nil"},{"Name":"Devi Shankar Saini","so":"Ram G Laal Saini","Address":"131 Gandhi Nagar","Phone":"9758556611","Weapon":"Nil"}],"chowkidar":[{"Name":"Nil ","so":" Nil ","Address":"Nil","Phone":"Nil"}],"councellor":[{"Name":"Rajkumar Aggarwal","so":"Nil","Address":"Saraswati Mandir P/S(police station)- Civil Line Meerut","Phone":"9837410333"}],"historySheeter":[{"Name":"Vipin ","so":"Jai Bhagwan","Address":"56/7 Gandhi Nagar","Status":"Missing","Phone":"Nil"},{"Name":"Ranjan singh","so":"sukhveer ","Address":"Gandhi nagar","Status":"Missing","Phone":"Nil"},{"Name":"Praveen ","so":"Dinesh","Address":"140 Gandhi nagar","Status":"Missing","Phone":"Nil"},{"Name":"Rupak","so":"satya prakash","Address":"56 Gandhi Nagar","Status":"Missing","Phone":"Nil"},{"Name":"Deepak","so":"Satish","Address":"64/2 Gandhi Nagar","Status":"Missing","Phone":"Nil"}],"convictedCriminals":[{"Name":"Nil","so":"Nil","Status":"Nil","4Address":"Nil"}],"crimes5Yrs":[{"Name":"Shakeel","so":"Rahemuddin","crimeno":"166/14","Section":"392,411IPC","Address":"Kidwai Nagar Thana Lisadi Gate (Meerut)"}],"electionCrimes":[{"Name":"Nil","so":"Nil","crimeno":"Nil","Section":"Nil","Address":"Nil"}],"politician":[{"Name":"Nil","so":"Nil","Address":"Nil","Phone":"Nil"}],"boundDownUnder":"Nil","vulnerabilityDetails":"General","warrantedCriminals":[{"Name":"Nil","so":"Nil","Address":"Nil","Phone":"Nil"}],"condition":"Good"},{"stationID":"NC-02","stationName":"Flora Dales School(Murari Puram)","latitude":" 28.96803","longitude":"  77.72276","polingCenterPhoto":"/img/mediPanchayat.png","routes":"/img/3.png","collectionPoint":"/img/3.png","population":"Nil","voters":"3648","villageMohalla":"Murari Puram","path":"#/menu/tab/medicalDetails","respectedPpl":[{"Name":"Suresh Chand","so":"Lt.Shyam Sundar","Address":"MurariPuram","Phone":"9860890111"},{"Name":"Atul ","so":"Shiv Prakash","Address":"MurariPuram","Phone":"9412285738"},{"Name":"Chandra Bhan","so":"Lt.Harshan Daas","Address":"Kalyan Nagar","Phone":"9412232046"},{"Name":"Pritam Singh","so":"DlayeRam","Address":"Kalyan Nagar","Phone":"9319162936"},{"Name":"Prabhuman Tyagi","so":"Satveer Tyagi","Address":"Kalyan Nagar","Phone":"9412200407"}],"retiredGovtSer":[{"Name":"Rajendra Singh","so":"Yaadram","Address":"Muraripuram","Phone":"7895466506"},{"Name":"Mahendra Kumar","so":"Lt. Jagdish","Address":"Muraripuram","Phone":"9837687921"},{"Name":"Kailash Chand","so":"Lt. Sukhdev","Address":"Muraripuram","Phone":"9412200045"},{"Name":"Sher Singh","so":"Lt. Sultan Singh","Address":"Muraripuram","Phone":"9456036110"},{"Name":"Bd Tyagi","so":"Lt. Nathu Singh","Address":"Muraripuram","Phone":"9497977778"}],"neighbourPolling":[{"Name":"Vishal Garg","so":"Jai Kishan","Address":"Muraripuram","Phone":"9897901650"},{"Name":"Rakesh Chand","so":"Parmatma Sharma","Address":"Muraripuram","Phone":"9837516600"},{"Name":"Raj Kishor","so":"Lt. Mool Chand","Address":"Muraripuram","Phone":"9412357630"},{"Name":"Rajeev Garg","so":"Lt. Raghu Nath Prasad","Address":"Muraripuram","Phone":"8439838390"},{"Name":"Swatatra Rastogi","so":"Lt.ved Pal","Address":"Muraripuram","Phone":"9837023333"}],"armsLicenseHolder":[{"Name":"Naresh Goyal","so":"Ram Narayan","Address":"14 Muraripuram","Phone":"9927777770","weapon":"Nil"},{"Name":"Pradeep Khanna","so":"Om Prakash","Address":"200 Muraripuram","Phone":"9719135351","weapon":"Nil"},{"Name":"Virendra Singh","so":"Shivcharan Singh","Address":"18/33 Muraripuram","Phone":"9837281231","weapon":"Nil"},{"Name":"Shivdutt Sharma","so":"Ratan Das Sharma","Address":"31 Muraripuram","Phone":"9761738204","weapon":"Nil"},{"Name":"Anupam Tyagi","so":"Virendra Tyagi","Address":"18/33 Muraripuram","Phone":"9350677737","weapon":"Nil"}],"chowkidar":[{"Name":"Nil ","so":" Nil ","Address":"Nil","Phone":"Nil"}],"councellor":[{"Name":"Rakesh Sharma","so":"Nil","Address":"Preetvihar","Phone":"9359607110"}],"historySheeter":[{"Name":"Nil ","so":"Nil","Address":"Nil","Status":"Nil","Phone":"Nil"}],"convictedCriminals":[{"Name":"Nil","so":"Nil","Status":"Nil","4Address":"Nil"}],"crimes5Yrs":[{"Name":"Asish","so":"Suresh Chand","crimeno":"668/12","Section":"354 Ipc","Address":"Mohalla Tihai Kasba Kharkhoda (Meerut)"},{"Name":"Sonu Sharma","so":"Naresh Sharma","crimeno":"668/12","Section":"354 Ipc","Address":"Gao. Fafunda Thana Kharkhoda"},{"Name":"Saleem/ Guddu","so":"Karim Begh","crimeno":"350/13","Section":"392 Ipc","Address":"Purva Fuiyaaz Ali Thana Nisadi Gate (Meerut)"},{"Name":"Salman","so":"Karim Begh","crimeno":"350/13","Section":"392 Ipc","Address":"Purva Fuiyaaz Ali Thana Nisadi Gate (Meerut)"}],"electionCrimes":[{"Name":"Nil","so":"Nil","crimeno":"Nil","Section":"Nil","Address":"Nil"}],"politician":[{"Name":"Nil","so":"Nil","Address":"Nil","Phone":"Nil"}],"boundDownUnder":"Nil","vulnerabilityDetails":"General","warrantedCriminals":[{"Name":"Nil","so":"Nil","Address":"Nil","Phone":"Nil"}],"condition":"Good"},{"stationID":"NC-03","stationName":"Happy Valley Jn. High school Phool Bagh Colony","latitude":"28.97487","longitude":"  77.72299","polingCenterPhoto":"/img/mediPanchayat.png","routes":"/img/3.png","collectionPoint":"/img/3.png","population":"Nil","voters":"2162","villageMohalla":"PhoolBagh Colony","path":"#/menu/tab/medicalDetails","respectedPpl":[{"Name":"Rajkumar Sharma ","so":"Baburam","Address":"Phool Bagh Colony","Phone":"9410203557"},{"Name":"R.C Singh","so":"Tarif Singh","Address":"Phool Bagh Colony","Phone":"9897109305"},{"Name":"Baljeet Sharma","so":"Chotelaal","Address":"Phool Bagh Colony","Phone":"9859905405"},{"Name":"Suresh pal","so":"Saktu","Address":"Phool Bagh Colony","Phone":"9219885745"},{"Name":"Jeet Singh","so":"Mukut","Address":"Phool Bagh Colony","Phone":"8923766365"}],"retiredGovtSer":[{"Name":"Ashish Shankar","so":"Nil","Address":"Nehru Nagar","Phone":"9927009939"},{"Name":"Piyush Shankar","so":"Nil","Address":"Nehru Nagar","Phone":"9456089204"},{"Name":"Neeraj Gupta","so":"Nil","Address":"Nehru Nagar","Phone":"9897051516"},{"Name":"Vikas Garg","so":"Nil","Address":"Nehru Nagar","Phone":"9997777566"},{"Name":"Parveen Kumar","so":"Nil","Address":"Nehru Nagar","Phone":"9837216016"}],"neighbourPolling":[{"Name":"Sunil Sharma","so":"Nil","Address":"289/3 Phool Bagh Colony","Phone":"9837246302"},{"Name":"RamBeer Singh ","so":"Nil","Address":"289/3 Phool Bagh Colony","Phone":"8979181985"},{"Name":"vishal Singh","so":"Nil","Address":"289/3 Phool Bagh Colony","Phone":"7417892871"},{"Name":"Tejveer Sharma","so":"Nil","Address":"289/3 Phool Bagh Colony","Phone":"9457032885"}],"armsLicenseHolder":[{"Name":"Devendra Prasad","so":"Nil","Address":"334 Phool Bagh Colony","Phone":"Nil","weapon":"Nil"},{"Name":"Anil Kumar","so":"Nil","Address":"335 Phool Bagh Colony","Phone":"9319304544","weapon":"Nil"},{"Name":"Rakesh  Tyagi","so":"Baljeet Singh","Address":"336 Phool Bagh Colony","Phone":"8445817272","weapon":"Nil"},{"Name":"OM Kumar Tyagi","so":"Mahveer Singh","Address":"337 Phool Bagh Colony","Phone":"9412207910","weapon":"Nil"},{"Name":"Suresh Pal","so":"Saktu","Address":"338 Phool Bagh Colony","Phone":"9219885745","weapon":"Nil"}],"chowkidar":[{"Name":"Nil ","so":" Nil ","Address":"Nil","Phone":"Nil"}],"councellor":[{"Name":"Manoj Verma","so":"Nil","Address":"Gali No.1 NehruNagar Meerut","Phone":"9837637865"}],"historySheeter":[{"Name":"Saktu","so":"Cheta","Address":"381 Phool Bagh Colony","Status":"Present","Phone":"Nil"}],"convictedCriminals":[{"Name":"Nil","so":"Nil","Status":"Nil","4Address":"Nil"}],"crimes5Yrs":[{"Name":"Nil","so":"Nil","crimeno":"Nil","Section":"Nil","Address":"Nil"}],"electionCrimes":[{"Name":"Nil","so":"Nil","crimeno":"Nil","Section":"Nil","Address":"Nil"}],"politician":[{"Name":"Nil","so":"Nil","Address":"Nil","Phone":"Nil"}],"boundDownUnder":"Nil","vulnerabilityDetails":"General","warrantedCriminals":[{"Name":"Nil","so":"Nil","Address":"Nil","Phone":"Nil"}],"condition":"Good"},{"stationID":"NC-04","stationName":"Centre_Modern Public School Gali No.3 Nehru Nagar (Meerut)","latitude":"28.97101","longitude":"  77.72509","polingCenterPhoto":"/img/mediPanchayat.png","routes":"/img/3.png","collectionPoint":"/img/3.png","population":"Nil","voters":"1876","villageMohalla":"Nehru Nagar","path":"#/menu/tab/medicalDetails","respectedPpl":[{"Name":"Jai Prakash","so":"Bhagirath","Address":"Nehru Nagar","Phone":"8126771977"},{"Name":"Ashok Kumar Sharma","so":"Satyaprakash","Address":"Nehru Nagar","Phone":"9412160108"},{"Name":"Jitendra Kumar","so":"Jaipal","Address":"Nehru Nagar","Phone":"9412067640"},{"Name":"sunil Tomar","so":"Raghuveer Singh","Address":"Nehru Nagar","Phone":"9412802722"},{"Name":"Umesh Gupta","so":"Jagdeesh","Address":"Nehru Nagar","Phone":"9487632672"}],"retiredGovtSer":[{"Name":"Jai prakash","so":"Shambhu Dayal","Address":"Nehru Nagar","Phone":"7417874737"},{"1nwme":"Chetan ","so":"Chandrabhan","Address":"Nehru Nagar","Phone":"Nil"}],"neighbourPolling":[{"Name":"Sundar Lal","so":"Jyoti Prasad","Address":"Nehru Nagar","Phone":"95571744240"},{"Name":"Sachin Rastogi","so":"Rajevar Prasad","Address":"Nehru Nagar","Phone":"9837551264"},{"Name":"Ajay Rastogi","so":"Dayanand","Address":"Nehru Nagar","Phone":"9358407153"},{"Name":"Vijendra","so":"Charan Singh","Address":"Nehru Nagar","Phone":"9719028066"},{"Name":"Mukesh","so":"Satya Prakash","Address":"Nehru Nagar","Phone":"9412760108"}],"armsLicenseHolder":[{"Name":"Prashant","so":"Jai prakash","Address":"123/1 Nehru Nagar","Phone":"9837932726","weapon":"Nil"},{"Name":"Surendra Kumar","so":"Keshav Das","Address":"118 Nehru Nagar","Phone":"9837134156","weapon":"Nil"},{"Name":"Ram Pal","so":"Ghasitu Singh","Address":"114/1 Nehru Nagar","Phone":"9837344207","weapon":"Nil"},{"Name":"Shiv Kumar Gupta","so":"Nil","Address":"7/1 Nehru Nagar","Phone":"9319311054","weapon":"Nil"},{"Name":"Shobit Goyal","so":"Shwaraj","Address":"128/1 Nehru Nagar","Phone":"9359434359","weapon":"Nil"}],"chowkidar":[{"Name":"Nil ","so":" Nil ","Address":"Nil","Phone":"Nil"}],"councellor":[{"Name":"Manoj Verma","so":"Nil","Address":"Gali No.1 NehruNagar Meerut","Phone":"9837637865"}],"historySheeter":[{"Name":"Nil","so":"Nil","Address":"Nil","Status":"Nil","Phone":"Nil"}],"convictedCriminals":[{"Name":"Nil","so":"Nil","Status":"Nil","4Address":"Nil"}],"crimes5Yrs":[{"Name":"Nil","so":"Nil","crimeno":"Nil","Section":"Nil","Address":"Nil"}],"electionCrimes":[{"Name":"Nil","so":"Nil","crimeno":"Nil","Section":"Nil","Address":"Nil"}],"politician":[{"Name":"Nil","so":"Nil","Address":"Nil","Phone":"Nil"}],"boundDownUnder":"Nil","vulnerabilityDetails":"General","warrantedCriminals":[{"Name":"Nil","so":"Nil","Address":"Nil","Phone":"Nil"}],"condition":"Good"},{"stationID":"NC-05","stationName":"Vimal Academy Main Road Nehru Nagar(Meerut)","latitude":"28.97153","longitude":"  77.73008","polingCenterPhoto":"/img/mediPanchayat.png","routes":"/img/3.png","collectionPoint":"/img/3.png","population":"Nil","voters":"1675","villageMohalla":"Nehru Nagar","path":"#/menu/tab/medicalDetails","respectedPpl":[{"Name":"Jai Prakash","so":"Bhagi Rath","Address":"Nehru Nagar Meerut","Phone":"8126771977"},{"Name":"Praveen Kumar","so":"Jai Prakash","Address":"Nehru Nagar Meerut","Phone":"Nil"},{"Name":"Ashok Sharma","so":"Satya Prakash","Address":"Nehru Nagar Meerut","Phone":"9412160108"},{"Name":"Jitendra Kumar","so":"Jai Pal Singh","Address":"Nehru Nagar Meerut","Phone":"9412617640"},{"Name":"Sunil Tomar","so":"Raghu Veer Singh","Address":"Nehru Nagar Meerut","Phone":"9412802722"}],"retiredGovtSer":[{"Name":"Nil","so":"Nil","Address":"Nil","Phone":"Nil"}],"neighbourPolling":[{"Name":"Kamesh Chand Goyal","so":"Nil","Address":"328 Nehru Nagar Meeurt","Phone":"9411617650"},{"Name":"Yogesh","so":"Shiv Charan","Address":"203 Nehru Nagar Meeurt","Phone":"9760097110"},{"Name":"Harish Chand","so":"Deewan Singh","Address":"Nehru Nagar Meeurt","Phone":"9456972011"},{"Name":"Jai Prakash","so":"Bhagirath","Address":"Nehru Nagar Meeurt","Phone":"8126771977"},{"Name":"Praveen Kumar","so":"Jai Prakash","Address":"Nehru Nagar Meeurt","Phone":"Nil"}],"armsLicenseHolder":[{"Name":"Subash Chandra Tyagi","so":"S.K Tyagi","Address":"360/6 Nehru Nagar","Phone":"9897393421","weapon":"Nil"},{"Name":"Yogesh ","so":"Shiv Charan","Address":"203 Nehru Nagar","Phone":"9760097110","weapon":"Nil"},{"Name":"Lokesh","so":"Bake lal","Address":"254 Nehru Nagar","Phone":"7417999658","weapon":"Nil"},{"Name":"Suresh","so":"Om prakash","Address":"354 Nehru Nagar","Phone":"9319164115","weapon":"Nil"},{"Name":"Harish Chand","so":"deewan singh","Address":"04 Nehru nagar","Phone":"9456972011","weapon":"Nil"}],"chowkidar":[{"Name":"Nil ","so":" Nil ","Address":"Nil","Phone":"Nil"}],"councellor":[{"Name":"Manoj Verma","so":"Nil","Address":"Gali No.1 NehruNagar Meerut","Phone":"9837637865"}],"historySheeter":[{"Name":"Nil","so":"Nil","Address":"Nil","Status":"Nil","Phone":"Nil"}],"convictedCriminals":[{"Name":"Nil","so":"Nil","Status":"Nil","4Address":"Nil"}],"crimes5Yrs":[{"Name":"Nil","so":"Nil","crimeno":"Nil","Section":"Nil","Address":"Nil"}],"electionCrimes":[{"Name":"Nil","so":"Nil","crimeno":"Nil","Section":"Nil","Address":"Nil"}],"politician":[{"Name":"Nil","so":"Nil","Address":"Nil","Phone":"Nil"}],"boundDownUnder":"Nil","vulnerabilityDetails":"General","warrantedCriminals":[{"Name":"Nil","so":"Nil","Address":"Nil","Phone":"Nil"}],"condition":"Good"},{"stationID":"NC-06","stationName":"Rohit Bal Vihar Jn. High School Nehru Nagar(meerut)","latitude":"28.97174","longitude":" 77.72756","polingCenterPhoto":"/img/mediPanchayat.png","routes":"/img/3.png","collectionPoint":"/img/3.png","population":"Nil","voters":"3266","villageMohalla":"Nehru Nagar","path":"#/menu/tab/medicalDetails","respectedPpl":[{"Name":"Vikas Bansal","so":"Mani Ram","Address":"Nehru Nagar","Phone":"8410560791"},{"Name":"Yogendra","so":"Lt. Devi Dayal","Address":"Nehru Nagar","Phone":"8995810260"},{"Name":"Jagdish Prasad","so":"Shyam Lal","Address":"Nehru Nagar","Phone":"9456055884"},{"Name":"Umesh Tyagi","so":"Dinesh Kumar","Address":"Nehru Nagar","Phone":"9528431909"},{"Name":"Vijay Kumar Rastogi","so":"Shukkan Lal","Address":"Nehru Nagar","Phone":"9258148787"}],"retiredGovtSer":[{"Name":"Vikram","so":"Vinod","Address":"Nehru Nagar","Phone":"9412200347"},{"Name":"Vikram singh","so":"Tej Singh","Address":"Nehru Nagar","Phone":"9456041916"},{"Name":"Vikas Bansal","so":"Mani Ram","Address":"Nehru Nagar","Phone":"8410360791"}],"neighbourPolling":[{"Name":"Bheem Singh","so":"Atar Singh","Address":"Nehru Nagar","Phone":"9927270614"},{"Name":"Sachin","so":"Vinod Kumar","Address":"Nehru Nagar","Phone":"8997693328"},{"Name":"Vishal Gupta","so":"Vinod Kumar","Address":"Nehru Nagar","Phone":"9412200347"},{"Name":"Vikram Singh","so":"Tej Singh","Address":"Nehru Nagar","Phone":"9456041516"},{"Name":"Praveen ","so":"Padam Prasad","Address":"Nehru Nagar","Phone":"9068135591"}],"armsLicenseHolder":[{"Name":"Surendra Kumar","so":"Keshav sharan","Address":"118 Nehru Nagar","Phone":"9837134156","weapon":"Nil"},{"Name":"Ram Pal","so":"Ghasitu singh","Address":"114 Nehru Nagar","Phone":"9837344207","weapon":"Nil"},{"Name":"Gajendra Singh","so":"Sahib Ram","Address":"113/5 Nehru Nagar","Phone":"9897309006","weapon":"Nil"},{"Name":"Shiv Kumar","so":"Basant Lal","Address":"7/1 Nehru Nagar","Phone":"9319311054","weapon":"Nil"},{"Name":"Shobit Goyal","so":"Swaraj Goyal","Address":"128/1 Nehru Nagar","Phone":"9359434359","weapon":"Nil"}],"chowkidar":[{"Name":"Nil ","so":" Nil ","Address":"Nil","Phone":"Nil"}],"councellor":[{"Name":"Manoj Verma","so":"Nil","Address":"Gali No.1 NehruNagar Meerut","Phone":"9837637865"}],"historySheeter":[{"Name":"Nil","so":"Nil","Address":"Nil","Status":"Nil","Phone":"Nil"}],"convictedCriminals":[{"Name":"Nil","so":"Nil","Status":"Nil","4Address":"Nil"}],"crimes5Yrs":[{"Name":"Arshad","so":"Yusof","crimeno":"346/12","Section":"392,411 Ipc","Address":"46 Ara Machine Wali Gali Thana Bharam Puri( Meerut)"},{"Name":"Sohail","so":"Furkaan","crimeno":"346/12","Section":"392,411 Ipc","Address":"Kaanch Ka Pull Gali No.2 Thana Lisadi Gate Meerut"},{"Name":"Rashid","so":"N/a","crimeno":"346/12","Section":"392,411 Ipc","Address":"Kidwai Nagar P/s Lisadi Gate (meerut)"}],"electionCrimes":[{"Name":"Nil","so":"Nil","crimeno":"Nil","Section":"Nil","Address":"Nil"}],"politician":[{"Name":"Nil","so":"Nil","Address":"Nil","Phone":"Nil"}],"boundDownUnder":"Nil","vulnerabilityDetails":"General","warrantedCriminals":[{"Name":"Nil","so":"Nil","Address":"Nil","Phone":"Nil"}],"condition":"Good"},{"stationID":"NC-07","stationName":"Karyalaya Upper Nideshak Udhyog(Pashim Chetra) Suraj Kund Road(Meerut Mandal)","latitude":" 28.97410","longitude":"   77.72071","polingCenterPhoto":"/img/mediPanchayat.png","routes":"/img/3.png","collectionPoint":"/img/3.png","population":"Nil","voters":"1218","villageMohalla":"Suraj Kund Road","path":"#/menu/tab/medicalDetails","respectedPpl":[{"Name":"Vishal ","so":"Jai Prakash","Address":"Hans Chopla Phool Bagh Colony","Phone":"7895178425"},{"Name":"Mukesh","so":"Satya Prakash","Address":"Hans Chopla Phool Bagh Colony","Phone":"9927464677"},{"Name":"Naresh Tyagi","so":"Basant Tyagi","Address":"Hans Chopla Phool Bagh Colony","Phone":"9897122799"},{"Name":"Ashu ","so":"Lt. Surendra Singh","Address":"Hans Chopla Phool Bagh Colony","Phone":"9058776346"},{"Name":"Sachin ","so":"Satya Prakash","Address":"Hans Chopla Phool Bagh Colony","Phone":"9997006622"}],"retiredGovtSer":[{"Name":"Daya Chand","so":"Tika Ram","Address":"Phool Bagh Colony","Phone":"9358151760"},{"Name":"Ramotar","so":"Shikhar","Address":"Phool Bagh Colony","Phone":"121263449"},{"Name":"Harish","so":"HarPrasad","Address":"185/1 Nehru Nagar","Phone":"9358186461"},{"Name":"Suresh","so":"Thakur Ram","Address":"633/8  Nehru Nagar","Phone":"Nil"},{"Name":"Roop Chand","so":"Mukhtyar","Address":"409/8 Nehru Nagar","Phone":"9997272160"}],"neighbourPolling":[{"Name":"Vishal Sharma","so":"Ashok Kumar","Address":"6 Sk Road","Phone":"9977763333"},{"Name":"Ravindra","so":"Jai Kumar","Address":"4732 Sk Road Meerut","Phone":"9897000203"},{"Name":"Jai Kumar","so":"Shiv Lal","Address":"4732 Sk Road Meerut","Phone":"9897069039"},{"Name":"Ashok Kumar Tyagi","so":"Sc Tyagi","Address":"12 Phool Bagh Colony","Phone":"9411617621"},{"Name":"Yogesh Tyagi","so":"Sc Tyagi","Address":"12 Phool Bagh Colony","Phone":"9319990207"}],"armsLicenseHolder":[{"Name":"Ashish Pandit","so":"P.l Pandit","Address":"S.k Road Sport Nagar","Phone":"Nil","weapon":"Nil"},{"Name":"Saurav Bhatia","so":"Jag Mohan Bhatiya","Address":"3031 S.K Road  Sports Colony","Phone":"9358404838","weapon":"Nil"},{"Name":"Manoj Kumar","so":"Kishan Kumar","Address":"18 S.K Road Sports Colony","Phone":"9897893963","weapon":"Nil"},{"Name":"Subash Chandra Tyagi","so":"Jas Ram Tyagi","Address":"360/6 Nehru Nagar","Phone":"9897393421","weapon":"Nil"},{"Name":"Lokesh","so":"Baake Lal","Address":"254/1 Nehru Nagar","Phone":"7417999658","weapon":"Nil"}],"chowkidar":[{"Name":"Nil ","so":" Nil ","Address":"Nil","Phone":"Nil"}],"councellor":[{"Name":"Manoj Verma","so":"Nil","Address":"Gali No.1 Nehru Nagar Meerut","Phone":"9837637865"}],"historySheeter":[{"Name":"Nil","so":"Nil","Address":"Nil","Status":"Nil","Phone":"Nil"}],"convictedCriminals":[{"Name":"Nil","so":"Nil","Status":"Nil","4Address":"Nil"}],"crimes5Yrs":[{"Name":"Sonu","so":"Govind","crimeno":"487/12","Section":"307 IPC","Address":"Pathan Pura Thana Kanker Kheda Meerut"},{"Name":"Dinesh","so":"Bheem Singh","crimeno":"487/12","Section":"307 IPC","Address":"Hussain Pur Thana Ram raj Muzzafarnagar"},{"Name":"Pintu","so":"Budh Prakash","crimeno":"487/12","Section":"307 IPC","Address":"Rhota Thana Sarurpur"},{"Name":"Lokesh ","so":"mahendra","crimeno":"487/12","Section":"307 IPC","Address":"Khadoli Thana Kankar Kheda Meerut"},{"Name":"Deepak","so":"Raj pal","crimeno":"487/12","Section":"307 IPC","Address":"Rhota Thana Sarurpur"}],"electionCrimes":[{"Name":"Nil","so":"Nil","crimeno":"Nil","Section":"Nil","Address":"Nil"}],"politician":[{"Name":"Nil","so":"Nil","Address":"Nil","Phone":"Nil"}],"boundDownUnder":"Nil","vulnerabilityDetails":"General","warrantedCriminals":[{"Name":"Nil","so":"Nil","Address":"Nil","Phone":"Nil"}],"condition":"Good"},{"stationID":"NC-08","stationName":"Gemini Inter college Phool Bagh Colony Meerut)","latitude":" 28.97576","longitude":"   77.72447","polingCenterPhoto":"/img/mediPanchayat.png","routes":"/img/3.png","collectionPoint":"/img/3.png","population":"Nil","voters":"3610","villageMohalla":"PhoolBagh colony","path":"#/menu/tab/medicalDetails","respectedPpl":[{"Name":"Sunil Aggarwal","so":"Kishori Lal","Address":"Phool Bagh Colony","Phone":"9557072495"},{"Name":"Sachin","so":"Om Prakash Verma","Address":"Phool Bagh Colony","Phone":"9412749258"},{"Name":"Anil Gupta","so":"Asaram","Address":"Phool Bagh Colony","Phone":"9411693796"},{"Name":"Jai Prakash","so":"Devi Singh","Address":"Phool Bagh Colony","Phone":"9457817473"},{"Name":"Atul","so":"Bal Kishan","Address":"Phool Bagh Colony","Phone":"9759125153"}],"retiredGovtSer":[{"Name":"Pawan Kumar","so":"Jai Bhagwan","Address":"Phool Bagh Colony","Phone":"9897224609"},{"Name":"Mahesh Kumar","so":"Jai Bhagwan","Address":"Phool Bagh Colony","Phone":"9897764544"},{"Name":"Anil Gupta","so":"Kishori Lal","Address":"Phool Bagh Colony","Phone":"9857072495"},{"Name":"Rohit Sharma","so":"Nil","Address":"Phool Bagh Colony","Phone":"9359184320"},{"Name":"Vikas Aggarwal","so":"Nil","Address":"Phool Bagh Colony","Phone":"9837784666"}],"neighbourPolling":[{"Name":"Rahul","so":"Narendra Chaudhary","Address":"499 New PhoolBagh Colony","Phone":"997864079"},{"Name":"Pawan Kumar Verma","so":"Nil","Address":"499 New PhoolBagh Colony","Phone":"9897224609"},{"Name":"Sanjay","so":"Lal Singh","Address":"499 New PhoolBagh Colony","Phone":"7520074809"},{"Name":"Suresh Chand","so":"Tusli Ram","Address":"499 New PhoolBagh Colony","Phone":"9808194004"},{"Name":"Abhinav Rastogi","so":"Sanjay Rastogi","Address":"499 New PhoolBagh Colony","Phone":"9837333366"}],"armsLicenseHolder":[{"Name":"Satya Pal Pawar","so":"Tusli Ram","Address":"412 Phool Bagh Colony","Phone":"8979793566","weapon":"Nil"},{"Name":"Rati Ram sharma","so":"Ramsurup","Address":"Happy Valley School Phool Bagh Colony","Phone":"7895368651","weapon":"Nil"},{"Name":"Jitendra Kumar Sharma","so":"T.C sharma","Address":"605 Phool Bagh colony Meeryt","Phone":"9837294559","weapon":"Nil"},{"Name":"Karmveer singh","so":"Saktu Singh","Address":"856/3 Phool Bagh colony","Phone":"9458856909","weapon":"Nil"},{"Name":"Arun Sharma(Advocate)","so":"Om prakash sharma","Address":"511 Phool Bagh colony","Phone":"9837308823","weapon":"Nil"}],"chowkidar":[{"Name":"Nil ","so":" Nil ","Address":"Nil","Phone":"Nil"}],"councellor":[{"Name":"Manoj Verma","so":"Nil","Address":"Gali No.1 Nehru Nagar Meerut","Phone":"9837637865"}],"historySheeter":[{"Name":"Nil","so":"Nil","Address":"Nil","Status":"Nil","Phone":"Nil"}],"convictedCriminals":[{"Name":"Nil","so":"Nil","Status":"Nil","4Address":"Nil"}],"crimes5Yrs":[{"Name":"Akash Balmiki","so":"Nil","crimeno":"98/15","Section":"302,341 Ipc","Address":"Gali No. 6 Phool Bagh Colony"},{"Name":"Neeraj","so":"Vijay Pal","crimeno":"98/15","Section":"302,341 Ipc","Address":"Gali No. 11 Phool Bagh Colony"},{"Name":"Gaurav","so":"Rakesh","crimeno":"98/15","Section":"302,341 Ipc","Address":"Gali No. 8 Phool Bagh Colony"},{"Name":"Gaurav Puri","so":"Harish Chand","crimeno":"98/15","Section":"302,341 Ipc","Address":"609 Gali No.7 Phool Bagh Colony Meerut"},{"Name":"Shahrukh","so":"Lt. Anwar","crimeno":"237/15","Section":"394,307,411 Ipc","Address":"New Basti Tower Wali Gali Kasba Lawad Thana Incholi Meerut"},{"Name":"Asif","so":"Sayiuddin","crimeno":"237/15","Section":"394,307,411 Ipc","Address":"Firoz Nagar Thana Lisadi Gate"}],"electionCrimes":[{"Name":"Nil","so":"Nil","crimeno":"Nil","Section":"Nil","Address":"Nil"}],"politician":[{"Name":"Nil","so":"Nil","Address":"Nil","Phone":"Nil"}],"boundDownUnder":"Nil","vulnerabilityDetails":"Sensitive","warrantedCriminals":[{"Name":"Nil","so":"Nil","Address":"Nil","Phone":"Nil"}],"condition":"Good"},{"stationID":"NC-09","stationName":"Jila Udhyog Karyalaya Suraj Kund Road Meerut","latitude":" 28.97410","longitude":"   77.72071","polingCenterPhoto":"/img/mediPanchayat.png","routes":"/img/3.png","collectionPoint":"/img/3.png","population":"Nil","voters":"2028","villageMohalla":"Suraj Kund road Meerut","path":"#/menu/tab/medicalDetails","respectedPpl":[{"Name":"Sunil","so":"Rajeshwar Prasad","Address":"Phool Bagh Colony Meerut","Phone":"9837014460"},{"Name":"Ashok Kumar","so":"Vishambar Das","Address":"18 Phool Bagh Colony Meerut","Phone":"9760487892"},{"Name":"Pankaj","so":"Sachdanand","Address":"11 Phool Bagh Colony Meerut","Phone":"9411023808"},{"Name":"Yogesh","so":"Ramutar","Address":"23/1 Phool Bagh Colony","Phone":"9045001841"},{"Name":"Bhagwat Prasad","so":"Rameshwar Dayal","Address":"40 Phool Bagh Colony","Phone":"9837007920"}],"retiredGovtSer":[{"Name":"Bhagwat Prasad","so":"Rameshwar Dayal","Address":"Nil","Phone":"9837007920"},{"Name":"Vineet Garg","so":"Laxman Chand Garg","Address":"Nil","Phone":"1212766640"},{"Name":"Rajesh Sharma","so":"Sukhveer Sharma","Address":"Nil","Phone":"9412663797"},{"Name":"Shrinivas Goyal","so":"Asaram Goyal","Address":"Nil","Phone":"1212766347"},{"Name":"Satpal Singh","so":"Tulsi Ram","Address":"Nil","Phone":"8979793560"}],"neighbourPolling":[{"Name":"Vishal","so":"Jai Prakash","Address":"Hanschopla (Meerut)","Phone":"7895178425"},{"Name":"Suresh","so":"Satya Prakash","Address":"Hanschopla (Meerut)","Phone":"9927464677"},{"Name":"Vijay","so":"Jai Prakash","Address":"Hanschopla (Meerut)","Phone":"9368210184"},{"Name":"Ashu","so":"Lt. Surender","Address":"Hanschopla (Meerut)","Phone":"9058776346"},{"Name":"Sachin","so":"Satyaprakash","Address":"Hanschopla (Meerut)","Phone":"9997006622"}],"armsLicenseHolder":[{"Name":"Hariom Aggarwal","so":"Mathura Prasad","Address":"Hansvilla S.k       Road","Phone":"9412706745","weapon":"Nil"},{"Name":"Arun Sharma(advocate)","so":"O.p Sharma","Address":"511 Phool Bagh Colony","Phone":"9837308823","weapon":"Nil"},{"Name":"Daya Ram","so":"Roop Chand","Address":"458 Phool Bagh Colony","Phone":"7357399223","weapon":"Nil"},{"Name":"Suresh Pal","so":"Saktu Singh","Address":"402 Phool Bagh Colony","Phone":"9219885745","weapon":"Nil"},{"Name":"Yogesh Aggarwal","so":"Ram Avtar Aggarwal","Address":"Hansvilla Hanschoraha","Phone":"9045001841","weapon":"Nil"}],"chowkidar":[{"Name":"Nil ","so":" Nil ","Address":"Nil","Phone":"Nil"}],"councellor":[{"Name":"Rajkumar gupta ","so":"Nil","Address":"Saraswati Mandir p/s Lisadi Gate Meerut","Phone":"9837410333"}],"historySheeter":[{"Name":"Nil","so":"Nil","Address":"Nil","Status":"Nil","Phone":"Nil"}],"convictedCriminals":[{"Name":"Nil","so":"Nil","Status":"Nil","4Address":"Nil"}],"crimes5Yrs":[{"Name":"Noor Mohammad","so":"Anees","crimeno":"56/2","Section":"302,404 IPC","Address":"Thana Bhawanpur Meerut"},{"Name":"Shabir","so":"Samsuddin","crimeno":"56/2","Section":"302,404 IPC","Address":"Siyal P/S Bhawanpur"}],"electionCrimes":[{"Name":"Nil","so":"Nil","crimeno":"Nil","Section":"Nil","Address":"Nil"}],"politician":[{"Name":"Nil","so":"Nil","Address":"Nil","Phone":"Nil"}],"boundDownUnder":"Nil","vulnerabilityDetails":"General","warrantedCriminals":[{"Name":"Nil","so":"Nil","Address":"Nil","Phone":"Nil"}],"condition":"Good"},{"stationID":"NC-10","stationName":"Ram Sahay Inter College Garh Road Meerut","latitude":"  28.97139","longitude":"   77.72122","polingCenterPhoto":"/img/mediPanchayat.png","routes":"/img/3.png","collectionPoint":"/img/3.png","population":"Nil","voters":"3794","villageMohalla":"Garh Road Meerut","path":"#/menu/tab/medicalDetails","respectedPpl":[{"Name":"Ashok Kumar","so":"Chetan Singh","Address":"107/5-a Jaidevi Nagar","Phone":"9152753645"},{"Name":"Rajeev Tyagi","so":"B.d Tyagi","Address":"Gali No.7 Jaidevi Nagar","Phone":"9058791572"},{"Name":"Chatar Singh","so":"Ram Chand","Address":"198/7 Jaidevi Nagar","Phone":"9927221515"},{"Name":"Ajeet","so":"Daya Chand","Address":"Gali No.7 Jaidevi Nagar","Phone":"9837670340"},{"Name":"Sardar Bahadur Singh","so":"Kulwant","Address":"137 Jaidevi Nagar","Phone":"9837430547"}],"retiredGovtSer":[{"Name":"Surender Sharma","so":"R.d Sharma","Address":"Nil","Phone":"8273621630"},{"Name":"Yogendra","so":"Bakveer Singh","Address":"Nil","Phone":"8368797499"},{"Name":"Budh Prakash","so":"Raghuveer Singh","Address":"Nil","Phone":"9997133147"},{"Name":"Krishan Avtar","so":"Shyam Lal","Address":"Nil","Phone":"9358078383"},{"Name":"Suvidar","so":"T.r Chauhan","Address":"Nil","Phone":"9412012524"}],"neighbourPolling":[{"Name":"Sanjay Aggarwal","so":"Nikat Ram Sahay Inter College","Address":"Nil","Phone":"9411023392"},{"Name":"Brijesh Aggarwal","so":"Nikat Ram Sahay Inter College","Address":"Nil","Phone":"9412701275"},{"Name":"Neeraj Gupta","so":"Nikat Ram Sahay Inter College","Address":"Nil","Phone":"1212602547"},{"Name":"Virendra Nath Gupta","so":"Nikat Ram Sahay Inter College","Address":"Nil","Phone":"Nil"}],"armsLicenseHolder":[{"Name":"Ravendra Chaudhary","so":"Gajesh Singh","Address":"42 Kalyan Nagar","Phone":"9358344876","weapon":"Nil"},{"Name":"Ashish Parasar","so":"Mangal Sain Sharma","Address":"32/76 Kalyan Nagar","Phone":"9760020660","weapon":"Nil"},{"Name":"Anupam Rastogi","so":"Ravider Prakash Rastogi","Address":"115 Vijay Gate","Phone":"9412206362","weapon":"Nil"},{"Name":"Mahendra Kumar Aggarwal","so":"Chandrabhan Aggarwal","Address":"32/1 Kalyan Nagar Garh Road","Phone":"9412232046","weapon":"Nil"},{"Name":"Anurag Aggarwal","so":"S.k Aggarwal","Address":"33/3  Kalyan Nagar Garh Road","Phone":"8585939651","weapon":"Nil"}],"chowkidar":[{"Name":"Nil ","so":" Nil ","Address":"Nil","Phone":"Nil"}],"councellor":[{"Name":"Rakesh Sharma ","so":"Nil","Address":"Preet Vihar Meerut","Phone":"9359607110"}],"historySheeter":[{"Name":"Rahul/rajeev Trivedi","so":"Sadaram Trivedi","Address":"Gali No.7 Makan No. 82 Jaidevi Nagar P/s Naushandi Meerut","Status":null,"Phone":"Nil"}],"convictedCriminals":[{"Name":"Nil","so":"Nil","Status":"Nil","4Address":"Nil"}],"crimes5Yrs":[{"Name":"Nil","so":"Nil","crimeno":"Nil","Section":"Nil","Address":"Nil"}],"electionCrimes":[{"Name":"Nil","so":"Nil","crimeno":"Nil","Section":"Nil","Address":"Nil"}],"politician":[{"Name":"Nil","so":"Nil","Address":"Nil","Phone":"Nil"}],"boundDownUnder":"Nil","vulnerabilityDetails":"Sensitive","warrantedCriminals":[{"Name":"Nil","so":"Nil","Address":"Nil","Phone":"Nil"}],"condition":"Good"},{"stationID":"NC-11","stationName":"Shanta Smarag Inter College kailashpuri Meerut","latitude":"  28.97092","longitude":"   77.72032","polingCenterPhoto":"/img/mediPanchayat.png","routes":"/img/3.png","collectionPoint":"/img/3.png","population":"Nil","voters":"4563","villageMohalla":"KailshPuri meerut","path":"#/menu/tab/medicalDetails","respectedPpl":[{"Name":"Anil Singhal","so":"Lt. Devi Sahay","Address":"Makan No.5 Chetanya Puram","Phone":"9412206266"},{"Name":"Gyanendra Tyagi","so":"Harvansh","Address":"Makan No.7 Chetanya Puram","Phone":"8979181918"},{"Name":"Pawan","so":"Dwarka Nath","Address":"Chetanya Puram","Phone":"9412203596"},{"Name":"Rajendra Pradhan","so":"Lt. Dimang Singh","Address":"Kalyan Nagar","Phone":"9758190485"},{"Name":"Praveen Gupta","so":"K.g Gupta","Address":"Chetanya Puram","Phone":"7500858066"}],"retiredGovtSer":[{"Name":"Radhe Shyam Sharma","so":"Nil","Address":"Nil","Phone":"9456259746"},{"Name":"Satish Chand Goyal","so":"Nil","Address":"Nil","Phone":"1212700394"},{"Name":"Jagmal Singh Verma","so":"Nil","Address":"Nil","Phone":"9634129753"},{"Name":"Sher Singh","so":"Nil","Address":"Nil","Phone":"9456036110"},{"Name":"Dr. Ram Kishor Sharma","so":"Nil","Address":"Nil","Phone":"9456481203"}],"neighbourPolling":[{"Name":"Gyanendra Tyagi","so":"Harvansh","Address":"Makan N0.7 Chetanya Puram","Phone":"8979181918"},{"Name":"Anil Singhal","so":"Devi Prasad","Address":"Makan N0.5 Chetanya Puram","Phone":"9412206266"},{"Name":"Vijay Kumar Verma","so":"Jai Prakash","Address":"96 Kailash Puri","Phone":"9837294093"},{"Name":"Praveen Kumar","so":"Mangat Ram","Address":"9 Chetanya Puram","Phone":"9358406137"},{"Name":"Mukesh","so":"Jagmaal","Address":"92 Kalyan Nagar","Phone":"9634129753"}],"armsLicenseHolder":[{"Name":"Mayank Kumar Jain","so":"Hemant Kumar Jain","Address":"18 Purvi Kalyan Nagar","Phone":"Nil","weapon":"Nil"},{"Name":"Bijendra Kumar","so":"Ram Kishan","Address":"House No.78 Kalyan Nagar","Phone":"9456633678","weapon":"Nil"},{"Name":"Sandeep Kumar Kansal","so":"Ladli Prasad Kansal","Address":"26 B/3 Kalyan Nagar","Phone":"9837034272","weapon":"Nil"},{"Name":"Ashish Kumar Parasar","so":"Mangal Sain Sharma","Address":"32/76 Kalyan Nagar","Phone":"9760020660","weapon":"Nil"},{"Name":"Maharaj Singh Suvedar Major","so":"Nil","Address":"138 Purvi Kalyan Nagar","Phone":"1212701775","weapon":"Nil"}],"chowkidar":[{"Name":"Nil ","so":" Nil ","Address":"Nil","Phone":"Nil"}],"councellor":[{"Name":"Rakesh Sharma ","so":"Nil","Address":"Preet Vihar Meerut","Phone":"9359607110"}],"historySheeter":[{"Name":"Jamil","so":"Ramjani","Address":"Kailsh Puri P/s Nauchandi Meerut (B Class)","Status":null,"Phone":"Nil"}],"convictedCriminals":[{"Name":"Nil","so":"Nil","Status":"Nil","4Address":"Nil"}],"crimes5Yrs":[{"Name":"Nil","so":"Nil","crimeno":"Nil","Section":"Nil","Address":"Nil"}],"electionCrimes":[{"Name":"Nil","so":"Nil","crimeno":"Nil","Section":"Nil","Address":"Nil"}],"politician":[{"Name":"Nil","so":"Nil","Address":"Nil","Phone":"Nil"}],"boundDownUnder":"Nil","vulnerabilityDetails":"General","warrantedCriminals":[{"Name":"Nil","so":"Nil","Address":"Nil","Phone":"Nil"}],"condition":"Good"},{"stationID":"NC-12","stationName":"Mari Gold Public School Ram Bagh","latitude":"   28.96199","longitude":"   77.72388","polingCenterPhoto":"/img/mediPanchayat.png","routes":"/img/3.png","collectionPoint":"/img/3.png","population":"Nil","voters":"2583","villageMohalla":"Ram Bagh","path":"#/menu/tab/medicalDetails","respectedPpl":[{"Name":"Cahndra Krishan Sharma","so":"Gadhari Laal","Address":"1/4 Rambagh Colony","Phone":"9759362144"},{"Name":"Devendra Kumar Sharma","so":"Dayanand Sharma","Address":"1/5 Rambagh Colony","Phone":"9897179090"},{"Name":"Jai Prakash","so":"Rajaram","Address":"26 Rambagh Colony","Phone":"9639992876"},{"Name":"Sagar","so":"Mehsuf","Address":"1/16 Rambaghcolony","Phone":"9927653480"},{"Name":"Chetan Prakash","so":"Kishan Lal","Address":"2/5 Rambagh Colony","Phone":"9917371045"}],"retiredGovtSer":[{"Name":"Jai Prakash Yadav","so":"Lt. Rajaram","Address":"Nil","Phone":"9639992826"},{"Name":"R.p Sharma","so":"Nil","Address":"Nil","Phone":"9411027013"},{"Name":"Chandra Bushan Sharma","so":"Nil","Address":"Nil","Phone":"9759362194"},{"Name":"Umar Abbas Jaidi","so":"Nil","Address":"Nil","Phone":"9837056544"}],"neighbourPolling":[{"Name":"Sagar","so":"Mehsuf","Address":"1/16 B Rambagh Colony","Phone":"9927653480"},{"Name":"Devendra Kumar Sharma","so":"Dayand Sharma","Address":"1/5 Rambagh Colony","Phone":"9897179090"},{"Name":"Chandra Krishan Sharma","so":"Gidhari Lal","Address":"1/4 Rambagh Colony","Phone":"9759362144"},{"Name":"Chetan Prakash","so":"Kishanlal","Address":"2/5 Rambagh","Phone":"9917371045"},{"Name":"Jai Prakash","so":"Raja Ram","Address":"26 Ram Bagh Colony","Phone":"9639992876"}],"armsLicenseHolder":[{"Name":"Iqbal Ahmad","so":"R.a Querashi","Address":"12/36 Rambagh Colony","Phone":"9358414312","weapon":"Nil"},{"Name":"Vijay Pal","so":"Lakhan Singh","Address":"87 Rambagh Colony","Phone":"9760444570","weapon":"Nil"},{"Name":"Masood Ahmad","so":"Ansar Ali","Address":"L6 Ram Bagh Colony","Phone":"9719424813","weapon":"Nil"},{"Name":"N.v Zaidi","so":"Z.h Zaidi","Address":"9/1 Rambagh Colony","Phone":"9412628466","weapon":"Nil"},{"Name":"Azgar Ali","so":"Ansar Ali","Address":"1/6 Rambagh Colony","Phone":"9719424813","weapon":"Nil"}],"chowkidar":[{"Name":"Nil ","so":" Nil ","Address":"Nil","Phone":"Nil"}],"councellor":[{"Name":"Rakesh Sharma ","so":"Nil","Address":"Preet Vihar Meerut","Phone":"9359607110"}],"historySheeter":[{"Name":"Khazan Uff Babu","so":"Khachedu","Address":"Lal Singh Nagar Nauchandi Meerut(b Class)","Status":"Nil","Phone":"Nil"}],"convictedCriminals":[{"Name":"Nil","so":"Nil","Status":"Nil","4Address":"Nil"}],"crimes5Yrs":[{"Name":"Usmaan Malik","so":"Jainu","crimeno":"382/13","Section":"307,366 IPC","Address":"Khadoli P/S Kankar Kheda Meerut"}],"electionCrimes":[{"Name":"Nil","so":"Nil","crimeno":"Nil","Section":"Nil","Address":"Nil"}],"politician":[{"Name":"Nil","so":"Nil","Address":"Nil","Phone":"Nil"}],"boundDownUnder":"Nil","vulnerabilityDetails":"Sensitive","warrantedCriminals":[{"Name":"Nil","so":"Nil","Address":"Nil","Phone":"Nil"}],"condition":"Good"},{"stationID":"NC-13","stationName":"Mother Teresa Public School Bhawani Nagar","latitude":"   28.96341","longitude":"   77.71676","polingCenterPhoto":"/img/mediPanchayat.png","routes":"/img/3.png","collectionPoint":"/img/3.png","population":"Nil","voters":"1090","villageMohalla":"Bhawani Nagar","path":"#/menu/tab/medicalDetails","respectedPpl":[{"Name":"A.A Sabjwari","so":"S.A Sabjwari","Address":"Nil","Phone":"9358465460"},{"Name":"Shrimati Nayyar","so":"W/o A.A Sabjwari","Address":"Nil","Phone":"9410887866"},{"Name":"Aftab Alam","so":"Nil","Address":"Nil","Phone":"Nil"},{"Name":"Massadi Shah","so":"Nazir Ahmad","Address":"Nil","Phone":"Nil"},{"Name":"Anis","so":"Manjoor","Address":"Nil","Phone":"Nil"}],"retiredGovtSer":[{"Name":"Shrimati Nayyar sabjwari","so":"Nil","Address":"Nil","Phone":"9410887866"},{"Name":"Aftab Alam","so":"Nil","Address":"Nil","Phone":"Nil"}],"neighbourPolling":[{"Name":"Shri A. Sattar","so":"A Karim","Address":"Nil","Phone":"Nil"},{"Name":"Dr.Yasin","so":"Mohd Shahid","Address":"Nil","Phone":"Nil"},{"Name":"Zalal Jaidi","so":"Nil","Address":"Nil","Phone":"Nil"},{"Name":"Abid","so":"Haji Babu","Address":"Nil","Phone":"Nil"},{"Name":"Makshood","so":"Nil","Address":"Nil","Phone":"Nil"}],"armsLicenseHolder":[{"Name":"Matin Khan","so":"Khalil Kha","Address":"57 Bhawani Nagar Meerut","Phone":"9720636077","weapon":"Nil"},{"Name":"Anand Kumar Jain","so":"Jambu Prasad Jain","Address":"29 Bhawani Nagar","Phone":"9837005758","weapon":"Nil"},{"Name":"Imran","so":"Niyaz Ahmad","Address":"43 Bhawani Nagar","Phone":"9897251393","weapon":"Nil"},{"Name":"Sahibe Alam","so":"Lt. Iqbal Ahmad","Address":"52bhawani Nagar","Phone":"9760027860","weapon":"Nil"},{"Name":"Majhar Khan","so":"Matin Khan","Address":"57 A Bhawani Nagar P/s Nauchandi","Phone":"9897852786","weapon":"Nil"}],"chowkidar":[{"Name":"Nil ","so":" Nil ","Address":"Nil","Phone":"Nil"}],"councellor":[{"Name":"Nil ","so":"Nil","Address":"Nil","Phone":"Nil"}],"historySheeter":[{"Name":"Nil","so":"Nil","Address":"Nil","Status":"Nil","Phone":"Nil"}],"convictedCriminals":[{"Name":"Nil","so":"Nil","Status":"Nil","4Address":"Nil"}],"crimes5Yrs":[{"Name":"Yamin","so":"Sayeed Ahmed","crimeno":"400/13","Section":"376 C IPC 3,4 Pocso ACT ","Address":"30 Bhawani Nagar P/S Nauchandi Meerut"},{"Name":"Abdul Kadir","so":"Hajilauddin","crimeno":"538/15","Section":"302 IPC","Address":"434 Islamabad P/S Lisadi Gate Meerut"},{"Name":"Sadik","so":"Arif","crimeno":"538/15","Section":"302 IPC","Address":"550 Makan No.2 P/s Lisadi Gate Meerut"}],"electionCrimes":[{"Name":"Nil","so":"Nil","crimeno":"Nil","Section":"Nil","Address":"Nil"}],"politician":[{"Name":"Nil","so":"Nil","Address":"Nil","Phone":"Nil"}],"boundDownUnder":"Nil","vulnerabilityDetails":"General","warrantedCriminals":[{"Name":"Nil","so":"Nil","Address":"Nil","Phone":"Nil"}],"condition":"Good"},{"stationID":"NC-14","stationName":"Baby happy Home public School Karim Nagar","latitude":"    28.96101","longitude":"   77.71800","polingCenterPhoto":"/img/mediPanchayat.png","routes":"/img/3.png","collectionPoint":"/img/3.png","population":"Nil","voters":"3707","villageMohalla":"Karim Nagar","path":"#/menu/tab/medicalDetails","respectedPpl":[{"Name":"Kushnawaz","so":"Mohd.umar Pradhan Adhyapak","Address":"Karim Nagar","Phone":"9837355949"},{"Name":"Matin Ahmad","so":"Haqim","Address":"Karim Nagar","Phone":"7417950197"},{"Name":"Mohd.aqlaq","so":"Wasir Ahmad","Address":"Karim Nagar","Phone":"Nil"},{"Name":"Sakil Chawla","so":"Nil","Address":"Gali No. 10 Dhawai Nagar","Phone":"9897212168"},{"Name":"Mohd.Nizamuddin","so":"Majid","Address":"Karim Nagar","Phone":"9319217948"}],"retiredGovtSer":[{"Name":"Nil","so":"Nil","Address":"Nil","Phone":"Nil"}],"neighbourPolling":[{"Name":"Mohd. Saleem","so":"Mohd.Uger","Address":"Karim Nagar Gali no. 2 ","Phone":"9286551712"},{"Name":"Arsad","so":"lt.Zakir Ussain","Address":"Karim Nagar Gali no. 2 ","Phone":"9897193922"},{"Name":"Hazinafiz","so":"A Wahid","Address":"Karim Nagar Gali no. 2 ","Phone":"8791818830"},{"Name":"Mohd.Iliyaaz","so":"Khuda Wakz","Address":"Karim Nagar Gali no. 2 ","Phone":"9639558022"}],"armsLicenseHolder":[{"Name":"Mohd.Azgar","so":"Hafiz Ullah","Address":"823 Karim Nagar","Phone":"9927469215","weapon":"Nil"},{"Name":"Mohd.Asif","so":"Rahim","Address":"128/8 Karim nagar","Phone":"9368440528","weapon":"Nil"},{"Name":"Mukaram","so":"Tamor Ali shah","Address":"Karim Nagar","Phone":"9219798137","weapon":"Nil"},{"Name":"Sakil Ahmad","so":"Abdul  Rajjak","Address":"Makan no. 3 Ansar Block Karim Nagar","Phone":"9997532982","weapon":"Nil"},{"Name":"Fasil Ansari","so":"Islamuddin","Address":"411/13 Ansar Block Karim Nagar","Phone":"9058723241","weapon":"Nil"}],"chowkidar":[{"Name":"Nil ","so":" Nil ","Address":"Nil","Phone":"Nil"}],"councellor":[{"Name":"Shahnawaz  ","2Wo":"Shakil Chawla","Address":"Karim Nagar","Phone":"9897212168"}],"historySheeter":[{"Name":"Nil","so":"Nil","Address":"Nil","Status":"Nil","Phone":"Nil"}],"convictedCriminals":[{"Name":"Nil","so":"Nil","Status":"Nil","4Address":"Nil"}],"crimes5Yrs":[{"Name":"Nil","so":"Nil","crimeno":"Nil","Section":"Nil","Address":"Nil"}],"electionCrimes":[{"Name":"Nil","so":"Nil","crimeno":"Nil","Section":"Nil","Address":"Nil"}],"politician":[{"Name":"Nil","so":"Nil","Address":"Nil","Phone":"Nil"}],"boundDownUnder":"Nil","vulnerabilityDetails":"Sensitive","warrantedCriminals":[{"Name":"Nil","so":"Nil","Address":"Nil","Phone":"Nil"}],"condition":"Good"},{"stationID":"NC-15","stationName":"Pra.Kanya Vidhyalya Rajendra Nagar","latitude":"    28.97041","longitude":"   77.71498","polingCenterPhoto":"/img/mediPanchayat.png","routes":"/img/3.png","collectionPoint":"/img/3.png","population":"Nil","voters":"761","villageMohalla":"Madhav Nagar","path":"#/menu/tab/medicalDetails","respectedPpl":[{"Name":"Rakesh Sharma Parshad","so":"Nil","Address":"PreetVihar Meerut","Phone":"9359607110"},{"Name":"Sunil Kaushik","so":"VedPrakash","Address":"PreetVihar Meerut","Phone":"9411024172"},{"Name":"Nitu","so":"Ravishankar","Address":"Nil","Phone":"9837000707"},{"Name":"Rajendra Singh","so":"MailChand","Address":"Nil","Phone":"7520053021"},{"Name":"Shri Mahendra Giri","so":"Nil","Address":"Nil","Phone":"9358504040"}],"retiredGovtSer":[{"Name":"Pramod Sharma","so":"Ravi shankar","Address":"Nil","Phone":"9897547560"},{"Name":"Vinay Bhardwaj","so":"Nil","Address":"Nil","Phone":"9410030698"},{"Name":"Subash Chand Chandra","so":"Nil","Address":"Nil","Phone":"9997340341"},{"Name":"Arvind Kumar Verma","so":"Nil","Address":"Nil","Phone":"9837192541"},{"Name":"Virendra Kumar Sharma","so":"Nil","Address":"Nil","Phone":"9045044904"}],"neighbourPolling":[{"Name":"Kapil Gupta","so":"Rajendra Gupta","Address":"Madhav Nagar","Phone":"9219235914"},{"Name":"Ranjeet Singh Yadav","so":"Karamveer Singh","Address":"Madhav Nagar","Phone":"9411616747"},{"Name":"Rajendra Singh","so":"Gokal Chand","Address":"Madhav Nagar","Phone":"7520053021"},{"Name":"Pramod Sharma","so":"Shiv Shankar Yadav","Address":"Nil","Phone":"Nil"}],"armsLicenseHolder":[{"Name":"Rakesh Kumar Sharma","so":"Brij MohanSharma","Address":"House No.5 Madhav Nagar","Phone":"9412270632","weapon":"Nil"},{"Name":"Jagmohan Pratap","so":"Chandra pal","Address":"53 C Madhav Nagar","Phone":"9410816974","weapon":"Nil"},{"Name":"Mahesh Kumar Sharma","so":"Parmatma ","Address":"11/1 Madhav Nagar","Phone":"Nil","weapon":"Nil"},{"Name":"Pradeep Kumar Kaushik","so":"Ved Prakash","Address":"105 Madhav Nagar","Phone":"9411627074","weapon":"Nil"}],"chowkidar":[{"Name":"Nil ","so":" Nil ","Address":"Nil","Phone":"Nil"}],"councellor":[{"Name":"Rakesh Sharma ","so":"Nil","Address":"Preet vihar","Phone":"9359607110"}],"historySheeter":[{"Name":"Nil","so":"Nil","Address":"Nil","Status":"Nil","Phone":"Nil"}],"convictedCriminals":[{"Name":"Nil","so":"Nil","Status":"Nil","4Address":"Nil"}],"crimes5Yrs":[{"Name":"Nil","so":"Nil","crimeno":"Nil","Section":"Nil","Address":"Nil"}],"electionCrimes":[{"Name":"Nil","so":"Nil","crimeno":"Nil","Section":"Nil","Address":"Nil"}],"politician":[{"Name":"Nil","so":"Nil","Address":"Nil","Phone":"Nil"}],"boundDownUnder":"Nil","vulnerabilityDetails":"General","warrantedCriminals":[{"Name":"Nil","so":"Nil","Address":"Nil","Phone":"Nil"}],"condition":"Good"},{"stationID":"NC-16","stationName":"Karaylaya Nauchandi Patel Mandap ke Piche Meerut","latitude":"    28.96535","longitude":"    77.71676","polingCenterPhoto":"/img/mediPanchayat.png","routes":"/img/3.png","collectionPoint":"/img/3.png","population":"Nil","voters":"2593","villageMohalla":"Nauchandi Patel Mandap ke Piche (Meerut)","path":"#/menu/tab/medicalDetails","respectedPpl":[{"Name":"Sahjad ","so":"Jhangir","Address":"Bhawani Nagar","Phone":"9897263268"},{"Name":"Haji Gul Muhommad","so":"Haji Mazid Ullah","Address":"Bhawani Nagar","Phone":"9837005685"},{"Name":"Mohd. Shabbir","so":"Anuwar","Address":"Bhawani Nagar","Phone":"9897343470"},{"Name":"Sohail","so":"Yonous","Address":"Bhawani Nagar","Phone":"9997404935"},{"Name":"Avnish","so":"Lt.Shrikant","Address":"Bhawani Nagar","Phone":"9837057917"}],"retiredGovtSer":[{"Name":"Manjoor Hasan","so":"Aas Mohd.","Address":"Bhawani nagar","Phone":"9456427425"}],"neighbourPolling":[{"Name":"Nayaz","so":"Hanif","Address":"Bhawani Nagar","Phone":"9760853786"},{"Name":"Raj Kumar","so":"Nahar Singh","Address":"Bhawani Nagar","Phone":"9897154707"},{"Name":"Praveen","so":"Lakhmi Chand","Address":"Bhawani Nagar","Phone":"9027212460"},{"Name":"Sikhandar","so":"Bhola Singh","Address":"Bhawani Nagar","Phone":"9759925814"},{"Name":"Irshad","so":"Sukhan","Address":"Bhawani Nagar","Phone":"8489283214"}],"armsLicenseHolder":[{"Name":"Anand Jain","so":"Jambu Prasad Jain","Address":"29 Bahwani Nagar","Phone":"9897005758","weapon":"Nil"},{"Name":"Imraan ","so":"Niyaz Ahmad","Address":"43 Bhawani Nagar","Phone":"9897251393","weapon":"Nil"},{"Name":"Akbar Ali","so":"Jamiluddin","Address":"67 Bhawani Nagar","Phone":"9358411118","weapon":"Nil"},{"Name":"Majhar Khan","so":"Matin Khan","Address":"57/A Bhawani Nagar Patel mandap ke Pass","Phone":"9897852786","weapon":"Nil"}],"chowkidar":[{"Name":"Nil ","so":" Nil ","Address":"Nil","Phone":"Nil"}],"councellor":[{"Name":"Rakesh Sharma ","so":"Nil","Address":"Preet vihar","Phone":"9359607110"}],"historySheeter":[{"Name":"Nil","so":"Nil","Address":"Nil","Status":"Nil","Phone":"Nil"}],"convictedCriminals":[{"Name":"Nil","so":"Nil","Status":"Nil","4Address":"Nil"}],"crimes5Yrs":[{"Name":"Ansaar","so":"Ali","crimeno":"202/12","Section":"307,323,392,504,506 IPC","Address":"DubeshPur P/S Sardhana"},{"Name":"Akhalak","so":"Ali","crimeno":"202/12","Section":"307,323,392,504,506 IPC","Address":"DubeshPur P/S Sardhana"},{"Name":"Izhaar","so":"Ali","crimeno":"202/12","Section":"307,323,392,504,506 IPC","Address":"DubeshPur P/S Sardhana"},{"Name":"Javed","so":"Ali","crimeno":"202/12","Section":"307,323,392,504,506 IPC","Address":"DubeshPur P/S Sardhana"},{"Name":"Shavez","so":"Ali","crimeno":"202/12","Section":"307,323,392,504,506 IPC","Address":"DubeshPur P/S Sardhana"}],"electionCrimes":[{"Name":"Rajendra Aggarwal","so":"Om Prakash","crimeno":"98/12  188IPC,125 ","Section":"ACt 188IPC,125 Lokpratinidhi","Address":"98/8 Shashtri Nagar Meerut"},{"Name":"Somaindra Tomar","so":"Mahendra Singh ","crimeno":"Nil ","Section":"Nil","Address":"13/7 Shashtri nagar Meerut"},{"Name":"Neeraj Mittal ","so":"Anand Prakash ","crimeno":"Nil ","Section":"Nil","Address":" F-98 Shashtri nagar P/S Medical Meerut"},{"Name":"Amit Aggarwal ","so":"Prem Kiran ","crimeno":"Nil ","Section":"Nil","Address":" 39/16 Shuvaji road Vijay Nagar P/S Civil Line Meerut"},{"Name":"Rahul Thakur ","so":"Rakesh ","crimeno":"Nil ","Section":"Nil","Address":" 611/6 Jagarti Vihar P/S Medical Meerut"},{"Name":"Varun Goel ","so":"Arvind  ","crimeno":"Nil ","Section":"Nil","Address":" Bhopal Nursing P/S Bhudana Muzaffarnagar"}],"politician":[{"Name":"Nil","so":"Nil","Address":"Nil","Phone":"Nil"}],"boundDownUnder":"Nil","vulnerabilityDetails":"Hyper sensitive","warrantedCriminals":[{"Name":"Nil","so":"Nil","Address":"Nil","Phone":"Nil"}],"condition":"Good"},{"stationID":"NC-17","stationName":"N.s public School Karim nagar Gali no. 10 Meerut","latitude":"    28.96108","longitude":"   77.71837","polingCenterPhoto":"/img/mediPanchayat.png","routes":"/img/3.png","collectionPoint":"/img/3.png","population":"Nil","voters":"3489","villageMohalla":"Karim Nagar Gali No.10","path":"#/menu/tab/medicalDetails","respectedPpl":[{"Name":"Abdul Haqim","so":"illahiwaks","Address":"Karim Nagar","Phone":"9319803660"},{"Name":"Kayum ","so":"Wahi Uddin","Address":"Karim Nagar","Phone":"9027086124"},{"Name":"Alam Geer","so":"Abdul Majir","Address":"Karim Nagar","Phone":"9917420225"},{"Name":"Shakeel","so":"Yamin","Address":"Karim Nagar","Phone":"9897212168"},{"Name":"Mainuddin","so":"Nasruddin","Address":"Karim Nagar","Phone":"7669832964"}],"retiredGovtSer":[{"Name":"Munna Sharif","so":"Chidda Khan","Address":"Karim Nagar","Phone":"9997783824"}],"neighbourPolling":[{"Name":"Dr. Rashed","so":"Hafiz Ullah","Address":"Karim Nagar Gali No.10","Phone":"8307222523"},{"Name":"Mohd. Irshad","so":"Samshuddin","Address":"Karim Nagar Gali No.10","Phone":"9837640307"},{"Name":"Mohd.arif","so":"Mohd. Sahil","Address":"Karim Nagar Gali No.10","Phone":"9368936816"},{"Name":"Dr.vaseem","so":"Abdul Maseed","Address":"Karim Nagar Gali No.10","Phone":"9359797266"},{"Name":"Mohd. Danish","so":"Riyazuddin","Address":"Karim Nagar Gali No.10","Phone":"9359797966"}],"armsLicenseHolder":[{"Name":"Mohd.asif","so":"Abdul Raheem","Address":"128/6 Karim Nagar","Phone":"9368440528","weapon":"Nil"},{"Name":"Aas Mohd","so":"Maqbool Ahamad","Address":"529/18 Karim Nagar","Phone":"9368863355","weapon":"Nil"},{"Name":"Mohd.irfan","so":"Sirajuddin","Address":"44/2 Karim Nagar","Phone":"9897474385","weapon":"Nil"},{"Name":"Abdul Basid","so":"Basir Ahmad","Address":"941/9 Karim Nagar","Phone":"8445623636","weapon":"Nil"},{"Name":"Shamim","so":"Abdul Hamid","Address":"Gali No.11 Karim Nagar","Phone":"9359912623","weapon":"Nil"}],"chowkidar":[{"Name":"Nil ","so":" Nil ","Address":"Nil","Phone":"Nil"}],"councellor":[{"Name":"Shehnaaz  ","2Wo":"Shakeel chawla","Address":"Gali No.10 Karim Nagar","Phone":"9897212168 "}],"historySheeter":[{"Name":"Nil","so":"Nil","Address":"Nil","Status":"Nil","Phone":"Nil"}],"convictedCriminals":[{"Name":"Nil","so":"Nil","Status":"Nil","4Address":"Nil"}],"crimes5Yrs":[{"Name":"Shavez","so":"Salauddin","crimeno":"266/14","Section":"302,452,354,307 IPC","Address":"Karim Nagar P/S Nauchandi"},{"Name":"Salauddin","so":"Saddik","crimeno":"266/14","Section":"302,452,354,307 IPC","Address":"Karim Nagar P/S Nauchandi"}],"electionCrimes":[{"Name":"Nil","so":"Nil","crimeno":"Nil ","Section":"Nil","Address":"Nil"}],"politician":[{"Name":"Nil","so":"Nil","Address":"Nil","Phone":"Nil"}],"boundDownUnder":"Nil","vulnerabilityDetails":"General","warrantedCriminals":[{"Name":"Nil","so":"Nil","Address":"Nil","Phone":"Nil"}],"condition":"Good"},{"stationID":"NC-18","stationName":"Mothersa Arabia Kasimiya Gali No.10 Karim Nagar (Meerut)","latitude":"28.95730","longitude":" 77.72135","polingCenterPhoto":"/img/mediPanchayat.png","routes":"/img/3.png","collectionPoint":"/img/3.png","population":"Nil","voters":"1565","villageMohalla":"Gali No.10 Karim Nagar Meerut","path":"#/menu/tab/medicalDetails","respectedPpl":[{"Name":"Nayim","so":"Sayid","Address":"396/12 Dhawai Nagar","Phone":"9997769179"},{"Name":"Meherbaan","so":"Rafiq","Address":"97/13 Dhawai Nagar","Phone":"9897690323"},{"Name":"Aas Mohd.","so":"Rafiq","Address":"97/13 Dhawai Nagar","Phone":"8881710797"},{"Name":"Alim","so":"Mohd. Salim","Address":"57/12 Dhawai Nagar","Phone":"7520972383"},{"Name":"Gulfaam","so":"Famunuddin","Address":"329/12 Dhawai Nagar","Phone":"9837985661"}],"retiredGovtSer":[{"Name":"Haji Mohd. Illayaz","so":"Nawab Ali","Address":"423/14 Dhawai Nagar","Phone":"9410036755"},{"Name":"Abdul Karim","so":"Mohd. Hanif","Address":"426/4 Dhawai Nagar","Phone":"9368004009"}],"neighbourPolling":[{"Name":"Haji Mohd. illiayaz","so":"Nawab Ali","Address":"423/14 Dhawai Nagar","Phone":"9410036755"},{"Name":"Abdul Karim","so":"Mohd. Hanif","Address":"426/4 Dhawai Nagar","Phone":"9368004009"}],"armsLicenseHolder":[{"Name":"Israd","so":"Babukhan","Address":"419/14 Karim Nagar","Phone":"9451786486","weapon":"Nil"},{"Name":"Mohd.ayur","so":"Illiyaaz","Address":"755/14 Karim Nagar","Phone":"121270302","weapon":"Nil"},{"Name":"Nasruddin","so":"Bundu Khan","Address":"665/14 Karim Nagar","Phone":"1212704275","weapon":"Nil"},{"Name":"Mohd. Najar","so":"Yasim","Address":"708/14 Karim Nagar","Phone":"9012091918","weapon":"Nil"},{"Name":"Fasim","so":"Islamuddin Ansari","Address":"411/13 Karim Nagar","Phone":"9058723241","weapon":"Nil"}],"chowkidar":[{"Name":"Nil ","so":" Nil ","Address":"Nil","Phone":"Nil"}],"councellor":[{"Name":"Shehnaaz  ","2Wo":"Shakeel chawla","Address":"Gali No.10 Karim Nagar","Phone":"9897212168 "}],"historySheeter":[{"Name":"Mohsin","so":"Massiullah","Address":"Gali No.8 Dhawai Nagar Meerut","Status":"Nil","Phone":"Nil"},{"Name":"Zahir Uddin","so":"Alangir","Address":"Gali No.12 Dhawai Nagar Meerut","Status":"Nil","Phone":"Nil"},{"Name":"Nohsaad","so":"Islammudin","Address":"Gali No.4 Dhawai Nagar Meerut","Status":"Nil","Phone":"Nil"},{"Name":"Mahtaab","so":"Rafiq","Address":"Dhawai Nagar","Status":"Nil","Phone":"Nil"},{"Name":"Aas Mohd./Afsar","so":"Zamiruddin","Address":"Nil","Status":"Nil","Phone":"Nil"}],"convictedCriminals":[{"Name":"Nil","so":"Nil","Status":"Nil","4Address":"Nil"}],"crimes5Yrs":[{"Name":"Moorsaleem","so":"Sahiuddin","crimeno":"314/15","Section":"376,313,506 IPC","Address":"Gali No.7 ansaar Block Karim Nagar P/S Nauchandi"}],"electionCrimes":[{"Name":"Nil","so":"Nil","crimeno":"Nil ","Section":"Nil","Address":"Nil"}],"politician":[{"Name":"Nil","so":"Nil","Address":"Nil","Phone":"Nil"}],"boundDownUnder":"Nil","vulnerabilityDetails":"General","warrantedCriminals":[{"Name":"Nil","so":"Nil","Address":"Nil","Phone":"Nil"}],"condition":"Good"},{"stationID":"NC-19","stationName":"Bhartiya Siksha Sansthan Jn. High School Nauchandi Ground Meerut","latitude":" 28.96641","longitude":"  77.71765","polingCenterPhoto":"/img/mediPanchayat.png","routes":"/img/3.png","collectionPoint":"/img/3.png","population":"Nil","voters":"1107","villageMohalla":"Nauchandi Ground Meerut","path":"#/menu/tab/medicalDetails","respectedPpl":[{"Name":"Kailash Chand Sharma","so":"Lt.ram Deen Sharma","Address":"Durga Nagar","Phone":"8439014336"},{"Name":"Raghuveer Singh","so":"Ratan Lal","Address":"Purvi Kalyan Nagar","Phone":"9258160524"},{"Name":"Kailash Chand Gupta","so":"Nand Kishor","Address":"Rajendra Nagar","Phone":"9808151382"},{"Name":"Dinesh Kumar Singhal","so":"Lt.chandrabhan Singh","Address":"Nil","Phone":"9012258530"},{"Name":"Amit","so":"Lt.raja Ram Pal Singh","Address":"Purvi Kalyan Nagar","Phone":"9927872503"}],"retiredGovtSer":[{"Name":"Kailash Chand Gupta","so":"Nil","Address":"Nil","Phone":"9808151382"},{"Name":"Zille Singh Dhakka","so":"Nil","Address":"Nil","Phone":"9997540917"}],"neighbourPolling":[{"Name":"Kailash Chand Sharma","so":"Lt. Ram Deen Sharma(Pujari Durga Mandir)","Address":"Nil","Phone":"8439014336"},{"Name":"Anil Kumar Gaud","so":"Satya Prakash Sharma","Address":"Nil","Phone":"9897263204"},{"Name":"Anupam Singh","so":"Ravindra Prakash","Address":"Purvi Kalyan Nagar","Phone":"9412206362"},{"Name":"Rajiv ","so":"Lt. Rhola Ram Sharma","Address":"Nil","Phone":"9045948828"},{"Name":"Amit Kumar ","so":"Raja Ram","Address":"Nil","Phone":"9927872503"}],"armsLicenseHolder":[{"Name":"Vijay Prakash Sharma","so":"Ram Dutt Sharma","Address":"213 Rajendra Nagar","Phone":"9811086213","weapon":"Nil"},{"Name":"Sanjiv Bhardwaj","so":"Dharam Pal","Address":"33,34 Rajendra Nagar","Phone":"9410455505","weapon":"Nil"},{"Name":"Brijesh Kumar","so":"Harvansh Tyagi","Address":"102 Rajendra Nagar","Phone":"9927134334","weapon":"Nil"},{"Name":"Dhananjay Vats","so":"Dr. Jawar Lal","Address":"18/4 Rajendra Nagar","Phone":"9897203614","weapon":"Nil"},{"Name":"Anil Kumar Gaud","so":"Satya Prakash Sharma","Address":"176 Rajendra Nagar","Phone":"9897263204","weapon":"Nil"}],"chowkidar":[{"Name":"Nil ","so":" Nil ","Address":"Nil","Phone":"Nil"}],"councellor":[{"Name":"Rakesh Sharma   ","so":"Nil","Address":"Preet Vihar","Phone":"9359607110 "}],"historySheeter":[{"Name":"Amit Bhardwaj","so":"Chandra Bhusan","Address":"1/9 Ram Bagh Colony P/S Nauchandi Meerut","Status":"Nil","Phone":"Nil"}],"convictedCriminals":[{"Name":"Nil","so":"Nil","Status":"Nil","4Address":"Nil"}],"crimes5Yrs":[{"Name":"Pradeep/ Deepak/ Kallu","so":"Dayaram","crimeno":"591/12","Section":"392/411","Address":"Jai Jai Colony P/s Uttam Nagar New Delhi"},{"Name":"Ranjeet Singh","so":"Kulwant Singh","crimeno":"591/12","Section":"392/411","Address":"171/60 Vikas Puri P/s New Delhi"},{"Name":"Afasar Jamiruddin","so":"Nil","crimeno":"169/13","Section":"394 Ipc","Address":"Zakir Colony Chamdapet P/s Nisadi Gate Meerut"},{"Name":"Shahid","so":"Nil","crimeno":"169/13","Section":"394 Ipc","Address":"Zakir Colony Chamdapet P/s Nisadi Gate Meerut"},{"Name":"Fayeem","so":"Shafiq Ahmad","crimeno":"169/13","Section":"394 Ipc","Address":"389/12 Shashtri Nagar P/s Nauchandi Meerut"},{"Name":"Shafiq","so":"Wahid","crimeno":"169/13","Section":"394 Ipc","Address":"Mehmood Nagar P/s Kotwali Meeurt"}],"electionCrimes":[{"Name":"Nil","so":"Nil","crimeno":"Nil ","Section":"Nil","Address":"Nil"}],"politician":[{"Name":"Nil","so":"Nil","Address":"Nil","Phone":"Nil"}],"boundDownUnder":"Nil","vulnerabilityDetails":"General","warrantedCriminals":[{"Name":"Nil","so":"Nil","Address":"Nil","Phone":"Nil"}],"condition":"Good"},{"stationID":"NC-20","stationName":"Nanak Chand Siksha Sadan Jn. High School Nikat Nauchandi Ground Meerut","latitude":" 28.96741","longitude":"  77.71479","polingCenterPhoto":"/img/mediPanchayat.png","routes":"/img/3.png","collectionPoint":"/img/3.png","population":"Nil","voters":"2191","villageMohalla":"Nauchandi Ground Meerut","path":"#/menu/tab/medicalDetails","respectedPpl":[{"Name":"Rakesh Sharma (Parshad)","so":"Nil","Address":"Nil","Phone":"9359607110"},{"Name":"Pradeep Kumar Jain","so":"Nil","Address":"Rajendra Nagar","Phone":"9259784578"},{"Name":"Rajendra Singh","so":"Gokal Chand","Address":"Rajendra Nagar","Phone":"7520053021"},{"Name":"RajKumar Sharma","so":"Nil","Address":"Nil","Phone":"9457128680"},{"Name":"Vimal Kumar sharma","so":"Nil","Address":"Nil","Phone":"9837263163"}],"retiredGovtSer":[{"Name":"Veer Singh Nagar","so":"Lt. Chandan Singh","Address":"Nil","Phone":"9411487650"},{"Name":"Subash Sharma","so":"Nil","Address":"Nil","Phone":"9997340340"},{"Name":"Arvind Sharma","so":"Nil","Address":"Nil","Phone":"9837192541"},{"Name":"Virendra Kumar sharma","so":"Nil","Address":"Nil","Phone":"9045044904"},{"Name":"Vinay Bhardwaj","so":"Nil","Address":"Nil","Phone":"9410030698"}],"neighbourPolling":[{"Name":"Om Prakash","so":"Chote Lal","Address":"Rajendra Nagar","Phone":"9837417777"},{"Name":"Vijay Patel","so":"Ram Chand","Address":"Rajendra Nagar","Phone":"9058689990"},{"Name":"Ravti Sharan Sharma","so":"daal Chand sharma","Address":"Rajendra Nagar","Phone":"9837140626"},{"Name":"Anil Kumar Gaud","so":"Lt. Satya Kumar Sharma","Address":"Nil","Phone":"9897263204"},{"Name":"Suraj Bhaan","so":"Nathu Ram","Address":"Purvi Kalyan Nagar","Phone":"9219798329"}],"armsLicenseHolder":[{"Name":"Pradeep Dixit","so":"Narendra Nath","Address":"86 Rajendra Nagar","Phone":"9897203634","weapon":"Nil"},{"Name":"Vijay Kumar","so":"Gauri Shankar","Address":"146 Rajendra Nagar","Phone":"9258769783","weapon":"Nil"},{"Name":"Vikas","so":"Ravindra Kumar","Address":"138 Rajendra Nagar","Phone":"9917618677","weapon":"Nil"},{"Name":"Dharam Pal","so":"Shiv Charan Sharma","Address":"33/34 Rajendra Nagar","Phone":"9411619177","weapon":"Nil"},{"Name":"Rajiv Gupta","so":"Ram Kishan Gupta","Address":"199/ Rajendra Nagar","Phone":"9410889898","weapon":"Nil"}],"chowkidar":[{"Name":"Nil ","so":" Nil ","Address":"Nil","Phone":"Nil"}],"councellor":[{"Name":"Rakesh Sharma   ","so":"Nil","Address":"Preet Vihar","Phone":"9359607110 "}],"historySheeter":[{"Name":"Nil","so":"Nil","Address":"Nil","Status":"Nil","Phone":"Nil"}],"convictedCriminals":[{"Name":"Nil","so":"Nil","Status":"Nil","4Address":"Nil"}],"crimes5Yrs":[{"Name":"Nil","so":"Nil","crimeno":"Nil","Section":"Nil","Address":"Nil"}],"electionCrimes":[{"Name":"Nil","so":"Nil","crimeno":"Nil ","Section":"Nil","Address":"Nil"}],"politician":[{"Name":"Nil","so":"Nil","Address":"Nil","Phone":"Nil"}],"boundDownUnder":"Nil","vulnerabilityDetails":"General","warrantedCriminals":[{"Name":"Nil","so":"Nil","Address":"Nil","Phone":"Nil"}],"condition":"Good"},{"stationID":"NC-21","stationName":"Karaylya Sambhavya Parivahan Meerut Hapur Road","latitude":"  28.95315","longitude":" 77.72266","polingCenterPhoto":"/img/mediPanchayat.png","routes":"/img/3.png","collectionPoint":"/img/3.png","population":"Nil","voters":"4940","villageMohalla":"Karyalaya Sambhagya Parivahan Hapur Road Meerut","path":"#/menu/tab/medicalDetails","respectedPpl":[{"Name":"Ch. Sartaj (advocate)","so":"Abdul Rajjak","Address":"539/13 Shastri Nagar Meerut","Phone":"9417082732"},{"Name":"Saleem","so":"Jamaluddin","Address":"470/13 Shastri Nagar Meerut","Phone":"9837020830"},{"Name":"Naseem Alam","so":"Nasruddin","Address":"407/12 Shastri Nagar Meerut","Phone":"9259888786"},{"Name":"Abdul Kayub","so":"Abdul Habib","Address":"563/13 Shastri Nagar Meerut","Phone":"9837089124"},{"Name":"Mohd. Aslam","so":"Lt.islamuddin","Address":"466/13 Shastri Nagar Meerut","Phone":"9927256460"}],"retiredGovtSer":[{"Name":"Rishikant Verma","so":"Nil","Address":"496/13 Shastri Nagar Meerut","Phone":"8171010988"},{"Name":"Baburam","so":"Hari Om","Address":"497/13 Shastri Nagar Meerut","Phone":"7533864769"},{"Name":"Jitendra Singh","so":"Dhan Singh","Address":"498/13 Shastri Nagar Meerut","Phone":"9758919121"},{"Name":"Shankar Tith Swami","so":"Nil","Address":"499/13 Shastri Nagar Meerut","Phone":"9760123985"}],"neighbourPolling":[{"Name":"Ch.sartaj Advocate","so":"Nil","Address":"539/13 Shastri Nagar Meerut","Phone":"9412082732"},{"Name":"Alim","so":"Jamaluddin","Address":"B-12/109 Shastri Nagar Meerut","Phone":"9319684156"},{"Name":"Shamshad Ahmad","so":"Raheem","Address":"480/13 Shastri Nagar Meerut","Phone":"9897567276"},{"Name":"Rajeev Aggarwal","so":"Daal Chand","Address":"55/13 Shastr Nagar Meerut","Phone":"8449101325"},{"Name":"Saleem","so":"Jaimaruddin","Address":"470/13 Shastri Nagar Meerut","Phone":"9837020830"}],"armsLicenseHolder":[{"Name":"Rahat","so":"Mohd.ahmad","Address":"604/13 Shastri Nagar Meerut","Phone":"9359931445","weapon":"Nil"},{"Name":"Dr.tarik","so":"Ilfaz","Address":"603/13 Shastri Nagar Meerut","Phone":"8266001184","weapon":"Nil"},{"Name":"Shaabufta","2Wo":" Farukh Rizvi","Address":"517/13 Shastri Nagar Meerut","Phone":"7417817363","weapon":"Nil"},{"Name":"Puran Chand","so":"Karm Chand","Address":"524/13 Shastri Nagar Meerut","Phone":"9412705778","weapon":"Nil"}],"chowkidar":[{"Name":"Nil ","so":" Nil ","Address":"Nil","Phone":"Nil"}],"councellor":[{"Name":"Pankaj Katera","so":"Nil","Address":"K-237 Shastri Nagar","Phone":"9897648842"}],"historySheeter":[{"Name":"Nil","so":"Nil","Address":"Nil","Status":"Nil","Phone":"Nil"}],"convictedCriminals":[{"Name":"Nil","so":"Nil","Status":"Nil","4Address":"Nil"}],"crimes5Yrs":[{"Name":"Nil","so":"Nil","crimeno":"Nil","Section":"Nil","Address":"Nil"}],"electionCrimes":[{"Name":"Nil","so":"Nil","crimeno":"Nil ","Section":"Nil","Address":"Nil"}],"politician":[{"Name":"Nil","so":"Nil","Address":"Nil","Phone":"Nil"}],"boundDownUnder":"Nil","vulnerabilityDetails":"Hyper Sensitive","warrantedCriminals":[{"Name":"Nil","so":"Nil","Address":"Nil","Phone":"Nil"}],"condition":"Good"},{"stationID":"NC-22","stationName":"Rifayaam Jn. High School Karim nagar meerut","latitude":"28.95728","longitude":"77.72131","polingCenterPhoto":"/img/mediPanchayat.png","routes":"/img/3.png","collectionPoint":"/img/3.png","population":"Nil","voters":"3095","villageMohalla":"Karim Nagar Meerut","path":"#/menu/tab/medicalDetails","respectedPpl":[{"Name":"Altaf","so":"Nasruddin","Address":"103/11 Dhawai Nagar","Phone":"7520138963"},{"Name":"Rafiq","so":"Abdul Hamid","Address":"Dhawai Nagar","Phone":"9526101989"},{"Name":"Khachedu","so":"Rahman","Address":"226/9 Dhawai Nagar","Phone":"9897214425"},{"Name":"Gulzar","so":"Sahid","Address":"919/9 Dhawai Nagar","Phone":"9597728931"},{"Name":"Imraan","so":"Karim","Address":"193/6 Dhawai Nagar","Phone":"9359452031"}],"retiredGovtSer":[{"Name":"Nil","so":"Nil","Address":"Nil","Phone":"Nil"}],"neighbourPolling":[{"Name":"Mohd. Rafiq Ansari","so":"Mohd. Yasin","Address":"Karim Nagar","Phone":"9412705757"},{"Name":"Shaqeel Ahmad","so":"Maherbaan","Address":"Gali No.17 Dhawai Nagar","Phone":"8057209425"},{"Name":"Mohd. Afsar Khan","so":"Mehrajuddin","Address":"Gali No.17 Dhawai Nagar","Phone":"9760729662"},{"Name":"Nisar","so":"Mohd. Aqimuddin","Address":"203 Gali No.8 Dhawai Nagar","Phone":"9358615284"},{"Name":"Mohd.iqbal","so":"Harun","Address":"959/9 Dhawai Nagar","Phone":"9027245687"}],"armsLicenseHolder":[{"Name":"Shabaj","so":"Sartaj","Address":"Karim Nagar","Phone":"9897872786","weapon":"Nil"},{"Name":"Dr. Mohd Ayub","so":"Iliyaaz","Address":"755/14 Karim Nagar","Phone":"1212703021","weapon":"Nil"},{"Name":"Saleem","so":"Rajjak","Address":"Gali No.3 Ansar Block Karim Nagar","Phone":"9997532982","weapon":"Nil"},{"Name":"Mohd Najar","so":"Yasin","Address":"708/14 Karim Nagar","Phone":"9012091908","weapon":"Nil"},{"Name":"Faruk","so":"Najar","Address":"937/10 Karim Nagar","Phone":"9837347528","weapon":"Nil"}],"chowkidar":[{"Name":"Nil ","so":" Nil ","Address":"Nil","Phone":"Nil"}],"councellor":[{"Name":"Shanaj","2Wo":"Shaakeel Chawla","Address":"Gali No.10 ","Phone":"9897212168"}],"historySheeter":[{"Name":"Mehmood/akash/julfi","so":"Shabuddin","Address":"Saddik Building Karim Nagar P/s Nauchandi Meerut","Status":"Nil","Phone":"Nil"},{"Name":"Shakeel/tota","so":"Kutubuddin","Address":"62 Karim Nagar Meerut","Status":"Nil","Phone":"Nil"},{"Name":"Yasin/muru","so":"Mohd.hanif","Address":"Gali No.8 Dhawai Nagar Meerut","Status":"Nil","Phone":"Nil"},{"Name":"Islamuddin","so":"Shakeel","Address":"343/12 Dhawai Nagar","Status":"Nil","Phone":"Nil"},{"Name":"Iliyaaz","so":"Rafiq","Address":"Gali No.17 Dhawai Nagar Meerut B Class","Status":"Nil","Phone":"Nil"}],"convictedCriminals":[{"Name":"Nil","so":"Nil","Status":"Nil","4Address":"Nil"}],"crimes5Yrs":[{"Name":"Nil","so":"Nil","crimeno":"Nil","Section":"Nil","Address":"Nil"}],"electionCrimes":[{"Name":"Nil","so":"Nil","crimeno":"Nil ","Section":"Nil","Address":"Nil"}],"politician":[{"Name":"Nil","so":"Nil","Address":"Nil","Phone":"Nil"}],"boundDownUnder":"Nil","vulnerabilityDetails":"Sensitive","warrantedCriminals":[{"Name":"Nil","so":"Nil","Address":"Nil","Phone":"Nil"}],"condition":"Good"},{"stationID":"NC-23","stationName":"Rafeeque Mamorial public Jn. High School Manjur Nagar","latitude":" 28.96071","longitude":" 77.72270","polingCenterPhoto":"/img/mediPanchayat.png","routes":"/img/3.png","collectionPoint":"/img/3.png","population":"Nil","voters":"2026","villageMohalla":"Manjur Nagar Meerut","path":"#/menu/tab/medicalDetails","respectedPpl":[{"Name":"Mohd.abbas","so":"Dr.iqbal","Address":"Abbas Police 710/1 Zaidifarm","Phone":"8410506763"},{"Name":"Riyazul Hassan","so":"Jaffal Hussain","Address":"Zaidifarm","Phone":"9927162365"},{"Name":"Yusof","so":"Kesar Ali","Address":"Zaidifarm Manjoor Nagar","Phone":"Nil"},{"Name":"Nafees","so":"Mohd Rafeeq","Address":"Rafeeq School Zaidifarm School","Phone":"1212704461"},{"Name":"Samshuddin","so":"Waseer","Address":"1064/4 Zaidifarm","Phone":"9319454681"}],"retiredGovtSer":[{"Name":"Sahajuddin","so":"Mohd.waseer","Address":"643/4 Zaidifarm","Phone":"9319454681"},{"Name":"Shabnam","so":"D/o Shaan Khan","Address":"544/4 Zaidifarm","Phone":"9897730945"},{"Name":"Faizanuddin","so":"Sahabuddin","Address":"642/4 Zaidifarm","Phone":"Nil"},{"Name":"Shamshaad","so":"Kesar Ali","Address":"641/4 Zaidifarm","Phone":"Nil"}],"neighbourPolling":[{"Name":"Noor Mohd.","so":"Mohd. Naseer","Address":"703/2 ZaidiFarm","Phone":"8410580397"},{"Name":"Jilal Haidar","so":"Habir Hussain","Address":"704/2 ZaidiFarm","Phone":"8810037201"},{"Name":"Toshir Haidar Saifi","so":"Mohd.Nanwa","Address":"703/2 ZaidiFarm","Phone":"9720291114"},{"Name":"Rahees","so":"Hanif","Address":"Zaidifarm","Phone":"9358701087"},{"Name":"Mohd.Nafees","so":"Rafeeq","Address":"Zaidifarm","Phone":"Nil"}],"armsLicenseHolder":[{"Name":"Mohd. Azam","so":"Aslam","Address":"Manjoor Nagar","Phone":"9837400786","weapon":"Nil"},{"Name":"Sansaad Khan","so":"Riyaaz Khan","Address":"294 Manjoor Nagar","Phone":"1212516306","weapon":"Nil"},{"Name":"Gaffar Saifi","so":"Rasheed","Address":"Manjoor Nagar Zaidifarm","Phone":"9319304398","weapon":"Nil"},{"Name":"Shagir","so":"Chunna Khan","Address":"Manjoor Nagar","Phone":"9837290501","weapon":"Nil"},{"Name":"Jamil","so":"Abdul Najir","Address":"57-a Manjoor Nagar","Phone":"9358401698","weapon":"Nil"}],"chowkidar":[{"Name":"Nil","so":"Nil","Address":"Nil","Phone":"Nil"}],"councellor":[{"Name":"Ikran Saifi","so":"Imamuddin","Address":"Zaidi Society","Phone":"9058116644"}],"historySheeter":[{"Name":"Sharif/Sapan","so":"Sami","Address":"ZaidiFarm Meerut","Status":"Nil","Phone":"Nil"},{"Name":"Mahendra ","so":"Shishodi","Address":"Harijan ZaidiFarm","Status":"Nil","Phone":"Nil"},{"Name":"Jakir/Dabbu","so":"Abdul hamid","Address":"ZaidiFarm","Status":"Nil","Phone":"Nil"},{"Name":"Samshu/Samshuddin","so":"Rafeeq","Address":"Zaidifarm","Status":"Nil","Phone":"Nil"},{"Name":"Rafeeq Ansari","so":"yamin","Address":"ZaidiFarm Meerut","Status":"Nil","Phone":"Nil"},{"Name":"Sayeed","so":"Mohd.Shami","Address":"17 Zaidi Farm meerut","Status":"Nil","Phone":"Nil"},{"Name":"munnavar","so":"Fayaz","Address":"25 ZaidiFarm","Status":"Nil","Phone":"Nil"},{"Name":"Israkt","so":"Ayaz","Address":"25 ZaidiFarm","Status":"Nil","Phone":"Nil"},{"Name":"Mateen","so":"Istiyak","Address":"380/1 Manjoor Nagar Zaidifarm","Status":"Nil","Phone":"Nil"}],"convictedCriminals":[{"Name":"Nil","so":"Nil","Status":"Nil","4Address":"Nil"}],"crimes5Yrs":[{"Name":"Aas Mohd.","so":"Babu Khan","crimeno":"603/12","Section":"392,411 IPC","Address":"Gali no.3 Khatta Road Thana Bharampuri"},{"Name":"Raseed","so":"Aas Mohd.","crimeno":"603/12","Section":"392,411 IPC","Address":"Gali no.3 Khatta Road Thana Bharampuri"}],"electionCrimes":[{"Name":"Nil","so":"Nil","crimeno":"Nil ","Section":"Nil","Address":"Nil"}],"politician":[{"Name":"Nil","so":"Nil","Address":"Nil","Phone":"Nil"}],"boundDownUnder":"Nil","vulnerabilityDetails":"Sensitive","warrantedCriminals":[{"Name":"Nil","so":"Nil","Address":"Nil","Phone":"Nil"}],"condition":"Good"},{"stationID":"NC-24","stationName":"Aftab Nisha Jn. High School JaidiFarm (Meerut)","latitude":"28.96027","longitude":"77.71855","polingCenterPhoto":"/img/mediPanchayat.png","routes":"/img/3.png","collectionPoint":"/img/3.png","population":"Nil","voters":"1323","villageMohalla":"Zaidi Farm","path":"#/menu/tab/medicalDetails","respectedPpl":[{"Name":"Abdul Wazid","so":"Haji Mohd. Aslam","Address":"Manjoor Nagar Zaidi farm","Phone":"9219490677"},{"Name":"Mohd. Mustakeen","so":"Mohd. Ayub","Address":"Manjoor Nagar Zaidi farm","Phone":"9319455117"},{"Name":"Sattar","so":"Abdul Rehmaan","Address":"385/3 Manjoor Nagar Zaidifarm","Phone":"9358699490"},{"Name":"Nayim uddin","so":"Majuddin","Address":"385/3 Manjoor Nagar Zaidifarm","Phone":"8126190335"},{"Name":"Shakeel Ahmad","so":"Azgar","Address":"385/3 Manjoor Nagar Zaidifarm","Phone":"8430749027"}],"retiredGovtSer":[{"Name":"Mujillt","so":"Ahmad Hussain Jaidi","Address":"Nil","Phone":"9837000724"}],"neighbourPolling":[{"Name":"Mohd. Hassim","so":"Mulana Zamaluddin","Address":"Nil","Phone":"9897786186"},{"Name":"Irshad Malik","so":"Noor Ahmad","Address":"Nil","Phone":"9411812235"},{"Name":"Nanhemai Jaidi","so":"Musta Hasan Zaidi","Address":"Nil","Phone":"9318890750"},{"Name":"Haji Shafeeq","so":"Haji Channa","Address":"Nil","Phone":"Nil"}],"armsLicenseHolder":[{"Name":"Faizal","so":"Afaq Ahmad","Address":"521 Zaidifarm","Phone":"9410061605","weapon":"Nil"},{"Name":"Najam Zia Siddiqui","so":"Rizwanulhaq","Address":"502 Zaidifarm","Phone":"9837117634","weapon":"Nil"},{"Name":"Mohd. Ashab","so":"Mahmood Ali","Address":"540 Zaidifarm Manjoor Nagar","Phone":"9837576706","weapon":"Nil"},{"Name":"Hasin Hadair","so":"Mohd. Anees","Address":"283/4 Zaidifarm","Phone":"9719968674","weapon":"Nil"},{"Name":"Gaffar","so":"Raseed","Address":"Zaidifarm","Phone":"9319304398","weapon":"Nil"}],"chowkidar":[{"Name":"Nil ","so":" Nil ","Address":"Nil","Phone":"Nil"}],"councellor":[{"Name":"Shanaz","2Wo":"Shakeel Chawla","Address":"Gali No.10 Karim Nagar Meerut","Phone":"9897212168"}],"historySheeter":[{"Name":"Nil","so":"Nil","Address":"Nil","Status":"Nil","Phone":"Nil"}],"convictedCriminals":[{"Name":"Nil","so":"Nil","Status":"Nil","4Address":"Nil"}],"crimes5Yrs":[{"Name":"Firoz","so":"Shareef","crimeno":"358/12","Section":"147,148,307,323,504,506 Ipc","Address":"Zaidifarm P/s Nauchandi"},{"Name":"Anees","so":"Rafeeq","crimeno":"358/12","Section":"147,148,307,323,504,506 Ipc","Address":"Zaidifarm P/s Nauchandi"},{"Name":"Kallu","so":"Rafeeq","crimeno":"358/12","Section":"147,148,307,323,504,506 Ipc","Address":"Zaidifarm P/s Nauchandi"},{"Name":"Bhoora","so":"Saneef","crimeno":"358/12","Section":"147,148,307,323,504,506 Ipc","Address":"Zaidifarm P/s Nauchandi"},{"Name":"Zillu","so":"Saneef","crimeno":"358/12","Section":"147,148,307,323,504,506 Ipc","Address":"Zaidifarm P/s Nauchandi"},{"Name":"Tillu","so":"Saneef","crimeno":"358/12","Section":"147,148,307,323,504,506 Ipc","Address":"Zaidifarm P/s Nauchandi"}],"electionCrimes":[{"Name":"Nil","so":"Nil","crimeno":"Nil","Section":"Nil","Address":"Nil"}],"politician":[{"Name":"Nil","so":"Nil","Address":"Nil","Phone":"Nil"}],"boundDownUnder":"Nil","vulnerabilityDetails":"General","warrantedCriminals":[{"Name":"Nil","so":"Nil","Address":"Nil","Phone":"Nil"}],"condition":"Good"},{"stationID":"NC-25","stationName":"Muktjaa Jaidi Basic Prathmic Vidhyala Zaidi Nagar Chowk","latitude":" 28.96105","longitude":"77.71836","polingCenterPhoto":"/img/mediPanchayat.png","routes":"/img/3.png","collectionPoint":"/img/3.png","population":"Nil","voters":"1123","villageMohalla":"Zaidi Nagar Chowk","path":"#/menu/tab/medicalDetails","respectedPpl":[{"Name":"Chand","so":"Asif ","Address":"Zaidifarm","Phone":"9054279973"},{"Name":"Shoaib","so":"kuwar Abbas","Address":"Zaidifarm","Phone":"9368508699"},{"Name":"Noshad Ahmad","so":"Haji Aseem","Address":"Zaidifarm","Phone":"9368055850"},{"Name":"Maksood Ali","so":"Yusuf","Address":"Zaidifarm","Phone":"8958579918"},{"Name":"Nazir gul Hassan","so":"Aziz","Address":"Zaidifarm","Phone":"9997590316"}],"retiredGovtSer":[{"Name":"Nil","so":"Nil","Address":"Nil","Phone":"Nil"}],"neighbourPolling":[{"Name":"Chand","so":"Asif","Address":"Zaidifarm","Phone":"9054279973"},{"Name":"Shoaib","so":"Kuwar Abbas","Address":"Zaidifarm","Phone":"9368508699"},{"Name":"Noshad Ahmad","so":"Haji Aseem","Address":"Zaidifarm","Phone":"9368055850"},{"Name":"Sama","so":"W/o Asraf","Address":"Zaidifarm","Phone":"9027394633"},{"Name":"Nazir Gul Hassan","so":"Aziz","Address":"Zaidifarm","Phone":"9997590316"}],"armsLicenseHolder":[{"Name":"Kuwar Pais Nawaz","so":"Faizali","Address":"614/2 Jaidi Farm Manjoor Nagar","Phone":"1212701797","weapon":"Nil"},{"Name":"Zamil","so":"Mazeed","Address":"57 A Manjoor Nagar Zaidifarm","Phone":"9358401696","weapon":"Nil"},{"Name":"Riyazil Hussain","so":"Mohd.awaz","Address":"270 Manjoor Nagar Zaidifarm","Phone":"9412546818","weapon":"Nil"},{"Name":"Ali Mustiya Hasan Zaidi","so":"H.s Zaidi","Address":"107 Manjoor Nagar Zaidifarm","Phone":"Nil","weapon":"Nil"},{"Name":"Azhar Yasin","so":"Yasin","Address":"3 Zaidifarm","Phone":"9897031786","weapon":"Nil"}],"chowkidar":[{"Name":"Nil ","so":" Nil ","Address":"Nil","Phone":"Nil"}],"councellor":[{"Name":"Iqram Saifi","so":"Imam Uddin","Address":"Zadid Society","Phone":"9058116644"}],"historySheeter":[{"Name":"Nil","so":"Nil","Address":"Nil","Status":"Nil","Phone":"Nil"}],"convictedCriminals":[{"Name":"Nil","so":"Nil","Status":"Nil","4Address":"Nil"}],"crimes5Yrs":[{"Name":"Pravesh","so":"Bobby Pahelwan","crimeno":"464/12","Section":"376,366,363,386,120 B","Address":"Gali No.3 Zakir Colony P/s Lisadi Gate Meerut"},{"Name":"Firoz","so":"Bobby Pahelwan","crimeno":"464/12","Section":"376,366,363,386,120 B","Address":"Gali No.3 Zakir Colony P/s Lisadi Gate Meerut"},{"Name":"Saleem","so":"Iqbaal","crimeno":"464/12","Section":"376,366,363,386,120 B","Address":"1140 Saurabh Gate Sirahibhaleem P/s Kotwali Meerut"},{"Name":"Tahir","so":"Bhoore","crimeno":"464/12","Section":"376,366,363,386,120 B","Address":"Zakir Colony P/s Lisadi Gate Meerut"},{"Name":"Iqbaal","so":"Nil","crimeno":"331/16","Section":"147,323,504,506 Ipc","Address":"Zakir Colony P/s Lisadi Gate Meerut"},{"Name":"Farmaan","so":"Iqbaal","crimeno":"331/16","Section":"147,323,504,506 Ipc","Address":"Palheda P/s Pallavpuram"},{"Name":"Asif","so":"Iqbaal","crimeno":"331/16","Section":"147,323,504,506 Ipc","Address":"Palheda P/s Pallavpuram"},{"Name":"Amman","so":"Iqbaal","crimeno":"331/16","Section":"147,323,504,506 Ipc","Address":"Palheda P/s Pallavpuram"},{"Name":"Wasim","so":"Muneer","crimeno":"331/16","Section":"147,323,504,506 Ipc","Address":"Kotwali Meerut"}],"electionCrimes":[{"Name":"Nil","so":"Nil","crimeno":"Nil","Section":"Nil","Address":"Nil"}],"politician":[{"Name":"Nil","so":"Nil","Address":"Nil","Phone":"Nil"}],"boundDownUnder":"Nil","vulnerabilityDetails":"General","warrantedCriminals":[{"Name":"Nil","so":"Nil","Address":"Nil","Phone":"Nil"}],"condition":"Good"},{"stationID":"NC-26","stationName":"New Horrizan Public School Zaidi Society Meerut","latitude":"28.96119","longitude":"77.72383","polingCenterPhoto":"/img/mediPanchayat.png","routes":"/img/3.png","collectionPoint":"/img/3.png","population":"Nil","voters":"2980","villageMohalla":"Zaidi Society","path":"#/menu/tab/medicalDetails","respectedPpl":[{"Name":"Mohd Zamil","so":"Mohd. Aqir","Address":"777 Zaidi Nagar Society","Phone":"9253847017"},{"Name":"Khushid","so":"Naqir Haider","Address":"Zaidi Nagar Society","Phone":"9411817433"},{"Name":"Gulfaam","so":"Hasan Ulmah","Address":"774 Zaidi Society","Phone":"9368278435"},{"Name":"Dr.rizwaan","so":"Sayed Mahmood","Address":"Zaidi Nagar Society","Phone":"9358261816"},{"Name":"Irfaan","so":"Ameer Hasan","Address":"Zaidi Society","Phone":"9314469343"}],"retiredGovtSer":[{"Name":"Nil","so":"Nil","Address":"Nil","Phone":"Nil"}],"neighbourPolling":[{"Name":"Niwau Zauhra Zaidi","so":"Murtja Zaidi","Address":"Zaidi Society","Phone":"9368053050"},{"Name":"Zamil Ahmad","so":"Shahid","Address":"778 Zaidi Society","Phone":"8899199992"},{"Name":"Ansar Ali","so":"Mansooq","Address":"775/2 Zaidi Society","Phone":"9259866182"},{"Name":"Dr. Jawed","so":"Mohd. Jawed","Address":"775/1 Zaidi Society","Phone":"9397334050"},{"Name":"Ali Raja","so":"Saleem Raja","Address":"775/3 Zaidi Society","Phone":"8979636511"}],"armsLicenseHolder":[{"Name":"Sultan Salauuddin","so":"Allauddin","Address":"624 Zaidi Farm","Phone":"Nil","weapon":"Nil"},{"Name":"Jainav Rizvi","so":"S.a Rizvi","Address":"484 Zaidi Nagar","Phone":"9927286729","weapon":"Nil"},{"Name":"Murtja Chauhan","so":"Abdul Raseeq Khan","Address":"770/7 Zaidi Nagar Society","Phone":"9412202920","weapon":"Nil"},{"Name":"Irshad Ali","so":"Surat Ali","Address":"Zaidi Nagar Zaidi Society","Phone":"9897310931","weapon":"Nil"},{"Name":"Iqbal Ahmad","so":"Ayer Hasan","Address":"752 Zaidi Nagar Society","Phone":"9927105353","weapon":"Nil"}],"chowkidar":[{"Name":"Nil ","so":" Nil ","Address":"Nil","Phone":"Nil"}],"councellor":[{"Name":"Iqram Saifi","so":"Imam Uddin","Address":"Zadid Society","Phone":"9058116644"}],"historySheeter":[{"Name":"Nil","so":"Nil","Address":"Nil","Status":"Nil","Phone":"Nil"}],"convictedCriminals":[{"Name":"Nil","so":"Nil","Status":"Nil","4Address":"Nil"}],"crimes5Yrs":[{"Name":"Nil","so":"Nil","crimeno":"Nil","Section":"Nil","Address":"Nil"}],"electionCrimes":[{"Name":"Nil","so":"Nil","crimeno":"Nil","Section":"Nil","Address":"Nil"}],"politician":[{"Name":"Nil","so":"Nil","Address":"Nil","Phone":"Nil"}],"boundDownUnder":"Nil","vulnerabilityDetails":"General","warrantedCriminals":[{"Name":"Nil","so":"Nil","Address":"Nil","Phone":"Nil"}],"condition":"Good"},{"stationID":"NC-27","stationName":"Karayla Upawaz Ayukt Meerut Zone Naveen Nagar Sector 9 Shashtri Nagar","latitude":"28.95748","longitude":"77.72783","polingCenterPhoto":"/img/mediPanchayat.png","routes":"/img/3.png","collectionPoint":"/img/3.png","population":"Nil","voters":"5737","villageMohalla":"Sector 9 Shashtri Nagar Meerut","path":"#/menu/tab/medicalDetails","respectedPpl":[{"Name":"Vinay Kumar","so":"Lt. Phralad Rai","Address":"291/9 Shashtri Nagar","Phone":"121265532"},{"Name":"Rajendra Kumar","so":"Puran Chand Sharma","Address":"9 Shashtri Nagar","Phone":"9412835072"},{"Name":"Om Kar Pal","so":"Shiv Lal Pal","Address":"9 Shashtri Nagar","Phone":"9927167005"},{"Name":"Sachin Goyal","so":"Krishn Goyal","Address":"6a/9 Shashtri Nagar","Phone":"9897470994"},{"Name":"Lalit Mohan Sharma","so":"Rosjan Lal","Address":"95/9 Shashtri Nagar","Phone":"9700109820"}],"retiredGovtSer":[{"Name":"Jay Shankar Sharma","so":"Nil","Address":"Nil","Phone":"9568295113"},{"Name":"Rajendra Kumar sharma","so":"Nil","Address":"Nil","Phone":"9412835072"},{"Name":"DayaRam JaJ Joshi","so":"Nil","Address":"Nil","Phone":"9175004312"},{"Name":"Kaval Singh","so":"Nil","Address":"419 Shashtri Nagar","Phone":"1212762832"}],"neighbourPolling":[{"Name":"Sanjay Ahuja","so":"Ved Prakash","Address":"Sector 8 Shashtri Nagar","Phone":"9997966990"},{"Name":"Prem Sagar","so":"Harvish Lal","Address":"3/8 Shashtri Nagar","Phone":"9927144259"},{"Name":"Subash Singhal","so":"Lt. Om Prakash","Address":"101/7 Shashtri Nagar","Phone":"9411251511"},{"Name":"Ranjan","so":"Krishan Mittal","Address":"7 Cp 103/9 Shashtri Nagar","Phone":"9319313126"},{"Name":"Vipin","so":"Om Prakash","Address":"Sector 2/9 Chohraha","Phone":"9760708600"}],"armsLicenseHolder":[{"Name":"Akilesh","so":"Kishan Lal","Address":"31/9 Shashtri Nagar","Phone":"1212768191","weapon":"Nil"},{"Name":"Shiv Dutt Kumar","so":"Om Prakash","Address":"53/9 Shashtri Nagar","Phone":"9837031142","weapon":"Nil"},{"Name":"Surendra Pal Singh","so":"Sukhpal Singh","Address":"81/9 Shashtri Nagar","Phone":"Nil","weapon":"Nil"},{"Name":"Shrivesh Kumari","so":"W/o Shiv Dutt Kumar","Address":"53/9 Shashtri Nagar","Phone":"9897301142","weapon":"Nil"},{"Name":"Opendra Kumar Sharma","so":"Lt.Trilok Chand Sharma","Address":"57/9 Shashtri Nagar","Phone":"Nil","weapon":"Nil"}],"chowkidar":[{"Name":"Nil ","so":" Nil ","Address":"Nil","Phone":"Nil"}],"councellor":[{"Name":"Virendra Sharma/Billu","so":"C.p sharma","Address":"1200/2 Shashtri Nagar","Phone":"9219616288"}],"historySheeter":[{"Name":"Krishan Kumar / Bobby","so":"Brij Mohan Vashiya","Address":"128/1 Shashtri Nagar","Status":"Nil","Phone":"Nil"},{"Name":"Munkaad Ali","so":"Ilyaaz","Address":"628/11 Shashtri Nagar","Status":"Nil","Phone":"Nil"},{"Name":"Ayaz","so":"Abdul Hamid","Address":"573/11 Shashtri Nagar","Status":"Nil","Phone":"Nil"},{"Name":"Gaurav Verma","so":"Chetan Verma","Address":"271/9 Shashtri Nagar","Status":"Nil","Phone":"Nil"}],"convictedCriminals":[{"Name":"Nil","so":"Nil","Status":"Nil","4Address":"Nil"}],"crimes5Yrs":[{"Name":"Nil","so":"Nil","crimeno":"Nil","Section":"Nil","Address":"Nil"}],"electionCrimes":[{"Name":"Nil","so":"Nil","crimeno":"Nil","Section":"Nil","Address":"Nil"}],"politician":[{"Name":"Nil","so":"Nil","Address":"Nil","Phone":"Nil"}],"boundDownUnder":"Nil","vulnerabilityDetails":"General","warrantedCriminals":[{"Name":"Nil","so":"Nil","Address":"Nil","Phone":"Nil"}],"condition":"Good"},{"stationID":"NC-28","stationName":"Anandi Devi Shishu Vihar 24-3 Shashtri nagar meerut","latitude":"28.96361","longitude":"77.72590","polingCenterPhoto":"/img/mediPanchayat.png","routes":"/img/3.png","collectionPoint":"/img/3.png","population":"Nil","voters":"4592","villageMohalla":"24/3 Shashtri Nagar","path":"#/menu/tab/medicalDetails","respectedPpl":[{"Name":"Bablu Thekerdaar","so":"Nil","Address":"1414/3 Shashtri Nagar","Phone":"9837344915"},{"Name":"Kartar Singh","so":"Nil","Address":"1413/3 Shashtri Nagar","Phone":"7599320290"},{"Name":"Nitin Kumar","so":"Nil","Address":"4/4 Shashtri Nagar","Phone":"9412094418"},{"Name":"Krishan Kumar Gupta","so":"Nil","Address":"Dhan Vantri Marker Sector 4 Shashtri Nagar","Phone":"9307979990"},{"Name":"Naresh Sharma","so":"Nil","Address":"Dhan Vantri Marker Sector 4 Shashtri Nagar","Phone":"9997133147"}],"retiredGovtSer":[{"Name":"Nil","so":"Nil","Address":"Nil","Phone":"Nil"}],"neighbourPolling":[{"Name":"Sachin Rastogi","so":"Nil","Address":"1419/3 Shashtri Nagar","Phone":"9639432721"},{"Name":"Mahendra Singh","so":"Nil","Address":"1418/3 Shashtri Nagar","Phone":"9837055218"},{"Name":"Vinod Harit","so":"Nil","Address":"1424 Shashtri Nagar","Phone":"Nil"}],"armsLicenseHolder":[{"Name":"Sanjay Kumar Gupta","so":"Mahendra Prakash","Address":"137/3 Shashtri Nagar","Phone":"9837028995","weapon":"Nil"},{"Name":"Surya Singh Bhardwaj","so":"Bheem Sain","Address":"1015/3 Shashtri Nagar","Phone":"9411092764","weapon":"Nil"},{"Name":"Rajkumar Singh","so":"Charan Singh","Address":"260-261/3 Shashtri Nagar","Phone":"9412202242","weapon":"Nil"},{"Name":"Manveer Singh","so":"Dharam Veer Singh","Address":"73/3 Shashtri Nagar","Phone":"1212600783","weapon":"Nil"},{"Name":"Haji Iqraam Uddin Saifi","so":"Islam Uddin Saifi","Address":"1317/3 Shashtri Nagar","Phone":"9837116644","weapon":"Nil"}],"chowkidar":[{"Name":"Nil ","so":" Nil ","Address":"Nil","Phone":"Nil"}],"councellor":[{"Name":"Sanjeev Pundeer","so":"Lt. Jagdeesh Pundeer","Address":"452/4 Shashtri Nagar","Phone":"9897002527"}],"historySheeter":[{"Name":"Nil","so":"Nil","Address":"Nil","Status":"Nil","Phone":"Nil"}],"convictedCriminals":[{"Name":"Nil","so":"Nil","Status":"Nil","4Address":"Nil"}],"crimes5Yrs":[{"Name":"Bheem Singh","so":"Jalchand","crimeno":"16/13","Section":"302,504 IPC","Address":"5/2 Shashtri Nagar P/S Nauchandi"}],"electionCrimes":[{"Name":"Nil","so":"Nil","crimeno":"Nil","Section":"Nil","Address":"Nil"}],"politician":[{"Name":"Nil","so":"Nil","Address":"Nil","Phone":"Nil"}],"boundDownUnder":"Nil","vulnerabilityDetails":"General","warrantedCriminals":[{"Name":"Nil","so":"Nil","Address":"Nil","Phone":"Nil"}],"condition":"Good"},{"stationID":"NC-29","stationName":"Dhanvantri Ayurvedic Mahavidhyala Vidhyala Durga Mandir Shashtri Nagar","latitude":"28.96402","longitude":"77.72620","polingCenterPhoto":"/img/mediPanchayat.png","routes":"/img/3.png","collectionPoint":"/img/3.png","population":"Nil","voters":"2425","villageMohalla":"Durga Mandir Shastri Nagar","path":"#/menu/tab/medicalDetails","respectedPpl":[{"Name":"Surendra Singh","so":"Lt. Mahaveer Singh","Address":"Durga Mandir Near Shashtri Nagar","Phone":"9639557711"},{"Name":"Tej Pal Singh","so":"Lt. Balveer Singh","Address":"Nil","Phone":"7417886587"},{"Name":"Ravi Kumar","so":"Lt.Vijay Kumar","Address":"Nil","Phone":"8418253572"},{"Name":"Ishwar Tyagi","so":"Lt. Dayanand Tyagi","Address":"Nil","Phone":"9720283117"},{"Name":"Krishan","so":"Balveer Singh","Address":"Nil","Phone":"9319621872"}],"retiredGovtSer":[{"Name":"Ishwar Tyagi","so":"Lt. Dayanand Tyagi","Address":"Nil","Phone":"9420283117"},{"Name":"Krishan","so":"Balveer Singh","Address":"Nil","Phone":"9319621872"},{"Name":"Daya Nand Sharma","so":"Lt. Chandrabhan Sharma","Address":"Nil","Phone":"9054753808"},{"Name":"Vijay Pal Singh","so":"Lt. Tikam","Address":"Nil","Phone":"9411643226"},{"Name":"D.s Rana","so":"Hira Singh","Address":"Nil","Phone":"9568863397"}],"neighbourPolling":[{"Name":"Naresh Sharma","so":"Lt. Budh Prakash Sharma","Address":"Nil","Phone":"9997133147"},{"Name":"Sandeep Goyal","so":"Lt. Ashok Kumar Goyal","Address":"Nil","Phone":"9897387828"},{"Name":"Umesh Goyal","so":"Lt. Om Prakash","Address":"Nil","Phone":"9897292334"},{"Name":"Mahesh Chand","so":"Lt. Babu Ram Thekedaar","Address":"Nil","Phone":"9219665665"},{"Name":"Sunil Kumar","so":"Lt. Dhani Ram","Address":"Nil","Phone":"Nil"}],"armsLicenseHolder":[{"Name":"Subash Chand Sharma","so":"P.c Sharma","Address":"457/4 Shashtri Nagar","Phone":"1212771347","weapon":"Nil"},{"Name":"Rajeev Goyal","so":"Ved Prakash Goyal","Address":"357/4 Shashtri Nagar","Phone":"9837072132","weapon":"Nil"},{"Name":"Subodh Sharma","so":"Kanti Prasad","Address":"436/4 Shashtri Nagar","Phone":"9897716070","weapon":"Nil"},{"Name":"Bilal Ahmad","so":"Abrar Ahmad","Address":"502/4 Shashtri Nagar","Phone":"Nil","weapon":"Nil"},{"Name":"Phool Singh","so":"Deen Dayal","Address":"101/4 Shashtri Nagar","Phone":"9411618500","weapon":"Nil"}],"chowkidar":[{"Name":"Nil ","so":" Nil ","Address":"Nil","Phone":"Nil"}],"councellor":[{"Name":"Nil","so":"Nil","Address":"Nil","Phone":"Nil"}],"historySheeter":[{"Name":"Nil","so":"Nil","Address":"Nil","Status":"Nil","Phone":"Nil"}],"convictedCriminals":[{"Name":"Nil","so":"Nil","Status":"Nil","4Address":"Nil"}],"crimes5Yrs":[{"Name":"Nil","so":"Nil","crimeno":"Nil","Section":"Nil","Address":"Nil"}],"electionCrimes":[{"Name":"Nil","so":"Nil","crimeno":"Nil","Section":"Nil","Address":"Nil"}],"politician":[{"Name":"Nil","so":"Nil","Address":"Nil","Phone":"Nil"}],"boundDownUnder":"Nil","vulnerabilityDetails":"General","warrantedCriminals":[{"Name":"Nil","so":"Nil","Address":"Nil","Phone":"Nil"}],"condition":"Good"},{"stationID":"NC-30","stationName":"Samudayak Kendra Sector 7 Shashtri Nagar Meerut","latitude":"28.96267","longitude":"77.73538","polingCenterPhoto":"/img/mediPanchayat.png","routes":"/img/3.png","collectionPoint":"/img/3.png","population":"Nil","voters":"2384","villageMohalla":"Sector 7 Shastri Nagar","path":"#/menu/tab/medicalDetails","respectedPpl":[{"Name":"Dr. Akad Kumar","so":"Nil","Address":"173/7 Shashtri Nagar","Phone":"9410816990"},{"Name":"vineet Kumar","so":"Dhanpat","Address":"12/6 Shashtri Nagar","Phone":"Nil"},{"Name":"Rajeev ","so":"Anand","Address":"640/6 Shashtri Nagar","Phone":"Nil"},{"Name":"Piyush","so":"Sunil","Address":"318/6 Shashtri Nagar","Phone":"Nil"},{"Name":"Ankit Garg","so":"Sunil Garg","Address":"534/6 Shashtri Nagar","Phone":"Nil"}],"retiredGovtSer":[{"Name":"Nil","so":"Nil","Address":"Nil","Phone":"Nil"}],"neighbourPolling":[{"Name":"Dr. Akad Kumar","so":"Nil","Address":"173/7 Shashtri Nagar","Phone":"9410816990"},{"Name":"Mahesh Kumar (Purv Vidhayak) ","so":"Nil","Address":"178/7 Shashtri Nagar","Phone":"Nil"}],"armsLicenseHolder":[{"Name":"Dr. Arun Kumar","so":"Dr. Harveer Singh","Address":"137/7 Shashtri Nagar","Phone":"9410816996","weapon":"Nil"},{"Name":"Pushraj Sungh Tyagi","so":"Dr.Hari Raj Singh","Address":"Sector 7 Shashtri Nagar","Phone":"9358415865","weapon":"Nil"},{"Name":"Radhe Shyam Tiwari","so":"Chandra Kiran","Address":"97/7 Shashtri Nagar","Phone":"9278827076","weapon":"Nil"},{"Name":"Ajay Kumar Pundeer","so":"Surendra Pal Singh","Address":"73/7 Shashtri Nagar","Phone":"9412706832","weapon":"Nil"},{"Name":"Devendra Kumar Nim","so":"Khayali Ram Nim","Address":"108/7 Toll 163/7 Shashtri Nagar","Phone":"9411892460","weapon":"Nil"}],"chowkidar":[{"Name":"Nil ","so":" Nil ","Address":"Nil","Phone":"Nil"}],"councellor":[{"Name":"Nil","so":"Nil","Address":"Nil","Phone":"Nil"}],"historySheeter":[{"Name":"Nil","so":"Nil","Address":"Nil","Status":"Nil","Phone":"Nil"}],"convictedCriminals":[{"Name":"Nil","so":"Nil","Status":"Nil","4Address":"Nil"}],"crimes5Yrs":[{"Name":"Vikas Maheswari/vicky","so":"Amarnath","crimeno":"260/16","Section":"302/34 Ipc","Address":"Thander Wala Chiku Baba Wali Gali P/s Kotwali Meerut"},{"Name":"Uday Singh","so":"Ram Manohar","crimeno":"260/16","Section":"302/34 Ipc","Address":"Gangapur Nang Panchmi Mela Ground Ke Pass P/s Baradari Meerut"},{"Name":"Sachin/nikki","so":"Gopal","crimeno":"260/16","Section":"302/34 Ipc","Address":"2-d 104/5 Sector 3 Madhav Puram P/s Bharampuri Meerut"}],"electionCrimes":[{"Name":"Nil","so":"Nil","crimeno":"Nil","Section":"Nil","Address":"Nil"}],"politician":[{"Name":"Nil","so":"Nil","Address":"Nil","Phone":"Nil"}],"boundDownUnder":"Nil","vulnerabilityDetails":"General","warrantedCriminals":[{"Name":"Nil","so":"Nil","Address":"Nil","Phone":"Nil"}],"condition":"Good"},{"stationID":"NC-31","stationName":"Meenakshi Public School Hindi Medium 671-672_6 Shashtri Nagar","latitude":"28.96349","longitude":"77.73055","polingCenterPhoto":"/img/mediPanchayat.png","routes":"/img/3.png","collectionPoint":"/img/3.png","population":"Nil","voters":"1405","villageMohalla":"671/672/6 Shashtri Nagar","path":"#/menu/tab/medicalDetails","respectedPpl":[{"Name":"Dharam Pal","so":"Nil","Address":"322/6 Shahstri Nagar","Phone":"9897427444"},{"Name":"Ashok Kumar","so":"Nil","Address":"226/6 Shashtri Nagar","Phone":"9927270815"},{"Name":"Anil Kumar Gupta","so":"Nil","Address":"673/6 Shashtri Nagar","Phone":"9412783004"},{"Name":"Mithlesh Kumar","so":"Nil","Address":"674/6 Shashtri Nagar","Phone":"9837894698"},{"Name":"Muresh","so":"Nil","Address":"322/6 Shashtri Nagar","Phone":"8126341940"}],"retiredGovtSer":[{"Name":"Nil","so":"Nil","Address":"Nil","Phone":"Nil"}],"neighbourPolling":[{"Name":"Anil Kumar sharma","so":"Nil","Address":"226/6 Shashtri Nagar","Phone":"9412783004"},{"Name":"Nitin Kumar","so":"Nil","Address":"261/6 Shashtri Nagar","Phone":"9634922777"},{"Name":"Dharam Pal Madan","so":"Nil","Address":"322/6 Shashtri Nagar","Phone":"9837421444"}],"armsLicenseHolder":[{"Name":"Dr.Neeraj Saxena","so":"Dr. A.P Saxena","Address":"644/6 Shashtri Nagar","Phone":"9837119190","weapon":"Nil"},{"Name":"Dr. Kapil Singh Chauhan","so":"ChanChal Singh","Address":"458/6 Shashtri Nagar","Phone":"9998215066","weapon":"Nil"},{"Name":"Satish Kumar","so":"Harnaan Singh ","Address":"32/6 Shashtri Nagar","Phone":"9627777771","weapon":"Nil"},{"Name":"Rakesh Kumar Kaushik","so":"Ram Nath Kaushik","Address":"207/6 Shashtri Nagar","Phone":"9837236570","weapon":"Nil"},{"Name":"Ravendra Singh","so":"Chaudhary Raj Pal Singh","Address":"284/6 Shashtri Nagar","Phone":"9411024676","weapon":"Nil"}],"chowkidar":[{"Name":"Nil ","so":" Nil ","Address":"Nil","Phone":"Nil"}],"councellor":[{"Name":"Sanjeev Pundeer","so":"Lt. Jagdeesh Prasad ","Address":"452/4 Shashtri Nagar","Phone":"9897002527"}],"historySheeter":[{"Name":"Nil","so":"Nil","Address":"Nil","Status":"Nil","Phone":"Nil"}],"convictedCriminals":[{"Name":"Nil","so":"Nil","Status":"Nil","4Address":"Nil"}],"crimes5Yrs":[{"Name":"Ashwani Kumar","so":"Nil","crimeno":"540/12","Section":"302,201,120 B IPC","Address":"Nil"},{"Name":"Shri Pal","so":"Ilam Singh","crimeno":"540/12","Section":"302,201,120 B IPC","Address":"321/8 Phool Bagh Colony P/S Nauchandi"}],"electionCrimes":[{"Name":"Nil","so":"Nil","crimeno":"Nil","Section":"Nil","Address":"Nil"}],"politician":[{"Name":"Nil","so":"Nil","Address":"Nil","Phone":"Nil"}],"boundDownUnder":"Nil","vulnerabilityDetails":"General","warrantedCriminals":[{"Name":"Nil","so":"Nil","Address":"Nil","Phone":"Nil"}],"condition":"Good"},{"stationID":"NC-32","stationName":"Vasantika Child Blooming Public School 100-9 Shashtri Nagar","latitude":"28.95608","longitude":"77.72606","polingCenterPhoto":"/img/mediPanchayat.png","routes":"/img/3.png","collectionPoint":"/img/3.png","population":"Nil","voters":"2965","villageMohalla":"100/9 Shashtri Nagar","path":"#/menu/tab/medicalDetails","respectedPpl":[{"Name":"OmPrakash Pradhan","so":"Nil","Address":"27 A/9 Shashtri Nagar","Phone":"9927065575"},{"Name":"Revti Sharan Aggarwal","so":"Nil","Address":"280/9 Shashtri Nagar","Phone":"9319537919"},{"Name":"Piyush Gupta","so":"Dinesh Gupta","Address":"26/8 Shashtri Nagar","Phone":"7351115588"},{"Name":"Deepak Verma","so":"S.B Verma","Address":"277/9 Shashtri Nagar","Phone":"9358035939"},{"Name":"Daya Ram Ret. Juj","so":"Nil","Address":"273/9 Shashtri Nagar","Phone":"7500043199"}],"retiredGovtSer":[{"Name":"S.K Garg ","so":"Nil","Address":"109/9 Shashtri Nagar","Phone":"1212764937"},{"Name":"Ram Gopal Sagar","so":"Nil","Address":"97/9 Shashtri Nagar","Phone":"1212604078"},{"Name":"Kaval Singh","so":"Nil","Address":"104/9 Shashtri Nagar","Phone":"1212762832"},{"Name":"Vishan Das Mukheja","so":"Nil","Address":"102/9 Shashtri Nagar","Phone":"9259124154"},{"Name":"Akhilesh Aggarwal","so":"Nil","Address":"169/9 Shashtri Nagar","Phone":"9808500673"}],"neighbourPolling":[{"Name":"Vivek Chawla","so":"Subash Chand","Address":"57/6 Sector 9 Shashtri Nagar","Phone":"9821878385"},{"Name":"R.g Sagar","so":"Ram Swarup","Address":"57/6 Sector 9 Shashtri Nagar","Phone":"9927188342"},{"Name":"Lalit Mohan Sharma","so":"Roshan Lal","Address":"1098/9 Shashtri Nagar","Phone":"9760109829"},{"Name":"N.k Garg","so":"S.s Garg","Address":"101/9 Shashtri Nagar","Phone":"1212764937"},{"Name":"Sachin","so":"Krishan Gopal","Address":"6 A/9 Shashtri Nagar","Phone":"9897470994"}],"armsLicenseHolder":[{"Name":"Arvind Kumar","so":"Suraj Kumar","Address":"115/9 Shashtri Nagar","Phone":"9897865355","weapon":"Nil"},{"Name":"Rajeev Chaudhary","so":"Vikram Singh","Address":"259/9 Shashtri Nagar","Phone":"9412060785","weapon":"Nil"},{"Name":"Ram Gopal Sagar","so":"Ram  Swarup Singh","Address":"9715/9 Shashtri Nagar","Phone":"9897722740","weapon":"Nil"},{"Name":"Pankaj  Kumar Garg","so":"Mahendra Kumar","Address":"259/9 Shashtri Nagar","Phone":"9054278395","weapon":"Nil"}],"chowkidar":[{"Name":"Nil ","so":" Nil ","Address":"Nil","Phone":"Nil"}],"councellor":[{"Name":"Virendra Sharma/ Billu","so":"C.p Sharma","Address":"1200/2 Shashtri Nagar","Phone":"9219616288"}],"historySheeter":[{"Name":"Nil","so":"Nil","Address":"Nil","Status":"Nil","Phone":"Nil"}],"convictedCriminals":[{"Name":"Nil","so":"Nil","Status":"Nil","4Address":"Nil"}],"crimes5Yrs":[{"Name":"Saheen","so":"Majhar","crimeno":"67/16","Section":"302/34 Ipc","Address":"Shapir Gate Chohatta P/s Kotwali Meerut"},{"Name":"Rafeeq/Mulla","so":"Islam","crimeno":"67/16","Section":"302/34 Ipc","Address":"Bathnor P/s Falauda Meerut"},{"Name":"Saleem/ Allahdiya","so":"Sualeen","crimeno":"67/16","Section":"302/34 Ipc","Address":"120-a/30 Vijay Mojpur P/s Jhafrabad Delhi"}],"electionCrimes":[{"Name":"Nil","so":"Nil","crimeno":"Nil","Section":"Nil","Address":"Nil"}],"politician":[{"Name":"Nil","so":"Nil","Address":"Nil","Phone":"Nil"}],"boundDownUnder":"Nil","vulnerabilityDetails":"General","warrantedCriminals":[{"Name":"Nil","so":"Nil","Address":"Nil","Phone":"Nil"}],"condition":"Good"},{"stationID":"NC-33","stationName":"Cent Dev Ashram Public School Sector 2 Shashtri Nagar","latitude":"28.95966","longitude":"77.73025","polingCenterPhoto":"/img/mediPanchayat.png","routes":"/img/3.png","collectionPoint":"/img/3.png","population":"Nil","voters":"1303","villageMohalla":"Sector 2 Shastri Nagar","path":"#/menu/tab/medicalDetails","respectedPpl":[{"Name":"Suresh Chand Sharma","so":"Nil","Address":"610/2 Shashtri Nagar","Phone":"9027292614"},{"Name":"Jaiveer Singh","so":"Nil","Address":"624/625/2 Shashtri Nagar","Phone":"9897249719"},{"Name":"Naresh Yadav","so":"Nil","Address":"607/2 Shashtri Nagar","Phone":"9897010276"},{"Name":"R.S Kumar jain","so":"Nil","Address":"6/9 Shashtri Nagar","Phone":"9897731358"},{"Name":"Munna Lal","so":"Nil","Address":"630/2 Shashtri Nagar","Phone":"9456016373"}],"retiredGovtSer":[{"Name":"Nil","so":"Nil","Address":"Nil","Phone":"Nil"}],"neighbourPolling":[{"Name":"Pawan Sharma ","so":"Nil","Address":"608/2 Shashtri Nagar","Phone":"9368954321"},{"Name":"Harsh Kumar","so":"Nil","Address":"612/2 Shashtri Nagar","Phone":"9459396900"},{"Name":"Lokendra Saini","so":"Nil","Address":"634/2 Shashtri Nagar","Phone":"9997631274"},{"Name":"Munna Lal","so":"Nil","Address":"630/2 Shashtri Nagar","Phone":"9456099373"},{"Name":"Sanjeev Tomar","so":"Nil","Address":"636/2 Shashtri Nagar","Phone":"9897331471"}],"armsLicenseHolder":[{"Name":"Saurav Jain","so":"Naveen Jain","Address":"1095/2 Shashtri Nagar","Phone":"9837091228","weapon":"Nil"},{"Name":"Rahul Goyal","so":"Chetan Goyal","Address":"880/2 Shashtri Nagar","Phone":"9456261653","weapon":"Nil"},{"Name":"Rajkumar","so":"Bhram Singh","Address":"147/2 Shashtri Nagar","Phone":"9997490632","weapon":"Nil"},{"Name":"Susil Kumar Sharma","so":"Tara Chand Sharma","Address":"679/2 Shashtri Nagar","Phone":"9411024207","weapon":"Nil"},{"Name":"Gaurav Gupta","so":"Dinesh Kumar","Address":"1109/2 Shashtri Nagar","Phone":"9837020440","weapon":"Nil"}],"chowkidar":[{"Name":"Nil ","so":" Nil ","Address":"Nil","Phone":"Nil"}],"councellor":[{"Name":"Virendra Sharma/ Billu","so":"C.p Sharma","Address":"1200/2 Shashtri Nagar","Phone":"9219616288"}],"historySheeter":[{"Name":"Nil","so":"Nil","Address":"Nil","Status":"Nil","Phone":"Nil"}],"convictedCriminals":[{"Name":"Nil","so":"Nil","Status":"Nil","4Address":"Nil"}],"crimes5Yrs":[{"Name":"Nil","so":"Nil","crimeno":"Nil","Section":"Nil","Address":"Nil"}],"electionCrimes":[{"Name":"Nil","so":"Nil","crimeno":"Nil","Section":"Nil","Address":"Nil"}],"politician":[{"Name":"Nil","so":"Nil","Address":"Nil","Phone":"Nil"}],"boundDownUnder":"Nil","vulnerabilityDetails":"General","warrantedCriminals":[{"Name":"Nil","so":"Nil","Address":"Nil","Phone":"Nil"}],"condition":"Good"},{"stationID":"NC-34","stationName":"Maharana Siksha Sadan Sector 2 Shashtri Nagar","latitude":"28.95965","longitude":"77.72818","polingCenterPhoto":"/img/mediPanchayat.png","routes":"/img/3.png","collectionPoint":"/img/3.png","population":"Nil","voters":"3240","villageMohalla":"Sector 2 Shastri Nagar","path":"#/menu/tab/medicalDetails","respectedPpl":[{"Name":"Anil Master Jee","so":"Nil","Address":"1153/2 Shashtri Nagar","Phone":"9837455444"},{"Name":"Deen Dayal Sharma","so":"Nil","Address":"1144-1145/2 Shashtri Nagar","Phone":"9897204664"},{"Name":"Amar Sharma","so":"Nil","Address":"1150/2 Shashtri Nagar","Phone":"9719505351"},{"Name":"Ashwani","so":"Nil","Address":"1157/2 Shashtri Nagar","Phone":"9359839448"},{"Name":"Virendra Sharma","so":"Nil","Address":"1200/2 Shashtri Nagar","Phone":"9219616288"}],"retiredGovtSer":[{"Name":"Rajesh Mittal","so":"Nil","Address":"1158/2 Shashtri N agar","Phone":"8126083312"},{"Name":"C.P Sharma","so":"Nil","Address":"1200/2 Shashtri Nagar","Phone":"9897440081"}],"neighbourPolling":[{"Name":"Neeraj","so":"Nil","Address":"1158/2 Shashtri Nagar","Phone":"Nil"},{"Name":"Sachin","so":"Nil","Address":"1147/2 Shashtri Nagar","Phone":"9850367650"},{"Name":"C.P Sharma","so":"Nil","Address":"1200/2 Shashtri Nagar","Phone":"9897440081"},{"Name":"Virendra Sharma  ","so":"Nil","Address":"1200/2 Shashtri Nagar","Phone":"9219616288"},{"Name":"Deen Dayal Sharma","so":"Nil","Address":"1144-45/2 Shashtri Nagar","Phone":"9897204664"}],"armsLicenseHolder":[{"Name":"Ram Daas","so":"Lt.chidda Singh","Address":"1176/2 Shashtri Nagar","Phone":"9412203483","weapon":"Nil"},{"Name":"Anil Kumar","so":"Bheem Singh","Address":"12/2 Shashtri Nagar","Phone":"9319311516","weapon":"Nil"},{"Name":"Raj Raj Singh","so":"Veer Paal Singh Bhadoriya","Address":"97/2 Shashtri Nagar","Phone":"9997588312","weapon":"Nil"},{"Name":"R.k Mishra","so":"G.r Mishra","Address":"677/2 Shashtri Nagar","Phone":"Nil","weapon":"Nil"},{"Name":"Manohar Lal Sharma","so":"Lal Ram Sharma","Address":"916/2 Shashtri Nagar","Phone":"9410031115","weapon":"Nil"}],"chowkidar":[{"Name":"Nil ","so":" Nil ","Address":"Nil","Phone":"Nil"}],"councellor":[{"Name":"Virendra Sharma/ Billu","so":"C.p Sharma","Address":"1200/2 Shashtri Nagar","Phone":"9219616288"}],"historySheeter":[{"Name":"Nil","so":"Nil","Address":"Nil","Status":"Nil","Phone":"Nil"}],"convictedCriminals":[{"Name":"Nil","so":"Nil","Status":"Nil","4Address":"Nil"}],"crimes5Yrs":[{"Name":"Nil","so":"Nil","crimeno":"Nil","Section":"Nil","Address":"Nil"}],"electionCrimes":[{"Name":"Nil","so":"Nil","crimeno":"Nil","Section":"Nil","Address":"Nil"}],"politician":[{"Name":"Nil","so":"Nil","Address":"Nil","Phone":"Nil"}],"boundDownUnder":"Nil","vulnerabilityDetails":"General","warrantedCriminals":[{"Name":"Nil","so":"Nil","Address":"Nil","Phone":"Nil"}],"condition":"Good"},{"stationID":"NC-35","stationName":"Bale Ram BrajBhushan Saraswati Sishu Mandir D Block Shashtri Nagar","latitude":"28.96171","longitude":"77.73596","polingCenterPhoto":"/img/mediPanchayat.png","routes":"/img/3.png","collectionPoint":"/img/3.png","population":"Nil","voters":"2444","villageMohalla":"D Block Shashtri Nagar","path":"#/menu/tab/medicalDetails","respectedPpl":[{"Name":"Raj Kumar Jain","so":"Nil","Address":"D 290 Shashtri Nagar","Phone":"9758633600"},{"Name":"Avdesh Chikara","so":"Nil","Address":"D 288 Shashtri Nagar","Phone":"9358438563"},{"Name":"Prem Nivas","so":"Nil","Address":"D 284 Shashtri Nagar","Phone":"9927960420"},{"Name":"K.D Sharma","so":"Nil","Address":"D 358 Shashtri Nagar","Phone":"121260314"},{"Name":"S.K Sharma","so":"Nil","Address":"D 108 Shashtri Nagar","Phone":"9837178911"}],"retiredGovtSer":[{"Name":"Veer Pal Sharma","so":"Nil","Address":"Shashtri Nagar","Phone":"1212767283"}],"neighbourPolling":[{"Name":"Rajesh Birmani","so":"Nil","Address":"D 296 Shashtri Nagar","Phone":"9897713853"},{"Name":"Sanjay Arora","so":"Nil","Address":"D 294 Shashtri Nagar  ","Phone":"9412105672"},{"Name":"Sanjay Vishnoi","so":"Nil","Address":"D 106 Shashtri Nagar","Phone":"9412105655"},{"Name":"RajKumar Jain","so":"Nil","Address":"D 290Shashtri Nagar","Phone":"9758633600"},{"Name":"Avdesh Chikara","so":"Nil","Address":"D 288 Shashtri Nagar","Phone":"9358438563"}],"armsLicenseHolder":[{"Name":"Bhram Dev Sharma","so":"Atmah Ram Sharma","Address":"D 596 Shashtri Nagar","Phone":"9837044796","weapon":"Nil"},{"Name":"Kuldeep Tyagi","so":"Niranjan Prakash Tyagi","Address":"D 88 Shashtri Nagar","Phone":"8439829976","weapon":"Nil"},{"Name":"Sunil Taneja","so":"V.r Taneja","Address":"D 94 Shashtri Nagar","Phone":"9837093910","weapon":"Nil"},{"Name":"Sunil Johri","so":"Shanti Sawaroop","Address":"D 323 Shashtri Nagar","Phone":"9412782293","weapon":"Nil"},{"Name":"Ram Krishan Tomar","so":"M.s Tomar","Address":"D 256 Shashtri Nagar","Phone":"9837042525","weapon":"Nil"}],"chowkidar":[{"Name":"Nil ","so":" Nil ","Address":"Nil","Phone":"Nil"}],"councellor":[{"Name":"Ashu Rastogi","so":"Nil","Address":"H Block Shashtri Nagar Near Anand Nursing Home","Phone":"942200066"}],"historySheeter":[{"Name":"Nil","so":"Nil","Address":"Nil","Status":"Nil","Phone":"Nil"}],"convictedCriminals":[{"Name":"Nil","so":"Nil","Status":"Nil","4Address":"Nil"}],"crimes5Yrs":[{"Name":"Nil","so":"Nil","crimeno":"Nil","Section":"Nil","Address":"Nil"}],"electionCrimes":[{"Name":"Nil","so":"Nil","crimeno":"Nil","Section":"Nil","Address":"Nil"}],"politician":[{"Name":"Nil","so":"Nil","Address":"Nil","Phone":"Nil"}],"boundDownUnder":"Nil","vulnerabilityDetails":"General","warrantedCriminals":[{"Name":"Nil","so":"Nil","Address":"Nil","Phone":"Nil"}],"condition":"Good"},{"stationID":"NC-36","stationName":"Anibasent Public School F block Shashtri Nagar","latitude":"28.95827","longitude":"77.73310","polingCenterPhoto":"/img/mediPanchayat.png","routes":"/img/3.png","collectionPoint":"/img/3.png","population":"Nil","voters":"3735","villageMohalla":"F Block Shashtri Nagar","path":"#/menu/tab/medicalDetails","respectedPpl":[{"Name":"Bheem Singh","so":"Nil","Address":"248 F Block Shashtri Nagar","Phone":"8755820002"},{"Name":"P.s Maan","so":"Nil","Address":"F 2562 Shashtri Nagar","Phone":"9690692111"},{"Name":"R.psharma","so":"Nil","Address":"F266 Shashtri Nagar","Phone":"9719122112"},{"Name":"Sanjay Rana","so":"Nil","Address":"F 1244 Shashtri Nagar","Phone":"9412207296"}],"retiredGovtSer":[{"Name":"Nil","so":"Nil","Address":"Nil","Phone":"Nil"}],"neighbourPolling":[{"Name":"Anurag Verma","so":"Nil","Address":"F 188 Shashtri Nagar","Phone":"9412106043"},{"Name":"Akshay Kumar","so":"Nil","Address":"F 200 Shashtri Nagar","Phone":"Nil"},{"Name":"Jaswant Singh","so":"Nil","Address":"F 190 Shashtri Nagar","Phone":"Nil"}],"armsLicenseHolder":[{"Name":"Rakesh Kumar","so":"Anand Kumar","Address":"F 166 Shashtri Nagar","Phone":"9897792392","weapon":"Nil"},{"Name":"Rajendra Kumar Sharma","so":"Shyam Sundar Sharma","Address":"F 78 Shashtri Nagar","Phone":"9411903719","weapon":"Nil"},{"Name":"Vishal Ahuja","so":"Ashok Ahuja","Address":"F 117 Shashtri Nagar","Phone":"9897638456","weapon":"Nil"},{"Name":"Dr. Vijay Singh","so":"Mahi Pal Singh","Address":"F 140 Shashtri Nagar","Phone":"8474999222","weapon":"Nil"},{"Name":"Dr. Mohan Gupta","so":"Dr. Badri Parsad Gupta","Address":"F 6 Shashtri Nagar","Phone":"9808172516","weapon":"Nil"}],"chowkidar":[{"Name":"Nil ","so":" Nil ","Address":"Nil","Phone":"Nil"}],"councellor":[{"Name":"Ashu Rastogi","so":"Nil","Address":"H Block Shashtri Nagar Near Anand Nursing Home","Phone":"942200066"}],"historySheeter":[{"Name":"Pintu/ Neeraj Rathi","so":"Ratan Singh","Address":"H-199 Shashtri Nagar","Status":"Nil","Phone":"Nil"}],"convictedCriminals":[{"Name":"Nil","so":"Nil","Status":"Nil","4Address":"Nil"}],"crimes5Yrs":[{"Name":"Mahetab","so":"Rahes Ahamed","crimeno":"667/12","Section":"392 Ipc","Address":"519 Vichlu Wala Bagh P/s Kotwali Meerut"},{"Name":"Guddu/layeq","so":"Abdul Hameed","crimeno":"667/12","Section":"392 Ipc","Address":"Juggi No.7 P/s Lal Kurti Meeut"},{"Name":"Shadab","so":"Haji Aslam","crimeno":"223/14","Section":"392 Ipc","Address":"459 Chamar Darwaja P/s Bharampuri Meerut"},{"Name":"Mohseen","so":"Ayub","crimeno":"223/14","Section":"392 Ipc","Address":"Kidwai Nagar P/s Lisadi Gate Meerut"},{"Name":"Ankit Singhal","so":"Lt. Ashok Singhal","crimeno":"241/15","Section":"302 Ipc","Address":"H-75 Shashtri Nagar Meerut"}],"electionCrimes":[{"Name":"Nil","so":"Nil","crimeno":"Nil","Section":"Nil","Address":"Nil"}],"politician":[{"Name":"Nil","so":"Nil","Address":"Nil","Phone":"Nil"}],"boundDownUnder":"Nil","vulnerabilityDetails":"General","warrantedCriminals":[{"Name":"Nil","so":"Nil","Address":"Nil","Phone":"Nil"}],"condition":"Good"},{"stationID":"NC-37","stationName":"Barat Ghar Kamrahaal Purana K Block Shashtri Nagar Meerut","latitude":"28.95338","longitude":"77.72850","polingCenterPhoto":"/img/mediPanchayat.png","routes":"/img/3.png","collectionPoint":"/img/3.png","population":"Nil","voters":"2365","villageMohalla":"Purana K Block Shiv Mandir Shashtri Nagar","path":"#/menu/tab/medicalDetails","respectedPpl":[{"Name":"Rajesh Rathi","so":"Lt. Prem Prakash","Address":"K 387 Shashtri Nagar","Phone":"9927959803"},{"Name":"Pankaj Khatera Sabhasad","so":"Nil","Address":"k 237 Shashtri Nagar","Phone":"9897648842"},{"Name":"Ashu Rastogi","so":"Nil","Address":"H 101 Shashtri Nagar","Phone":"9412200066"},{"Name":"Krishan Kant Verma","so":"Lt. Ram Nath","Address":"86/8 Shashtri Nagar","Phone":"9897259997"},{"Name":"Ishwar Chand Verma","so":"Jyoti","Address":"k 143 Shashtri Nagar","Phone":"9897093508"}],"retiredGovtSer":[{"Name":"Shanti Swaroop Gupta","so":"Nil","Address":"K 22  Shashtri Nagar","Phone":"Nil"},{"Name":"Mahesh Sharma Peshgaar","so":"Nil","Address":"K 198  Shashtri Nagar","Phone":"Nil"},{"Name":"Ghanshyam","so":"Nil","Address":"K 218  Shashtri Nagar","Phone":"Nil"},{"Name":"Raghu Nandan Prasd Sharma","so":"Nil","Address":" k 218 Shashtri Nagar","Phone":"Nil"},{"Name":"Sundar Pal","so":"Mahesh","Address":"K 212  Shashtri Nagar","Phone":"9897246246"}],"neighbourPolling":[{"Name":"Dinesh Kumar","so":"Lt. Jodha Ram","Address":"K 220/4  Shashtri Nagar","Phone":"9927270844"},{"Name":"Sandeep Som","so":"Ram Singh","Address":"K 220/4  Shashtri Nagar","Phone":"9058880088"},{"Name":"Sachin Gupta","so":"Mahesh Chand","Address":"K 226  Shashtri Nagar","Phone":"9897479279"},{"Name":"Dilip Ras Vats","so":"Hakim Chand","Address":"J 34  Shashtri Nagar","Phone":"Nil"},{"Name":"Ram Prakash","so":"Sadhu Ram","Address":"J 36  Shashtri Nagar","Phone":"9897293031"}],"armsLicenseHolder":[{"Name":"Bheem Singh","so":"Harish chand","Address":"9 K Block  Shashtri Nagar","Phone":"9319069620","weapon":"Nil"},{"Name":"Deepak","so":"Om prakash","Address":"K 237  Shashtri Nagar","Phone":"9897068842","weapon":"Nil"},{"Name":"Rajesh Garg","so":"Prem Prakash Rathi","Address":"K 387  Shashtri Nagar","Phone":"8445224522","weapon":"Nil"},{"Name":"Subash Chand","so":"Chuttan Lal","Address":"K 425  Shashtri Nagar","Phone":"9634138835","weapon":"Nil"}],"chowkidar":[{"Name":"Nil ","so":" Nil ","Address":"Nil","Phone":"Nil"}],"councellor":[{"Name":"Nil","so":"Nil","Address":"Nil","Phone":"Nil"}],"historySheeter":[{"Name":"Pintu/ Neeraj Rathi","so":"Ratan Singh","Address":"H-199 Shashtri Nagar","Status":"Nil","Phone":"Nil"}],"convictedCriminals":[{"Name":"Nil","so":"Nil","Status":"Nil","4Address":"Nil"}],"crimes5Yrs":[{"Name":"Nil","so":"Nil","crimeno":"Nil","Section":"Nil","Address":"Nil"}],"electionCrimes":[{"Name":"Nil","so":"Nil","crimeno":"Nil","Section":"Nil","Address":"Nil"}],"politician":[{"Name":"Nil","so":"Nil","Address":"Nil","Phone":"Nil"}],"boundDownUnder":"Nil","vulnerabilityDetails":"General","warrantedCriminals":[{"Name":"Nil","so":"Nil","Address":"Nil","Phone":"Nil"}],"condition":"Good"},{"stationID":"NC-38","stationName":"Karayala Sahayak Nideshak Sthanaya Nidhi lekha K-5 Shashtri Nagar","latitude":"28.95107","longitude":"77.72757","polingCenterPhoto":"/img/mediPanchayat.png","routes":"/img/3.png","collectionPoint":"/img/3.png","population":"Nil","voters":"2318","villageMohalla":"K-5 Shastri Nagar (Meerut)","path":"#/menu/tab/medicalDetails","respectedPpl":[{"Name":"Ravindra Aggarwal","so":"Lt. Jai Prakash","Address":"K-325 Block Shashtri Nagar","Phone":"9358771825"},{"Name":"Prabhat Ghera","so":"Lt. Vijay Ghera","Address":"k-98 Shashtri Nagar","Phone":"9412836464"},{"Name":"Ishwar Chand Verma","so":"Lt. Jyoti Prasad","Address":"k-143 Shashtri Nagar","Phone":"9897093508"},{"Name":"Dr. Om Dutt","so":"Nil","Address":"k-133 Shashtri Nagar","Phone":"9897664768"},{"Name":"Om Prakash Khatera","so":"Nil","Address":"k-239 Shashtri Nagar","Phone":"9897648842"}],"retiredGovtSer":[{"Name":"Hari Ram Sachdeva","so":"Nil","Address":"K-375Shashtri Nagar","Phone":"1212602788"},{"Name":"Nathi Ram","so":"Nil","Address":"K-323 Shashtri Nagar","Phone":"Nil"},{"Name":"Vimla Rana","so":"Nil","Address":"K-150 Shashtri Nagar","Phone":"Nil"}],"neighbourPolling":[{"Name":"Yogesh Sharma","so":"Kherati Lal Sharma","Address":"K-9 Shashtri Nagar","Phone":"9760505829"},{"Name":"Amit","so":"Bheem Singh","Address":"K-9 Shashtri Nagar","Phone":"9997795688"},{"Name":"Prem Tyagi","so":"Ramesh Kkumar","Address":"K-9 Shashtri Nagar","Phone":"9837044820"},{"Name":"Kanti Tyagi","so":"Mukt Prasad","Address":"K-3 Shashtri Nagar","Phone":"9917686026"},{"Name":"Sonu Aggarwal","so":"Nil","Address":"K-3 Shashtri Nagar","Phone":"9897548394"}],"armsLicenseHolder":[{"Name":"Bheem Singh","so":"Harish Chand","Address":"K-9 Block Shashtri Nagar","Phone":"9319069620","weapon":"Nil"},{"Name":"Deepak","so":"Om Prakash","Address":"K-237 Shashtri Nagar","Phone":"9897068842","weapon":"Nil"},{"Name":"Rajesh Rathi","so":"Prem Prakash Rathi","Address":"K-387 Shashtri Nagar","Phone":"8445224522","weapon":"Nil"},{"Name":"Ashok Kumar","so":"Mahendra Pal Sharma","Address":"L-1775 Shashtri Nagar","Phone":"9412830683","weapon":"Nil"},{"Name":"Sukhbeer Singh","so":"Hari Kishan","Address":"L-1528 Shashtri Nagar","Phone":"9456203987","weapon":"Nil"}],"chowkidar":[{"Name":"Nil ","so":" Nil ","Address":"Nil","Phone":"Nil"}],"councellor":[{"Name":"Nil","so":"Nil","Address":"Nil","Phone":"Nil"}],"historySheeter":[{"Name":"Pintu/ Neeraj Rathi","so":"Ratan Singh","Address":"H-199 Shashtri Nagar","Status":"Nil","Phone":"Nil"}],"convictedCriminals":[{"Name":"Nil","so":"Nil","Status":"Nil","4Address":"Nil"}],"crimes5Yrs":[{"Name":"Nil","so":"Nil","crimeno":"Nil","Section":"Nil","Address":"Nil"}],"electionCrimes":[{"Name":"Nil","so":"Nil","crimeno":"Nil","Section":"Nil","Address":"Nil"}],"politician":[{"Name":"Nil","so":"Nil","Address":"Nil","Phone":"Nil"}],"boundDownUnder":"Nil","vulnerabilityDetails":"General","warrantedCriminals":[{"Name":"Nil","so":"Nil","Address":"Nil","Phone":"Nil"}],"condition":"Good"},{"stationID":"NC-39","stationName":"Dhram Shala Kuti Shashtri Nagar (Meerut)","latitude":"28.95749","longitude":"77.73330","polingCenterPhoto":"/img/mediPanchayat.png","routes":"/img/3.png","collectionPoint":"/img/3.png","population":"Nil","voters":"1631","villageMohalla":"Kuti Shastri Nagar","path":"#/menu/tab/medicalDetails","respectedPpl":[{"Name":"Jai Prakash","so":"Balak Ram","Address":"Kuti Shastri Nagar","Phone":"9568723728"},{"Name":"Bhopal Singh","so":"Nil","Address":"Kuti Shastri Nagar","Phone":"9458201240"},{"Name":"Raj pal Singh","so":"Shiv Charan Singh","Address":"Kuti Shastri Nagar","Phone":"9358423200"},{"Name":"Sudesh","so":"Raj Pal Singh","Address":"Kuti Shastri Nagar","Phone":"9719176230"},{"Name":"Raju","so":"Nil","Address":"Kuti Shastri Nagar","Phone":"9837408485"}],"retiredGovtSer":[{"Name":"Nil","so":"Nil","Address":"Nil","Phone":"Nil"}],"neighbourPolling":[{"Name":"Bhopal Singh","so":"Hari Singh","Address":"Kuti Shastri Nagar","Phone":"9458201240"},{"Name":"Yash Pal Singh","so":"Bhopal Singh","Address":"Kuti Shastri Nagar","Phone":"8445505393"},{"Name":"Bhram Singh","so":"Hari Singh","Address":"Kuti Shastri Nagar","Phone":"9368013098"},{"Name":"Pramod","so":"Chandrabhan Singh","Address":"Kuti Shastri Nagar","Phone":"9897116770"},{"Name":"Raj Pal Singh","so":"Shiv Pal Singh","Address":"Kuti Shastri Nagar","Phone":"9358423200"}],"armsLicenseHolder":[{"Name":"Ashok","so":"Mahendra Pal Sharma","Address":"L-1775 Shastri Nagar","Phone":"9412830683","weapon":"Nil"},{"Name":"Sukhveer","so":"Hari Kishan","Address":"L-1528 Shastri Nagar","Phone":"9456203987","weapon":"Nil"},{"Name":"Dharam Pal","so":"Ujala Singh","Address":"L-1697 Shastri Nagar","Phone":"9457838787","weapon":"Nil"},{"Name":"Nitin Sharma","so":"Prashant Sharma","Address":"L-2/870 Shastri Nagar","Phone":"9758219218","weapon":"Nil"},{"Name":"Kailash Nath","so":"Mahesh Singh","Address":"L-1591 Shastri Nagar","Phone":"9690009104","weapon":"Nil"}],"chowkidar":[{"Name":"Nil ","so":" Nil ","Address":"Nil","Phone":"Nil"}],"councellor":[{"Name":"Ashu Rastogi","so":"Nil","Address":"H block Shastri Nagar","Phone":"9412200066"}],"historySheeter":[{"Name":"Nil","so":"Nil","Address":"Nil","Status":"Nil","Phone":"Nil"}],"convictedCriminals":[{"Name":"Nil","so":"Nil","Status":"Nil","4Address":"Nil"}],"crimes5Yrs":[{"Name":"Sunny","so":"Om Prakash","crimeno":"15/12","Section":"307 IPC","Address":"Kuti Shastri Nagar"},{"Name":"Aas Mohd.","so":"Sayeed","crimeno":"344/16","Section":"376 D,366 IPC","Address":"Mosam Khani P/S Kithor Meerut"},{"Name":"Mayinuddin","so":"Nil","crimeno":"344/16","Section":"376 D,366 IPC","Address":"Mosam Khani P/S Kithor Meerut"},{"Name":"Asif","so":"Nil","crimeno":"344/16","Section":"376 D,366 IPC","Address":"Mosam Khani P/S Kithor Meerut"}],"electionCrimes":[{"Name":"Nil","so":"Nil","crimeno":"Nil","Section":"Nil","Address":"Nil"}],"politician":[{"Name":"Nil","so":"Nil","Address":"Nil","Phone":"Nil"}],"boundDownUnder":"Nil","vulnerabilityDetails":"General","warrantedCriminals":[{"Name":"Nil","so":"Nil","Address":"Nil","Phone":"Nil"}],"condition":"Good"}]