[{"stationID":"KT-01","stationName":"prathmik vidhyalay barum hapur distant)","latitude":"28.97390","longitude":"77.71320","polingCenterPhoto":"../img/mediPanchayat.png","routes":"../img/3.png","collectionPoint":"../img/3.png","population":"Nil","voters":"954","villageMohalla":"purva abudawali","path":"#/menu/tab/medicalDetails","respectedPpl":[{"Name":"Kashidin Mohd.","so":"Nil","Address":"Nil","Phone":"9837100840"},{"Name":"Mohd.parvej","so":"Nil","Address":"Nil","Phone":"7520721687"},{"Name":"Shabir","so":"Nil","Address":"Nil","Phone":"9219708213"}],"retiredGovtSer":[{"Name":"Chandrapraksh","so":"Nil","Address":"Nil","Phone":"9027464342"}],"neighbourPolling":[{"Name":"Irfan Alvi","so":"Makshood","Address":"Hapur Stand Sorabgate","Phone":"9259539989"},{"Name":"Mustafa","so":"Murli","Address":"Hapur Stand Sorabgate","Phone":"9756040518"},{"Name":"Shyamlal","so":"Nil","Address":"Hapur Stand Sorabgate","Phone":"9917233818"},{"Name":"Mohd Sharuk","so":"Nil","Address":"Hapur Stand Sorabgate","Phone":"9897631884"},{"Name":"Haji Kabir","so":"Nil","Address":"Hapur Stand Sorabgate","Phone":"8057147364"}],"armsLicenseHolder":[{"Name":"Lokeshkumar","so":"Lekhraj","Address":"91-purva Peervaksh","Phone":"Nil","Weapon":"Nil"},{"Name":"Lekhraj","so":"Fathechand","Address":"91-purva Peervaksh","Phone":"Nil","Weapon":"Nil"},{"Name":"Shajad Aalam","so":"Hamid Udin","Address":"332 Shorabgate","Phone":"Nil","Weapon":"Nil"},{"Name":"Javad Safi","so":"Nisaajsingh","Address":"Shorabgate","Phone":"Nil","Weapon":"Nil"},{"Name":"Narash Kumar","so":"Praksh  Singh","Address":"Shorabgate","Phone":"Nil","Weapon":"Nil"},{"Name":"Ramchandra","so":"Shiv Charan","Address":"414 Prahalad Nagar","Phone":"Nil","Weapon":"Nil"},{"Name":"Abdul Sattar","so":"Boondu","Address":"226/125 Purva Abdul Wali","Phone":"Nil","Weapon":"Nil"},{"Name":"Mohd.aabid","so":"Haji Abdul Gafar","Address":"182 Purva Abdulwali","Phone":"Nil","Weapon":"Nil"}],"chowkidar":[{"Name":"Nil","so":"Nil","Address":"Nil","Phone":"Nil"}],"councellor":[{"Name":"Mohd Waseem Gaji","so":"Haji Bulan Gaji","Address":"Purva Afjalu Rahim","Phone":"9219665559"}],"historySheeter":[{"Name":"Suraj Vali ","so":"Sukhveer Singh","Address":"Anup Nagar Fazal Pur","Status":"Missing","Phone":"Nil"}],"convictedCriminals":[{"Name":"Nil","so":"Nil","Address":"Nil","Status":"Nil","Phone":"Nil"},{"Name":"Nil","so":"Nil","Address":"Nil","Status":"Nil","Phone":"Nil"}],"crimes5Yrs":[{"Name":"Kala Aka Shadab","so":"Aalaudin","crimeno":"224/11","Section":"324,323,504,506 Ipc","Address":"Sabji Wali Gali"},{"Name":"Mahtab","so":"Aalaudin","crimeno":"224/12","Section":"324,323,504,506 Ipc","Address":"Sabji Wali Gali"},{"Name":"Sonu","so":"Ashok","crimeno":"285/12","Section":"324,323,504,506,ipc","Address":"Bhagat Singh Market, Thana Kotwali Meerut"},{"Name":"Manish","so":"Ashok","crimeno":"285/13","Section":"324,323,504,506,ipc","Address":"Bhagat Singh Market, Thana Kotwali Meerut"},{"Name":"Pawan","so":"Gangaram","crimeno":"285/14","Section":"324,323,504,506,ipc","Address":"Bhagat Singh Market, Thana Kotwali Meerut"},{"Name":"Ashok","so":"Gangaram","crimeno":"285/15","Section":"324,323,504,506,ipc","Address":"Bhagat Singh Market, Thana Kotwali Meerut"},{"Name":"Thaseen","so":"Yaseen","crimeno":"07/14.","Section":"308,323,504,506,ipc","Address":"Bhagat Singh Market, Thana Kotwali Meerut"},{"Name":"Nayim Gaji","so":"Jiya Udeen","crimeno":"79/14","Section":"307,506,ipc","Address":"Purva Afjalurahim Thana Kotwali Meerut"},{"Name":"Waseem  Gaji","so":"Bhulan Gaji","crimeno":"79/15","Section":"307,506,ipc","Address":"Purva Afjalurahim Thana Kotwali Meerut"},{"Name":"Sonu","so":"Mohd. Maam","crimeno":"138/14","Section":"174,148,504,323,ipc","Address":"Pujala Complex Bhagat Singh Market Thanakotwali"},{"Name":"Mohd. Maam","so":"Nil","crimeno":"138/15","Section":"174,148,504,323,ipc","Address":"Pujala Complex Bhagat Singh Market Thanakotwali"},{"Name":"Anas","so":"Mohd. Maam","crimeno":"138/16","Section":"174,148,504,323,ipc","Address":"Pujala Complex Bhagat Singh Market Thanakotwali"},{"Name":"Rahul","so":"Radha Shyam","crimeno":"139/14","Section":"452,323,504 Ipc","Address":"Podiwada Thana Kotwali Meerut"},{"Name":"Waseem Ilahi Aka Ali","so":"Noor Ilahi","crimeno":"142/14","Section":"302,201,394,411 Ipc","Address":"25 Purvaabdulwali Thana Kotwali Meerut"}],"electionCrimes":[{"Name":"Nil","so":"Nil","crimeno":"Nil","Section":"Nil","Address":"Nil"}],"politician":[{"Name":"Nil","so":"Nil","Address":"Nil","Phone":"Nil"}],"boundDownUnder":"Nil","vulnerabilityDetails":"General","warrantedCriminals":[{"Name":"Nil","so":"Nil","Address":"Nil","Phone":"Nil"}],"condition":"Good"},{"stationID":"KT-02","stationName":"ismile international girls inter college bhudana gate","latitude":"28.98154","longitude":"77.70694","polingCenterPhoto":"../img/mediPanchayat.png","routes":"../img/3.png","collectionPoint":"../img/3.png","population":"Nil","voters":"3200","villageMohalla":"purva aahiran,shivpuri,sangdha","path":"#/menu/tab/medicalDetails","respectedPpl":[{"Name":"Gaurav Naamdev","so":"Sudheerkumar","Address":"36 Bhatwada","Phone":"9358425341"},{"Name":"Ram Singh","so":"Nil","Address":"Nil","Phone":"9411792277"}],"retiredGovtSer":[{"Name":"Ramsingh Yadav","so":"Bhajan Lal","Address":"Evij Road Bhudanagate","Phone":"9411792277"}],"neighbourPolling":[{"Name":"Shankar Dayal","so":"Nil","Address":"Nil","Phone":"9319310828"},{"Name":"Sourav","so":"Nil","Address":"Nil","Phone":"9368137477"},{"Name":"Rohit","so":"Nil","Address":"Nil","Phone":"8909988325"},{"Name":"Shubham","so":"Nil","Address":"Nil","Phone":"7060647679"}],"armsLicenseHolder":[{"Name":"mohit bhatiya","so":"hariom","Address":"bhudanagate","Phone":"n/a","Weapon":"n/a"},{"Name":"ragbander mittal","so":"ramkishan mittal","Address":"94 bhudangate","Phone":"n/a","Weapon":"n/a"},{"Name":"ashis kumar","so":"jay narayan duvadi","Address":"khata road bhudangate","Phone":"n/a","Weapon":"n/a"},{"Name":"bablu kumar","so":"chote","Address":"429 bhudana gate","Phone":"n/a","Weapon":"n/a"},{"Name":"sunil mittal","so":"ramnivas","Address":"66 bhudana gate","Phone":"n/a","Weapon":"n/a"},{"Name":"krishan kumar","so":"bakalal","Address":"273 bhudan gate","Phone":"n/a","Weapon":"n/a"},{"Name":"ramaan mittal","so":"ramkishan mittal","Address":"94 bhudana gate","Phone":"n/a","Weapon":"n/a"},{"Name":"ghanshyam kumar","so":"shuresh chandra","Address":"bhudana gate","Phone":"n/a","Weapon":"n/a"},{"Name":"bhavab rastogi","so":"hadeshwat","Address":"389 prabhat nagar","Phone":"n/a","Weapon":"n/a"},{"Name":"najeer ahamad","so":"karim","Address":"bhudangate","Phone":"n/a","Weapon":"n/a"},{"Name":"mukesh kumar","so":"mangal prakash","Address":"504 bhudana gate","Phone":"n/a","Weapon":"n/a"},{"Name":"gaurav phatak","so":"anil kumar","Address":"bhudana gate","Phone":"n/a","Weapon":"n/a"}],"chowkidar":[{"Name":"Nil","so":"Nil","Address":"Nil","Phone":"Nil"}],"councellor":[{"Name":"gauravnaamdev","so":"shudeer kumar","Address":"36 vedwada","Phone":"9358425341"}],"historySheeter":[{"Name":"Salaudeen","so":"Aalaudeen","Address":"H.no.- 726 Shangada","Status":"P","Phone":"Nil"},{"Name":"Dhanpat","so":"Ramji Lal","Address":"Ramchandra Ka Aahata","Status":"L","Phone":"Nil"}],"convictedCriminals":[{"Name":"Nil","so":"Nil","Address":"Nil","Status":"Nil","Phone":"Nil"},{"Name":"Nil","so":"Nil","Address":"Nil","Status":"Nil","Phone":"Nil"}],"crimes5Yrs":[{"Name":"Anand Kumar","so":"Rajender Singh","crimeno":"248/14","Section":"323,352,324 Ipc","Address":"Purva Ahiran"},{"Name":"Amar Deep","so":"Rajender Singh","crimeno":"248/15","Section":"323,352,324 Ipc","Address":"Purva Ahiran"},{"Name":"Pramod","so":"Jyoti Prashad","crimeno":"50/16","Section":"323,325 Ipc","Address":"203 Purva Ahiran"},{"Name":"Bitto","so":"Jyoti Prashad","crimeno":"50/17","Section":"323,325 Ipc","Address":"204 Purva Ahiran"}],"electionCrimes":[{"Name":"Nil","so":"Nil","crimeno":"Nil","Section":"Nil","Address":"Nil"}],"politician":[{"Name":"Nil","so":"Nil","Address":"Nil","Phone":"Nil"}],"boundDownUnder":"Nil","vulnerabilityDetails":"General","warrantedCriminals":[{"Name":"Nil","so":"Nil","Address":"Nil","Phone":"Nil"}],"condition":"Good"},{"stationID":"KT-03","stationName":"sanatan dharam girls inter college bhudangate","latitude":"28.98100","longitude":"7770694","polingCenterPhoto":"../img/mediPanchayat.png","routes":"../img/3.png","collectionPoint":"../img/3.png","population":"Nil","voters":"1215","villageMohalla":"Bbudangate, purva japtakha, khata road","path":"#/menu/tab/medicalDetails","respectedPpl":[{"Name":"Pyiush Shastri","so":"Rajkishor Shastri","Address":"Jati Wada","Phone":"9837090692"},{"Name":"Gaurav Naamdev","so":"Shudeer Kumar","Address":"Ved Wada","Phone":"9358425341"}],"retiredGovtSer":[{"Name":"nil","so":"nil","Address":"nil","Phone":"nil"}],"neighbourPolling":[{"Name":"Sonu","so":"Nil","Address":"Bhudana Gate","Phone":"7351730127"},{"Name":"Sachin Kumar","so":"Nil","Address":"Bhudana Gate","Phone":"9719539460"},{"Name":"Grees Kumar","so":"Nil","Address":"Bhudana Gate","Phone":"9897504305"},{"Name":"Amit Kumar","so":"Nil","Address":"Bhudana Gate","Phone":"9897615475"}],"armsLicenseHolder":[{"Name":"Pankaj Duvadi","so":"Jay Narayan Duvadi","Address":"209 Bhudan Gate","Phone":"Nil"},{"Name":"Aamish Sharma","so":"Kantik Sharma","Address":"74 Bhudana Gate","Phone":"Nil"},{"Name":"Sharad Vyash","so":"Ekadaat Vyash","Address":"Bhudan Gate","Phone":"Nil"},{"Name":"Noor Aalam","so":"Sahabudeen","Address":"Katha Road Bhudana Gate","Phone":"Nil"},{"Name":"Balbeer Saroop","so":"Nil","Address":"18 Budhan Gate","Phone":"Nil"},{"Name":"Haresh Chandr","so":"Nil","Address":"Pili Khoti Bhudana Gate","Phone":"Nil"},{"Name":"Ajeet Singh","so":"Griri Lal Singh","Address":"411 Bhudan Gate","Phone":"Nil"},{"Name":"Abdul Sahid","so":"Abdul Vahid","Address":"77 Purva Bhudana Gate","Phone":"Nil"},{"Name":"Mohd. Aafak Aahmed","so":"Mohd. Naseer","Address":"230 Bhudana Gate","Phone":"Nil"},{"Name":"Rakesh Kumar Sharma","so":"Vishva Nath","Address":"Pili Khoti Bhudana Gate","Phone":"Nil"},{"Name":"Shyamshundar Lal","so":"Bhagvat Prashad","Address":"508 Pili Khoti Bhudana Gate","Phone":"Nil"}],"chowkidar":[{"Name":"Nil","so":"Nil","Address":"Nil","Phone":"Nil"}],"councellor":[{"Name":"gaurav naamdev","so":"shudeer kumar","Address":"36 vedwada","Phone":"9358425341"}],"historySheeter":[{"Name":"Samshad","so":"Ahsaan","Address":"Purva Japta Kha","Status":"N/a","Phone":"Nil"},{"Name":"Javed","so":"Ekwal","Address":"Khataroad","Status":"P","Phone":"Nil"}],"convictedCriminals":[{"Name":"Nil","so":"Nil","Address":"Nil","Status":"Nil","Phone":"Nil"},{"Name":"Nil","so":"Nil","Address":"Nil","Status":"Nil","Phone":"Nil"}],"crimes5Yrs":[{"Name":"Safeek","so":"Sarif","crimeno":"227/12","Section":"324,323,504,506 Ipc","Address":"Khata  Road"},{"Name":"Suhal","so":"Sarif","crimeno":"227/13","Section":"324,323,504,506 Ipc","Address":"Khata  Road"},{"Name":"Gunraj","so":"Abdul Satar","crimeno":"227/14","Section":"324,323,504,506 Ipc","Address":"Imliyan"},{"Name":"Ikram","so":"Sahabudeen","crimeno":"242/14","Section":"394,323,504,506 Ipc","Address":"Intoowali Gali Bhudana Gate"},{"Name":"Arif","so":"Sahabudeen","crimeno":"242/15","Section":"394,323,504,506 Ipc","Address":"Intoowali Gali Bhudana Gate"},{"Name":"Anurag Sharma","so":"Prem Krishan Sharma","crimeno":"64/15","Section":"302 Ipc","Address":"Pili Khoti Bhudana Gate"},{"Name":"","so":"","crimeno":"","Section":"","Address":""}],"electionCrimes":[{"Name":"Nil","so":"Nil","crimeno":"Nil","Section":"Nil","Address":"Nil"}],"politician":[{"Name":"Nil","so":"Nil","Address":"Nil","Phone":"Nil"}],"boundDownUnder":"Nil","vulnerabilityDetails":"General","warrantedCriminals":[{"Name":"Nil","so":"Nil","Address":"Nil","Phone":"Nil"}],"condition":"Good"},{"stationID":"KT-04","stationName":"nagar nigam ucch prathmik vidhyaliya purva aahiran","latitude":" 28.97961","longitude":"77.70930","polingCenterPhoto":"../img/mediPanchayat.png","routes":"../img/3.png","collectionPoint":"../img/3.png","population":"Nil","voters":"1332","villageMohalla":"saraysafi, sapheer jadid","path":"#/menu/tab/medicalDetails","respectedPpl":[{"Name":"Deepak Manotiya","so":"Nil","Address":"Nil","Phone":"9837980172"},{"Name":"Rahul Galod","so":"Nil","Address":"Nil","Phone":"9759835835"},{"Name":"Shuresh Mahrol","so":"Nil","Address":"Nil","Phone":"9219092317"}],"retiredGovtSer":[{"Name":"Deepak Manotiya","so":"Nil","Address":"Nil","Phone":"9837980172"},{"Name":"Rahul Ghaloth","so":"Nil","Address":"Nil","Phone":"9759835835"}],"neighbourPolling":[{"Name":"Rahul Ghalot","so":"Nil","Address":"Nil","Phone":"9759835835"},{"Name":"Rajesh Sharma","so":"Nil","Address":"Nil","Phone":"8392841505"},{"Name":"Sanjeev Mittal","so":"Nil","Address":"Nil","Phone":"9219514221"},{"Name":"Mhod. Sarfaraz","so":"Nil","Address":"Nil","Phone":"9837350382"},{"Name":"Rakesh Katariya","so":"Nil","Address":"Nil","Phone":"9412366140"}],"armsLicenseHolder":[{"Name":"Mohd. Akhlak","so":"Kamir Mulla","Address":"25 Purva Ahiran","Phone":"Nil","Weapon":"Nil"},{"Name":"Itkar Ulhak","so":"Faizal","Address":"22 Purva Ahiran","Phone":"Nil","Weapon":"Nil"},{"Name":"Ajay Kumar","so":"Pawan Kumar","Address":"Purva Ahiran","Phone":"Nil","Weapon":"Nil"},{"Name":"Sandeep Bhatiya","so":"Hariom Bhatiya","Address":"50 Purva Ahiran","Phone":"Nil","Weapon":"Nil"},{"Name":"Narash Kumar","so":"Ram Prashad","Address":"205 Purva Ahiran","Phone":"Nil","Weapon":"Nil"},{"Name":"Davender Kumar","so":"Murlilal","Address":"198 Purva Ahiran","Phone":"Nil","Weapon":"Nil"},{"Name":"Amit Kumar","so":"Ratan Lal","Address":"Purva Ahiran","Phone":"Nil","Weapon":"Nil"},{"Name":"Mohd.irfan","so":"Haji Wali","Address":"272 Purva Ahiran","Phone":"Nil","Weapon":"Nil"},{"Name":"Davender Kumar","so":"Murlilal","Address":"198 Purva Ahiran","Phone":"Nil","Weapon":"Nil"}],"chowkidar":[{"Name":"Nil","so":"Nil","Address":"Nil","Phone":"Nil"}],"councellor":[{"Name":"shaidaa","so":"hifarzul rahman","Address":"36 bhatwada","Phone":"9897347462"}],"historySheeter":[{"Name":"Mukesh Kumar","so":"Jagdesh","Address":"244 Purva Ahiran","Status":"N/a","Phone":"Nil"},{"Name":"Kalu","so":"Shriram","Address":"Purva Ahiran","Status":"N/a","Phone":"Nil"},{"Name":"Ekbal Aka Raja","so":"Maharajudeen","Address":"275 Safir Gate","Status":"J","Phone":"Nil"}],"convictedCriminals":[{"Name":"Nil","so":"Nil","Address":"Nil","Status":"Nil","Phone":"Nil"},{"Name":"Nil","so":"Nil","Address":"Nil","Status":"Nil","Phone":"Nil"}],"crimes5Yrs":[{"Name":"Safeek","so":"Sarif","crimeno":"227/12","Section":"324,323,504,506 Ipc","Address":"Khata  Road"},{"Name":"Suhal","so":"Sarif","crimeno":"227/13","Section":"324,323,504,506 Ipc","Address":"Khata  Road"},{"Name":"Gunraj","so":"Abdul Satar","crimeno":"227/14","Section":"324,323,504,506 Ipc","Address":"Imliyan"},{"Name":"Ikram","so":"Sahabudeen","crimeno":"242/14","Section":"394,323,504,506 Ipc","Address":"Intoowali Gali Bhudana Gate"},{"Name":"Arif","so":"Sahabudeen","crimeno":"242/15","Section":"394,323,504,506 Ipc","Address":"Intoowali Gali Bhudana Gate"},{"Name":"Anurag Sharma","so":"Prem Krishan Sharma","crimeno":"64/15","Section":"302 Ipc","Address":"Pili Khoti Bhudana Gate"},{"Name":"","so":"","crimeno":"","Section":"","Address":""}],"electionCrimes":[{"Name":"Nil","so":"Nil","crimeno":"Nil","Section":"Nil","Address":"Nil"}],"politician":[{"Name":"Nil","so":"Nil","Address":"Nil","Phone":"Nil"}],"boundDownUnder":"Nil","vulnerabilityDetails":"General","warrantedCriminals":[{"Name":"Nil","so":"Nil","Address":"Nil","Phone":"Nil"}],"condition":"Good"},{"stationID":"KT-05","stationName":"_nagar nigam kaniya prathmik vidhyaliya purva ahinan","latitude":" 28.97961","longitude":"77.70930","polingCenterPhoto":"../img/mediPanchayat.png","routes":"../img/3.png","collectionPoint":"../img/3.png","population":"Nil","voters":"2615","villageMohalla":"shapeergate, shufi  chowk","path":"#/menu/tab/medicalDetails","respectedPpl":[{"Name":"Deepak Manotiya","so":"Nil","Address":"Nil","Phone":"9837980172"},{"Name":"Rahul Galod","so":"Nil","Address":"Nil","Phone":"9759835835"},{"Name":"Shuresh Mahrol","so":"Nil","Address":"Nil","Phone":"9219092317"}],"retiredGovtSer":[{"Name":"Suresh Mahrol","so":"Nil","Address":"Nil","Phone":"9219092317"}],"neighbourPolling":[{"Name":"Rahul Ghalot","so":"Nil","Address":"Nil","Phone":"9759835835"},{"Name":"Rajesh Sharma","so":"Nil","Address":"Nil","Phone":"8392841505"},{"Name":"Sanjeev Mittal","so":"Nil","Address":"Nil","Phone":"9219514221"},{"Name":"Rakesh Katariya","so":"Nil","Address":"Nil","Phone":"9412366140"},{"Name":"Sarfaraz","so":"Nil","Address":"Nil","Phone":"5837350382"}],"armsLicenseHolder":[{"Name":"Radheshyam","so":"Shukenlan","Address":"162 Sapeer Jadid","Phone":"N/a","Weapon":"N/a"},{"Name":"Ranapratap Singh","so":"Navab Singh","Address":"Sahapeer Jadid","Phone":"N/a","Weapon":"N/a"},{"Name":"Gayasu Deen","so":"Haji Rayajudeen","Address":"84/2 Sahapeer  Jadid","Phone":"N/a","Weapon":"N/a"},{"Name":"Mohd Asraf","so":"Haji Rayajudeen","Address":"84/2 Sahapeer  Jadid","Phone":"N/a","Weapon":"N/a"},{"Name":"Sunil Singh","so":"Niranjan Singh","Address":"9 Rajput Quater Indra Chowk","Phone":"N/a","Weapon":"N/a"},{"Name":"Haji Mohd Alsam","so":"Mhod Fasiudeen","Address":"274 Sahapeer Gate","Phone":"N/a","Weapon":"N/a"},{"Name":"Riyazudeen","so":"Hakeem Mulla","Address":"74 Sahapeer Gate","Phone":"N/a","Weapon":"N/a"},{"Name":"Suhal Ahamed","so":"Toophale Ahamed","Address":"268 Chohata Shapeer Gate","Phone":"N/a","Weapon":"N/a"},{"Name":"Sajid Safi","so":"Abdul Bhava","Address":"67/68 Shapeer Gate","Phone":"N/a","Weapon":"N/a"},{"Name":"Jagdesh Prashad","so":"Lt. Ramgopal","Address":"87 Sahapeer Gate","Phone":"N/a","Weapon":"N/a"},{"Name":"Ayajul Hasan","so":"Ziyahul Hasan","Address":"292 Sahapeer Gate","Phone":"N/a","Weapon":"N/a"}],"chowkidar":[{"Name":"Nil","so":"Nil","Address":"Nil","Phone":"Nil"}],"councellor":[{"Name":"shmt sahida","so":"hifarzur rahman","Address":" 321 batwada","Phone":"9897347462"}],"historySheeter":[{"Name":"Radheshyam","so":"Shukenlan","Address":"162 Sapeer Jadid","Phone":"N/a","Weapon":"N/a"},{"Name":"Ranapratap Singh","so":"Navab Singh","Address":"Sahapeer Jadid","Phone":"N/a","Weapon":"N/a"},{"Name":"Gayasu Deen","so":"Haji Rayajudeen","Address":"84/2 Sahapeer  Jadid","Phone":"N/a","Weapon":"N/a"},{"Name":"Mohd Asraf","so":"Haji Rayajudeen","Address":"84/2 Sahapeer  Jadid","Phone":"N/a","Weapon":"N/a"},{"Name":"Sunil Singh","so":"Niranjan Singh","Address":"9 Rajput Quater Indra Chowk","Phone":"N/a","Weapon":"N/a"},{"Name":"Haji Mohd Alsam","so":"Mhod Fasiudeen","Address":"274 Sahapeer Gate","Phone":"N/a","Weapon":"N/a"},{"Name":"Riyazudeen","so":"Hakeem Mulla","Address":"74 Sahapeer Gate","Phone":"N/a","Weapon":"N/a"},{"Name":"Suhal Ahamed","so":"Toophale Ahamed","Address":"268 Chohata Shapeer Gate","Phone":"N/a","Weapon":"N/a"},{"Name":"Sajid Safi","so":"Abdul Bhava","Address":"67/68 Shapeer Gate","Phone":"N/a","Weapon":"N/a"},{"Name":"Jagdesh Prashad","so":"Lt. Ramgopal","Address":"87 Sahapeer Gate","Phone":"N/a","Weapon":"N/a"},{"Name":"Ayajul Hasan","so":"Ziyahul Hasan","Address":"292 Sahapeer Gate","Phone":"N/a","Weapon":"N/a"}],"convictedCriminals":[{"Name":"haji mhetab","so":"abdul rajak","Address":"152 shapeer gate ","Status":"Nil","Phone":"Nil"}],"crimes5Yrs":[{"Name":"Safeek","so":"Sarif","crimeno":"227/12","Section":"324,323,504,506 Ipc","Address":"Khata  Road"},{"Name":"Suhal","so":"Sarif","crimeno":"227/13","Section":"324,323,504,506 Ipc","Address":"Khata  Road"},{"Name":"Gunraj","so":"Abdul Satar","crimeno":"227/14","Section":"324,323,504,506 Ipc","Address":"Imliyan"},{"Name":"Ikram","so":"Sahabudeen","crimeno":"242/14","Section":"394,323,504,506 Ipc","Address":"Intoowali Gali Bhudana Gate"},{"Name":"Arif","so":"Sahabudeen","crimeno":"242/15","Section":"394,323,504,506 Ipc","Address":"Intoowali Gali Bhudana Gate"},{"Name":"Anurag Sharma","so":"Prem Krishan Sharma","crimeno":"64/15","Section":"302 Ipc","Address":"Pili Khoti Bhudana Gate"},{"Name":"","so":"","crimeno":"","Section":"","Address":""}],"electionCrimes":[{"Name":"Salim Anshari ( Bsp Candidate )","so":"N/a","crimeno":"23/12.","Section":"171e,188 Ipc & 123 Lok Pretnidhi Act","Address":"N/a"}],"politician":[{"Name":"Nil","so":"Nil","Address":"Nil","Phone":"Nil"}],"boundDownUnder":"Nil","vulnerabilityDetails":"General","warrantedCriminals":[{"Name":"Nil","so":"Nil","Address":"Nil","Phone":"Nil"}],"condition":"Good"},{"stationID":"KT-06","stationName":"prathmik vidhyaliya purva ahiran","latitude":" 28.97961","longitude":"77.70930","polingCenterPhoto":"../img/mediPanchayat.png","routes":"../img/3.png","collectionPoint":"../img/3.png","population":"Nil","voters":"909","villageMohalla":"Sahapeer gate, jahidiyan,daudgram","path":"#/menu/tab/medicalDetails","respectedPpl":[{"Name":"Deepak Manotiya","so":"N/a","Address":"N/a","Phone":"9837980172"},{"Name":"Suresh Maharol","so":"N/a","Address":"N/a","Phone":"9219092317"}],"retiredGovtSer":[{"Name":"Rahul Ghalot","so":"N/a","Address":"N/a","Phone":"9759835835"}],"neighbourPolling":[{"Name":"Rahul Ghalot","so":"N/a","Address":"N/a","Phone":"9759835835"},{"Name":"Rajesh Sharma","so":"N/a","Address":"N/a","Phone":"8392841505"},{"Name":"Sanjeev Mittal","so":"N/a","Address":"N/a","Phone":"9219514221"},{"Name":"Rakesh Katariya","so":"N/a","Address":"N/a","Phone":"9412366140"},{"Name":"Mohd.sarfaraz","so":"N/a","Address":"N/a","Phone":"9837350382"}],"armsLicenseHolder":[{"Name":"Pyuish Sharma","so":"S.s. Sharma","Address":"165 Shapeer Gate","Phone":"N/a","Weapon":"N/a"},{"Name":"Haji Zarir Ahmed","so":"Haji Zaheer","Address":"420 Shapeer Gate","Phone":"N/a","Weapon":"N/a"},{"Name":"Mohd Hasim","so":"Haji Zaheer","Address":"421 Shapeer Gate","Phone":"N/a","Weapon":"N/a"},{"Name":"Habibur Rahman","so":"Safikur Rahaman","Address":"137 Sahapeer Gate","Phone":"N/a","Weapon":"N/a"},{"Name":"Mohd Salim","so":"Islam","Address":"580 Shapeer Gate","Phone":"N/a","Weapon":"N/a"},{"Name":"Shubadra Devi","so":"W/o Bharat Lal","Address":"165 Shapeer Gate","Phone":"N/a","Weapon":"N/a"},{"Name":"Zafar Aalam","so":"Afzal Ahamed","Address":"6 Sahapeer Gate","Phone":"N/a","Weapon":"N/a"},{"Name":"Mumtaj Aalam","so":"Afzal Ahamed","Address":"8sahapeer Gate","Phone":"N/a","Weapon":"N/a"}],"chowkidar":[{"Name":"Nil","so":"Nil","Address":"Nil","Phone":"Nil"}],"councellor":[{"Name":"shaida ","2wo":"hifarzul rahman","Address":" 321 bhatwada","Phone":"9897347462"}],"historySheeter":[{"Name":"Hemant Kumar Sharma","so":"Krishna Kumar Sharma","Address":"Purva Ahiran","Status":"N/a","Phone":"N/a"},{"Name":"Sahid","so":"Yamin","Address":"Chohata Shapeergate","Status":"N/a","Phone":"N/a"},{"Name":"Kalu Aka Raju","so":"Shriram","Address":"Purva Ahiran","Status":"P","Phone":"N/a"}],"convictedCriminals":[{"Name":"haji mhetab","so":"abdul rajak","Address":"152 shapeer gate ","Status":"Nil","Phone":"Nil"}],"crimes5Yrs":[{"Name":"Safeek","so":"Sarif","crimeno":"227/12","Section":"324,323,504,506 Ipc","Address":"Khata  Road"},{"Name":"Suhal","so":"Sarif","crimeno":"227/13","Section":"324,323,504,506 Ipc","Address":"Khata  Road"},{"Name":"Gunraj","so":"Abdul Satar","crimeno":"227/14","Section":"324,323,504,506 Ipc","Address":"Imliyan"},{"Name":"Ikram","so":"Sahabudeen","crimeno":"242/14","Section":"394,323,504,506 Ipc","Address":"Intoowali Gali Bhudana Gate"},{"Name":"Arif","so":"Sahabudeen","crimeno":"242/15","Section":"394,323,504,506 Ipc","Address":"Intoowali Gali Bhudana Gate"},{"Name":"Anurag Sharma","so":"Prem Krishan Sharma","crimeno":"64/15","Section":"302 Ipc","Address":"Pili Khoti Bhudana Gate"},{"Name":"","so":"","crimeno":"","Section":"","Address":""}],"electionCrimes":[{"Name":"Salim Anshari ( Bsp Candidate )","so":"N/a","crimeno":"23/12.","Section":"171e,188 Ipc & 123 Lok Pretnidhi Act","Address":"N/a"}],"politician":[{"Name":"Nil","so":"Nil","Address":"Nil","Phone":"Nil"}],"boundDownUnder":"Nil","vulnerabilityDetails":"General","warrantedCriminals":[{"Name":"Nil","so":"Nil","Address":"Nil","Phone":"Nil"}],"condition":"Good"},{"stationID":"KT-07","stationName":"urdu medium school husnabegun memo nogaja","latitude":"28.97750","longitude":"77.70978","polingCenterPhoto":"../img/mediPanchayat.png","routes":"../img/3.png","collectionPoint":"../img/3.png","population":"Nil","voters":"875","villageMohalla":"naugaza","path":"#/menu/tab/medicalDetails","respectedPpl":[{"Name":"Dr. Faruk Ahmed","so":"N/a","Address":"N/a","Phone":"9286166870"},{"Name":"Sareef","so":"N/a","Address":"N/a","Phone":"98972308072"}],"retiredGovtSer":[{"Name":"Rafeek Ahamed","so":"Fazal Ahemed","Address":"N/a","Phone":"9719324876"}],"neighbourPolling":[{"Name":"Irshad","so":"Raj Mohd.","Address":"N/a","Phone":"9358423546"},{"Name":"Pankaj Kashyp","so":"N/a","Address":"N/a","Phone":"8909505901"},{"Name":"Safeek Kamrar","so":"N/a","Address":"N/a","Phone":"9897238070"},{"Name":"Naushad","so":"N/a","Address":"N/a","Phone":"8439038530"},{"Name":"Afafak","so":"N/a","Address":"N/a","Phone":"9027276427"}],"armsLicenseHolder":[{"Name":"Nayeem  Ahmed","so":"Naseem Ahmed","Address":"237 Naugaza","Phone":"N/a","Weapon":"N/a"},{"Name":"Mohd. Saleem","so":"Mhod. Yushuf","Address":"189 Naugaza","Phone":"N/a","Weapon":"N/a"},{"Name":"Azar Ahemed","so":"Zafar Ahemed","Address":"56 Naugaza","Phone":"N/a","Weapon":"N/a"},{"Name":"Sakeel Ahmed","so":"Jamil Ahemed","Address":"Naugaza","Phone":"N/a","Weapon":"N/a"},{"Name":"Karan Singh","so":"Khadak Singh","Address":"39 Naugaza","Phone":"N/a","Weapon":"N/a"},{"Name":"Mahaveer","so":"Lt. Ramprashed","Address":"49 Naugaza","Phone":"N/a","Weapon":"N/a"}],"chowkidar":[{"Name":"Nil","so":"Nil","Address":"Nil","Phone":"Nil"}],"councellor":[{"Name":"gauravnaamdev","so":"shudeer kumar","Address":"36 vedwada","Phone":"9358425341"}],"historySheeter":[{"Name":"Saheen","so":"Mahazar","Address":"Chauta Sahapeer Gate","Status":"Jail","Phone":"N/a"}],"convictedCriminals":[{"Name":"Nil","so":"Nil","Address":"Nil","Status":"Nil","Phone":"Nil"},{"Name":"Nil","so":"Nil","Address":"Nil","Status":"Nil","Phone":"Nil"}],"crimes5Yrs":[{"Name":"Anand Kumar","so":"Rajender Singh","crimeno":"248/14","Section":"323,352,324 Ipc","Address":"Purva Ahiran"},{"Name":"Amar Deep","so":"Rajender Singh","crimeno":"248/15","Section":"323,352,324 Ipc","Address":"Purva Ahiran"},{"Name":"Pramod","so":"Jyoti Prashad","crimeno":"50/16","Section":"323,325 Ipc","Address":"203 Purva Ahiran"},{"Name":"Bitto","so":"Jyoti Prashad","crimeno":"50/17","Section":"323,325 Ipc","Address":"204 Purva Ahiran"}],"electionCrimes":[{"Name":"Nil","so":"Nil","crimeno":"Nil","Section":"Nil","Address":"Nil"}],"politician":[{"Name":"Nil","so":"Nil","Address":"Nil","Phone":"Nil"}],"boundDownUnder":"Nil","vulnerabilityDetails":"General","warrantedCriminals":[{"Name":"Nil","so":"Nil","Address":"Nil","Phone":"Nil"}],"condition":"Good"},{"stationID":"KT-08","stationName":"basik prathmik vidhyalya bhatwada chowk","latitude":"28.97838","longitude":"77.70954","polingCenterPhoto":"../img/mediPanchayat.png","routes":"../img/3.png","collectionPoint":"../img/3.png","population":"Nil","voters":"1069","villageMohalla":"naugaza, bhatwada","path":"#/menu/tab/medicalDetails","respectedPpl":[{"Name":"Gaurav Naamdev","so":"N/a","Address":"N/a","Phone":"7669995064"},{"Name":"Rohit Sharma","so":"N/a","Address":"N/a","Phone":"9548446534"}],"retiredGovtSer":[{"Name":"Rafeek Ahamed","so":"Fazal Ahemed","Address":"N/a","Phone":"9719324876"}],"neighbourPolling":[{"Name":"Gaurav Sharma","so":"N/a","Address":"N/a","Phone":"9927766344"},{"Name":"Rohit Sharma","so":"N/a","Address":"N/a","Phone":"9548446534"},{"Name":"Bharat Sharma","so":"N/a","Address":"N/a","Phone":"9897843758"},{"Name":"Deepak Naamdev","so":"N/a","Address":"N/a","Phone":"9359959984"},{"Name":"Krishna Goel","so":"N/a","Address":"N/a","Phone":"9259505184"}],"armsLicenseHolder":[{"Name":"Salaudeen","so":"Mohd. Yasheen","Address":"201 Bhatwada P.s.kotwali","Phone":"N/a","Weapon":"N/a"},{"Name":"Prakash Chand","so":"Kaniti Chand","Address":"242 Bhatwada","Phone":"N/a","Weapon":"N/a"},{"Name":"Sharad Kumar","so":"Abdul Rehman","Address":"171 Bhatwada","Phone":"N/a","Weapon":"N/a"},{"Name":"Mohit Agarwal","so":"Lokesh Kumar","Address":"2 Bhatwada","Phone":"N/a","Weapon":"N/a"},{"Name":"Mohd. Quasim","so":"Rehman","Address":"171 Bhatwada","Phone":"9719414400","Weapon":"N/a"},{"Name":"Shrwyasingh Bhati","so":"Rajaram Bhati","Address":"Bhat Wada","Phone":"N/a","Weapon":"N/a"},{"Name":"Amir Sikander","so":"Abdul Rehman","Address":"171bhatwada","Phone":"N/a","Weapon":"N/a"},{"Name":"Mohd.akil","so":"Aalaudeen","Address":"201 Bhatwada P.s.kotwali","Phone":"N/a","Weapon":"N/a"},{"Name":"Sunil Kumar","so":"Hari Gopal","Address":"376 Bhatwada","Phone":"9756980000","Weapon":"N/a"},{"Name":"Sanjeev Gupta","so":"Hari Gopal","Address":"376 Bhatwada","Phone":"8444555666","Weapon":"N/a"}],"chowkidar":[{"Name":"Nil","so":"Nil","Address":"Nil","Phone":"Nil"}],"councellor":[{"Name":"gauravnaamdev","so":"shudeer kumar","Address":"36 vedwada","Phone":"9358425341"}],"historySheeter":[{"Name":"Shuresh Sharma","so":"Munshi Lal","Address":"Bhatwada","Status":"N/a","Phone":"N/a"}],"convictedCriminals":[{"Name":"Nil","so":"Nil","Address":"Nil","Status":"Nil","Phone":"Nil"},{"Name":"Nil","so":"Nil","Address":"Nil","Status":"Nil","Phone":"Nil"}],"crimes5Yrs":[{"Name":"nil","so":"nil","crimeno":"nil","Section":"nil","Address":"nil"}],"electionCrimes":[{"Name":"Nil","so":"Nil","crimeno":"Nil","Section":"Nil","Address":"Nil"}],"politician":[{"Name":"Nil","so":"Nil","Address":"Nil","Phone":"Nil"}],"boundDownUnder":"Nil","vulnerabilityDetails":"critical","warrantedCriminals":[{"Name":"Nil","so":"Nil","Address":"Nil","Phone":"Nil"}],"condition":"Good"},{"stationID":"KT-09","stationName":"prathmik vidhyalya bhatwada","latitude":" 28.97838","longitude":"77.70954","polingCenterPhoto":"../img/mediPanchayat.png","routes":"../img/3.png","collectionPoint":"../img/3.png","population":"Nil","voters":"700","villageMohalla":"bhatwada","path":"#/menu/tab/medicalDetails","respectedPpl":[{"Name":"Gaurav Naamdev","so":"N/a","Address":"N/a","Phone":"7669995064"},{"Name":"Rohit Sharma","so":"N/a","Address":"N/a","Phone":"9548446534"}],"retiredGovtSer":[{"Name":"nil","so":"nil","Address":"nil","Phone":"nil"}],"neighbourPolling":[{"Name":"Gaurav  Sharma","so":"N/a","Address":"N/a","Phone":"9927766344"},{"Name":"Rohitsharma","so":"N/a","Address":"N/a","Phone":"9548446534"},{"Name":"Bharat Sharma","so":"N/a","Address":"N/a","Phone":"9897843758"},{"Name":"Deepak Naam Dev","so":"N/a","Address":"N/a","Phone":"9359959984"},{"Name":"Krishna Goel","so":"N/a","Address":"N/a","Phone":"9259505184"}],"armsLicenseHolder":[{"Name":"Shubash Verma","so":"Ramavtar Verma","Address":"271 Holi Mohla Bhatwada","Phone":"N/a","Weapon":"N/a"},{"Name":"Mahesh Chand Shukla","so":"Rameshver Prashad Shukla","Address":"N/a","Phone":"N/a","Weapon":"N/a"},{"Name":"Noor Aalam","so":"Sahabudeen","Address":"Khata Road Bhudangate","Phone":"N/a","Weapon":"N/a"}],"chowkidar":[{"Name":"Nil","so":"Nil","Address":"Nil","Phone":"Nil"}],"councellor":[{"Name":"gauravnaamdev","so":"shudeer kumar","Address":"36 vedwada","Phone":"9358425341"}],"historySheeter":[{"Name":"Shuresh Sharma","so":"Munshi Lal","Address":"Bhatwada","Status":"N/a","Phone":"N/a"}],"convictedCriminals":[{"Name":"Nil","so":"Nil","Address":"Nil","Status":"Nil","Phone":"Nil"},{"Name":"Nil","so":"Nil","Address":"Nil","Status":"Nil","Phone":"Nil"}],"crimes5Yrs":[{"Name":"nil","so":"nil","crimeno":"nil","Section":"nil","Address":"nil"}],"electionCrimes":[{"Name":"Nil","so":"Nil","crimeno":"Nil","Section":"Nil","Address":"Nil"}],"politician":[{"Name":"Nil","so":"Nil","Address":"Nil","Phone":"Nil"}],"boundDownUnder":"Nil","vulnerabilityDetails":"critical","warrantedCriminals":[{"Name":"Nil","so":"Nil","Address":"Nil","Phone":"Nil"}],"condition":"Good"},{"stationID":"KT-10","stationName":"_BAV inter colleg shubhash baza","latitude":"  28.97826","longitude":"77.70682","polingCenterPhoto":"../img/mediPanchayat.png","routes":"../img/3.png","collectionPoint":"../img/3.png","population":"Nil","voters":"2695","villageMohalla":"khandak, sahagasha, chipiwada, shubhasbazar, chahashoor","path":"#/menu/tab/medicalDetails","respectedPpl":[{"Name":"Millan Rastogi","so":"Arvind Rastogi","Address":"N/a","Phone":"9837036057"},{"Name":"Dr. Rahdho Prashad","so":"N/a","Address":"N/a","Phone":"8979719969"},{"Name":"Dr. Mukesh Kumar","so":"N/a","Address":"N/a","Phone":"9412702524"},{"Name":"Sheeyad Nayar","so":"Moveen","Address":"N/a","Phone":"9412701420"}],"retiredGovtSer":[{"Name":"nil","so":"nil","Address":"nil","Phone":"nil"}],"neighbourPolling":[{"Name":"Lokesh Sharma","so":"Uma Chand Sharma","Address":"N/a","Phone":"9368606010"},{"Name":"Anil Mohan","so":"Madan Mohan Lal","Address":"N/a","Phone":"0121-2420149"},{"Name":"Dr.bhavav Jain","so":"N/a","Address":"N/a","Phone":"9897066504"},{"Name":"Sagar","so":"Ashok Kumar","Address":"N/a","Phone":"92568034400"},{"Name":"Mukesh Jain","so":"Lt. Mahendra Kumar","Address":"N/a","Phone":"9837527875"}],"armsLicenseHolder":[{"Name":"Ajay Kumar","so":"Prem Sunder","Address":"79 Khandak Street","Phone":"N/a","Weapon":"N/a"},{"Name":"Kamta Nath","so":"Naam Nath","Address":"265 Khandak Street","Phone":"N/a","Weapon":"N/a"},{"Name":"Ramlal Agrawal","so":"Shambhu Ram","Address":"33 Khandak Street","Phone":"N/a","Weapon":"N/a"},{"Name":"Arun Kumar","so":"Prem Sunder","Address":"130,131 Khandak","Phone":"9997001451","Weapon":"N/a"},{"Name":"Mudit Kumar","so":"Krishan Mohan","Address":"220 Khandak","Phone":"9837188821","Weapon":"N/a"},{"Name":"Kamal Jain","so":"Rajkumar Jain","Address":"83 Khandak Bazar","Phone":"N/a","Weapon":"N/a"},{"Name":"Deepak Sharma","so":"Chandra Mohan Sharma","Address":"56/1 Khandak Bazar","Phone":"N/a","Weapon":"N/a"},{"Name":"Mohit Agrwal","so":"Lokesh Kumar","Address":"Shubhash Bazar","Phone":"N/a","Weapon":"N/a"},{"Name":"Mohd.imaran","so":"Yamin Kurashi","Address":"302 Shubhash Bazar","Phone":"N/a","Weapon":"N/a"},{"Name":"Aaktar Aalam","so":"Ssg","Address":"106 Shubhash Bazar","Phone":"9927259927","Weapon":"N/a"},{"Name":"Rajni Kant Sharma","so":"Papu Sharma","Address":"38 Shubhash Bazar","Phone":"N/a","Weapon":"N/a"},{"Name":"Mayank Sharma","so":"Ved Praksh","Address":"115 Shubhah Bazar","Phone":"N/a","Weapon":"N/a"}],"chowkidar":[{"Name":"Nil","so":"Nil","Address":"Nil","Phone":"Nil"}],"councellor":[{"Name":"mohd. arif","so":"Nil","Address":"Nil","Phone":"7520023474"}],"historySheeter":[{"Name":"Sharad Mohan","so":"Ashvani Sharma","Address":"127 Chipi Wada","Status":"N/a","Phone":"N/a"},{"Name":"Yuvraj Aka Paapa","so":"Virander Kumar Sharma","Address":"Kahandak Bazar","Status":"Present","Phone":"N/a"}],"convictedCriminals":[{"Name":"Nil","so":"Nil","Address":"Nil","Status":"Nil","Phone":"Nil"},{"Name":"Nil","so":"Nil","Address":"Nil","Status":"Nil","Phone":"Nil"}],"crimes5Yrs":[{"Name":"nil","so":"nil","crimeno":"nil","Section":"nil","Address":"nil"}],"electionCrimes":[{"Name":"Nil","so":"Nil","crimeno":"Nil","Section":"Nil","Address":"Nil"}],"politician":[{"Name":"Nil","so":"Nil","Address":"Nil","Phone":"Nil"}],"boundDownUnder":"Nil","vulnerabilityDetails":"critical","warrantedCriminals":[{"Name":"Nil","so":"Nil","Address":"Nil","Phone":"Nil"}],"condition":"Good"},{"stationID":"KT-11","stationName":"ismile national girls inter college purani tahseel","latitude":"  28.97599","longitude":"77.70580","polingCenterPhoto":"../img/mediPanchayat.png","routes":"../img/3.png","collectionPoint":"../img/3.png","population":"Nil","voters":"3311","villageMohalla":"ismile nagar-1, guzri bazar, tophchi wada, rayzad gran","path":"#/menu/tab/medicalDetails","respectedPpl":[{"Name":"Umed Hasan","so":"Zameeludin","Address":"N/a","Phone":"9760316690"},{"Name":"Kavar","so":"Manjur","Address":"N/a","Phone":"9358405671"}],"retiredGovtSer":[{"Name":"Irshad Ali","so":"It. Shyaeed Ali","Address":"Ismile Nagar","Phone":"9997615468"}],"neighbourPolling":[{"Name":"Mohd. Anjum Jamil","so":"Lt.jamil Aahmed","Address":"N/a","Phone":"9719106418"},{"Name":"Kapil Kumar","so":"N/a","Address":"N/a","Phone":"9997747742"},{"Name":"Arun Rastogi","so":"Lt. Ramkrishan","Address":"N/a","Phone":"9837219776"},{"Name":"Dr. Ghanshyam Das","so":"N/a","Address":"N/a","Phone":"9259516455"},{"Name":"Rahess Ahmad","so":"Sageer Ahmad","Address":"N/a","Phone":"7520297767"}],"armsLicenseHolder":[{"Name":"Yasar Jalish","so":"Jalish Ahmed","Address":"70 Thopchi Wada","Phone":"9358774459"},{"Name":"Rahul Aka Waseem","so":"Jalish Ahmed","Address":"70 Thopchi Wada","Phone":"N/a"},{"Name":"Sajid","so":"Lt. Iqwal","Address":"34 Thopchi Wada","Phone":"N/a"},{"Name":"Gyashood Deen","so":"Raheesu Deen","Address":"154 Thopchi Wada","Phone":"N/a"},{"Name":"Mahmooda Begum","so":"Nohd. Rafik","Address":"31 Thopchi Wada","Phone":"N/a"},{"Name":"Shabar Ahmed","so":"Salaudeen","Address":"25 Thopchi Wada","Phone":"N/a"},{"Name":"Deepak Rastogi","so":"Raghuveer Sharan","Address":"296 Thopchi Wada","Phone":"N/a"},{"Name":"Haji Abdul Gafar","so":"Lt. Azazudin","Address":"39 Thopchi Wada","Phone":"N/a"},{"Name":"Ishrar Ahmed","so":"Nasheerudeen","Address":"75 Thopchi Wada","Phone":"N/a"},{"Name":"Kalu Miya","so":"Azazudeen","Address":"Thopchio Wada","Phone":"N/a"},{"Name":"Zulf Kar","so":"Abdul Gafar","Address":"112 Thopchi Wada","Phone":"9997600777"}],"chowkidar":[{"Name":"Nil","so":"Nil","Address":"Nil","Phone":"Nil"}],"councellor":[{"Name":"mohd. arif","so":"Nil","Address":"Nil","Phone":"7520023474"}],"historySheeter":[{"Name":"Asif","so":"Sadeek","Address":"Ismile Nagar","Status":"Lapata","Phone":"N/a"},{"Name":"Asif Aka Bhura","so":"Abdul Sadtar","Address":"Thopchi Wada","Status":"Present","Phone":"N/a"},{"Name":"Chand","so":"Ishak","Address":"Thopchi Wada","Status":"Present","Phone":"N/a"},{"Name":"Yad Ilahi","so":"Rahmat Ilahi","Address":"Ismile Nagar","Status":"Present","Phone":"N/a"},{"Name":"Yusuf","so":"Bhola","Address":"Ismile Nagar","Status":"Present","Phone":"N/a"},{"Name":"Sarik","so":"Sarfeef Aka Sammo","Address":"Ismile Nagar","Status":"Present","Phone":"N/a"},{"Name":"Anil Aka Bunty","so":"Virandera Jaat","Address":"Saraah Zina","Status":"Lapata","Phone":"N/a"},{"Name":"Sunilkumar","so":"Virandera Kumar","Address":"Saraah Zina","Status":"Lapata","Phone":"N/a"},{"Name":"Sunilkumar","so":"Kundan Lal","Address":"Khari Kuwa","Status":"Lapata","Phone":"N/a"},{"Name":"Irfan","so":"Shabeer","Address":"Saraah Zina","Status":"Lapata","Phone":"N/a"},{"Name":"Mustak","so":"Rafeek Ahmed","Address":"Ismile Nagar","Status":"Present","Phone":"N/a"}],"convictedCriminals":[{"Name":"Anas Langda","so":"Deen Mohmad","3status":"Topchiwada P.s. Kotwali","4address":"Punished"},{"Name":"Sarfaraz","so":"Deen Mohmad","3status":"Topchiwada P.s. Kotwali","4address":"Punished"},{"Name":"Sadab","so":"Umar Deen","3status":"Topchiwada P.s. Kotwali","4address":"Punished"},{"Name":"Mazid","so":"Babu Deen","3status":"Topchiwada P.s. Kotwali","4address":"N/a"},{"Name":"Aasif Aka Bhura","so":"Abdul Sattar","3status":"Topchiwada P.s. Kotwali","4address":"Punished"}],"crimes5Yrs":[{"Name":"nil","so":"nil","crimeno":"nil","Section":"nil","Address":"nil"}],"electionCrimes":[{"Name":"Mohd. Saheed","so":"126/14","crimeno":"188 Ipc","Section":"Guzri Bazar P.s. Kotwali","Address":"Bsp Lokshabaha Seat"},{"Name":"Mohd. Saheed Aklak","so":"130/14","crimeno":"171 J, 188 Ipc","Section":"N/a","Address":"Bsp Lokshabaha Seat"}],"politician":[{"Name":"Nil","so":"Nil","Address":"Nil","Phone":"Nil"}],"boundDownUnder":"Nil","vulnerabilityDetails":"critical","warrantedCriminals":[{"Name":"Nil","so":"Nil","Address":"Nil","Phone":"Nil"}],"condition":"Good"},{"stationID":"KT-12","stationName":"church city junior high school moripada","latitude":"   28.97492","longitude":"77.70767","polingCenterPhoto":"../img/mediPanchayat.png","routes":"../img/3.png","collectionPoint":"../img/3.png","population":"Nil","voters":"1655","villageMohalla":"moripada, krishna pada","path":"#/menu/tab/medicalDetails","respectedPpl":[{"Name":"Yougender Sharma","so":"N/a","Address":"N/a","Phone":"9897307376"},{"Name":"Mannoj Gupta","so":"N/a","Address":"N/a","Phone":"9837348925"},{"Name":"Rakesh Shastri","so":"N/a","Address":"N/a","Phone":"9837355129"},{"Name":"Mukesh Sharma","so":"N/a","Address":"N/a","Phone":"N/a"}],"retiredGovtSer":[{"Name":"nil","so":"nil","Address":"nil","Phone":"nil"}],"neighbourPolling":[{"Name":"Sanjeev Kumar","so":"Verander Kumar","Address":"N/a","Phone":"N/a"},{"Name":"Gaurav Sharma","so":"Lt. Trivadi Sharma","Address":"N/a","Phone":"9358401218"},{"Name":"Mohan Lal","so":"Ramsharan","Address":"N/a","Phone":"8192094619"},{"Name":"Prveen","so":"Narander Kumar","Address":"N/a","Phone":"8410608792"},{"Name":"Mukesh Kumar","so":"N/a","Address":"N/a","Phone":"7520917167"}],"armsLicenseHolder":[{"Name":"Shalab Sharma","so":"Surykant","Address":"6 Mori Pada","Phone":"8719982471","Weapon":"N/a"},{"Name":"Jay Kishan Sharma","so":"Hari Kishan Sharma","Address":"300 Mori Pada","Phone":"9412214714","Weapon":"N/a"},{"Name":"Sanjay Sharam","so":"Jay Kishan Sharma","Address":"300 Mori Pada","Phone":"9897073050","Weapon":"N/a"},{"Name":"Rajender Nath Sharma","so":"Vishvnath Sharma","Address":"260 Mori Pada","Phone":"N/a","Weapon":"N/a"},{"Name":"Umesh Chand","so":"Bihari Lal","Address":"279 Mori Pada","Phone":"N/a","Weapon":"N/a"},{"Name":"Vipin Kumar","so":"Kali Charan Sharma","Address":"284 Mori Pada","Phone":"N/a","Weapon":"N/a"},{"Name":"Sunil Dutt Sharma","so":"Shukveer","Address":"64 Mori Pada","Phone":"9837737060","Weapon":"N/a"},{"Name":"Sanjay Sharma","so":"Lt. Harparshad","Address":"63 Mori Pada","Phone":"N/a","Weapon":"N/a"},{"Name":"Bhavav Sharma","so":"N.k. Sharma","Address":"6 Mori Pada","Phone":"N/a","Weapon":"N/a"},{"Name":"Chandrshekher Sharma","so":"Shukveer Singh","Address":"92 Mori Pada","Phone":"N/a","Weapon":"N/a"},{"Name":"Anil Kumar","so":"Ram Kishan","Address":"75/2 Mori Pada","Phone":"9897479295","Weapon":"N/a"},{"Name":"Yogendar Kumar","so":"Raghuveer Sharma","Address":"193mori Pada","Phone":"9897307376","Weapon":""}],"chowkidar":[{"Name":"Nil","so":"Nil","Address":"Nil","Phone":"Nil"}],"councellor":[{"Name":"asif gazi","so":"Nil","Address":"Nil","Phone":"8791177007"}],"historySheeter":[{"Name":"Kaushal Kumar Sharma","so":"Om Prakash","Address":"Mori Pada","Status":"N/a","Phone":"N/a"}],"convictedCriminals":[{"Name":"pryia vrath aka munmun","so":"dharmender","3status":"Topchiwada P.s. Kotwali","4address":"Punished"},{"Name":"shasank sexana","so":"ashok sexana","3status":"Topchiwada P.s. Kotwali","4address":"Punished"}],"crimes5Yrs":[{"Name":"Movil","so":"Munna","crimeno":"192/11","Section":"323,307,506 Ipc","Address":"Krishnapada P.s. Kotwali"},{"Name":"Laala Aka Royeab","so":"Munna","crimeno":"192/11","Section":"323,307,506 Ipc","Address":"Krishnapada P.s. Kotwali"},{"Name":"Chota","so":"Munna","crimeno":"192/11","Section":"323,307,506 Ipc","Address":"Krishnapada P.s. Kotwali"},{"Name":"Naushad","so":"Marajudeen","crimeno":"192/11","Section":"323,307,506 Ipc","Address":"Krishnapada P.s. Kotwali"},{"Name":"Rajender","so":"Rajuu","crimeno":"196/12","Section":"323,324,506 Ipc","Address":"Maliwada P.s. Koltwali"},{"Name":"Amar Aka Tonny","so":"Rajender Giri","crimeno":"196/12","Section":"323,324,506 Ipc","Address":"Maliwada P.s. Koltwali"},{"Name":"Shasank Sexana","so":"Ashok Sexana","crimeno":"175/13","Section":"147,148,149,307,302,336 Ipc","Address":"Mori Pada"},{"Name":"Pryiavrat Aka Munmun","so":"Dharmendra","crimeno":"175/13","Section":"147,148,149,307,302,336 Ipc","Address":"Mori Pada"},{"Name":"Sonu","so":"Mohan Lal","crimeno":"175/13","Section":"147,148,149,307,302,336 Ipc","Address":"Mori Pada"},{"Name":"Monu Aka Amit","so":"Mohan Lal","crimeno":"175/13","Section":"147,148,149,307,302,336 Ipc","Address":"Mori Pada"},{"Name":"Deepak","so":"Padam Singh","crimeno":"175/13","Section":"147,148,149,307,302,336 Ipc","Address":"Jaati Wada Kumaaro Waligali P.s. Dheli Gate"},{"Name":"Pawan","so":"Braj Bhopal","crimeno":"175/13","Section":"147,148,149,307,302,336 Ipc","Address":"Jaati Wada Kumaaro Waligali P.s. Dheli Gate"},{"Name":"Pinto","so":"Malkhan","crimeno":"175/13","Section":"147,148,149,307,302,336 Ipc","Address":"Jaati Wada Kumaaro Waligali P.s. Dheli Gate"},{"Name":"Ajay","so":"Chamanlal","crimeno":"175/13","Section":"147,148,149,307,302,336 Ipc","Address":"Jaati Wada Kumaaro Waligali P.s. Dheli Gate"}],"electionCrimes":[{"Name":"nil","so":"nil","crimeno":"nil","Section":"Nil","Address":"nil"}],"politician":[{"Name":"Nil","so":"Nil","Address":"Nil","Phone":"Nil"}],"boundDownUnder":"Nil","vulnerabilityDetails":"critical","warrantedCriminals":[{"Name":"Nil","so":"Nil","Address":"Nil","Phone":"Nil"}],"condition":"Good"},{"stationID":"KT-13","stationName":"nagar nigam prathmik vidhyaliya banisaray mahmood ulhakraod","latitude":"   28.97259","longitude":"77.70583","polingCenterPhoto":"../img/mediPanchayat.png","routes":"../img/3.png","collectionPoint":"../img/3.png","population":"Nil","voters":"1326","villageMohalla":"banisahray-1,banisahray-2, ","path":"#/menu/tab/medicalDetails","respectedPpl":[{"Name":"Abid Ali","so":"N/a","Address":"N/a","Phone":"9319315882"},{"Name":"Shuhab","so":"N/a","Address":"N/a","Phone":"9897466786"},{"Name":"Bahab Chaudary","so":"N/a","Address":"N/a","Phone":"9997300964"}],"retiredGovtSer":[{"Name":"nil","so":"nil","Address":"nil","Phone":"nil"}],"neighbourPolling":[{"Name":"Mohd. Saleem","so":"N/a","Address":"N/a","Phone":"9756040578"},{"Name":"Azaj","so":"Alaudeen","Address":"N/a","Phone":"9897245725"},{"Name":"Aabid","so":"Alaudeen","Address":"N/a","Phone":"9319315882"},{"Name":"Kalu","so":"Saafo","Address":"N/a","Phone":"9627755089"},{"Name":"Umardaraz","so":"Yaseen","Address":"N/a","Phone":"9748650549"}],"armsLicenseHolder":[{"Name":"Safudeen","so":"Hakeem Mahoomd Ulhak","Address":"Banisarya","Phone":"N/a","Weapon":"N/a"},{"Name":"Waseerudeen","so":"Abdul Mazid","Address":"Banisarya","Phone":"N/a","Weapon":"N/a"},{"Name":"Saha Aalam","so":"Mahardeen","Address":"559 Banisaray","Phone":"9897703908","Weapon":"N/a"},{"Name":"Mohd. Haneef","so":"Abdual Hamid","Address":"Banisarya","Phone":"N/a","Weapon":"N/a"},{"Name":"Abdulgafar","so":"Waseer Ahmed","Address":"Banisarya","Phone":"N/a","Weapon":"N/a"},{"Name":"Ikramudeen","so":"Abdul Azij","Address":"37 Banisarya","Phone":"N/a","Weapon":"N/a"},{"Name":"Jalaludeen","so":"Babu","Address":"176 Bnisaray","Phone":"N/a","Weapon":"N/a"},{"Name":"Haji Arshad","so":"Haji Yakub","Address":"974 Banisaray","Phone":"N/a","Weapon":"N/a"},{"Name":"Basirudeen","so":"Abdul Mazir","Address":"Banisarya","Phone":"N/a","Weapon":"N/a"},{"Name":"Mohd.shabeer","so":"Haji Mohd. Yusuf","Address":"4 Banisarya","Phone":"N/a","Weapon":"N/a"}],"chowkidar":[{"Name":"Nil","so":"Nil","Address":"Nil","Phone":"Nil"}],"councellor":[{"Name":"asif gazi","so":"Nil","Address":"Nil","Phone":"8791177007"}],"historySheeter":[{"1Name":"Haneef Aka Bharaa","so":"Abdulrasheed","Address":"Banisarya","Status":"N/a","Phone":"N/a"},{"1Name":"Shardeen Aka Shera","so":"Abdulrasheed","Address":"Banisarya","Status":"Present","Phone":"N/a"},{"1Name":"Laeek","so":"Jumma Misti","Address":"Banisarya","Status":"Present","Phone":"N/a"},{"1Name":"Haji Yakubkurashi","so":"Faimudeen","Address":"N/a","Status":"N/a","Phone":"N/a"}],"convictedCriminals":[{"Name":"Shakeel Aka Pistol","so":"Sahabodeen","3status":"Banisaray"},{"Name":"Sahirudeen","so":"Sareef","3status":"Banisaray"},{"Name":"Arif","so":"Aalaudeen Aka Aalu","3status":"Banisaray"},{"Name":"Gulzar","so":"Rauf Ahmed","3status":"Banisaray"},{"Name":"Waserudeen","so":"Altif","3status":"117 Banisaray"}],"crimes5Yrs":[{"Name":"Movil","so":"Munna","crimeno":"192/11","Section":"323,307,506 Ipc","Address":"Krishnapada P.s. Kotwali"},{"Name":"Laala Aka Royeab","so":"Munna","crimeno":"192/11","Section":"323,307,506 Ipc","Address":"Krishnapada P.s. Kotwali"},{"Name":"Chota","so":"Munna","crimeno":"192/11","Section":"323,307,506 Ipc","Address":"Krishnapada P.s. Kotwali"},{"Name":"Naushad","so":"Marajudeen","crimeno":"192/11","Section":"323,307,506 Ipc","Address":"Krishnapada P.s. Kotwali"},{"Name":"Rajender","so":"Rajuu","crimeno":"196/12","Section":"323,324,506 Ipc","Address":"Maliwada P.s. Koltwali"},{"Name":"Amar Aka Tonny","so":"Rajender Giri","crimeno":"196/12","Section":"323,324,506 Ipc","Address":"Maliwada P.s. Koltwali"},{"Name":"Shasank Sexana","so":"Ashok Sexana","crimeno":"175/13","Section":"147,148,149,307,302,336 Ipc","Address":"Mori Pada"},{"Name":"Pryiavrat Aka Munmun","so":"Dharmendra","crimeno":"175/13","Section":"147,148,149,307,302,336 Ipc","Address":"Mori Pada"},{"Name":"Sonu","so":"Mohan Lal","crimeno":"175/13","Section":"147,148,149,307,302,336 Ipc","Address":"Mori Pada"},{"Name":"Monu Aka Amit","so":"Mohan Lal","crimeno":"175/13","Section":"147,148,149,307,302,336 Ipc","Address":"Mori Pada"},{"Name":"Deepak","so":"Padam Singh","crimeno":"175/13","Section":"147,148,149,307,302,336 Ipc","Address":"Jaati Wada Kumaaro Waligali P.s. Dheli Gate"},{"Name":"Pawan","so":"Braj Bhopal","crimeno":"175/13","Section":"147,148,149,307,302,336 Ipc","Address":"Jaati Wada Kumaaro Waligali P.s. Dheli Gate"},{"Name":"Pinto","so":"Malkhan","crimeno":"175/13","Section":"147,148,149,307,302,336 Ipc","Address":"Jaati Wada Kumaaro Waligali P.s. Dheli Gate"},{"Name":"Ajay","so":"Chamanlal","crimeno":"175/13","Section":"147,148,149,307,302,336 Ipc","Address":"Jaati Wada Kumaaro Waligali P.s. Dheli Gate"}],"electionCrimes":[{"Name":"nil","so":"nil","crimeno":"nil","Section":"Nil","Address":"nil"}],"politician":[{"Name":"Nil","so":"Nil","Address":"Nil","Phone":"Nil"}],"boundDownUnder":"Nil","vulnerabilityDetails":"critical","warrantedCriminals":[{"Name":"Nil","so":"Nil","Address":"Nil","Phone":"Nil"}],"condition":"Good"},{"stationID":"KT-14","stationName":"Maharishi Balmiki pustakalya & shiksha prashar samiti podiwada","latitude":" 28.97202","longitude":"77.70830","polingCenterPhoto":"../img/mediPanchayat.png","routes":"../img/3.png","collectionPoint":"../img/3.png","population":"Nil","voters":"1680","villageMohalla":"mahmood nagar, sharya bhaleam ","path":"#/menu/tab/medicalDetails","respectedPpl":[{"Name":"Raghuvar Dayal","so":"Bhud Prakesh","Address":"Podi Wada","Phone":"9359334448"},{"Name":"Mukesh Kumar","so":"N/a","Address":"N/a","Phone":"7660935019"}],"retiredGovtSer":[{"Name":"Hemant","so":"Bhud Prakash","Address":"N/a","Phone":"N/a"},{"Name":"Manoj Chaudary","so":"N/a","Address":"N/a","Phone":"9358171027"},{"Name":"Aashok","so":"Kishan","Address":"N/a","Phone":"7520222772"},{"Name":"Devesharan","so":"Banwarilal","Address":"N/a","Phone":"9897988419"}],"neighbourPolling":[{"Name":"Sajan","so":"Raghuvardayal","Address":"Podi Wada","Phone":"9997097342"},{"Name":"Ashok","so":"Bhud Prakash","Address":"Podi Wada","Phone":"N/a"},{"Name":"Shyamjain Mal","so":"Vishansawroop","Address":"N/a","Phone":"N/a"},{"Name":"Devisharan","so":"Banwari Lal","Address":"N/a","Phone":"9897988219"},{"Name":"Ramavtar","so":"Baburam","Address":"N/a","Phone":"9368582600"}],"armsLicenseHolder":[{"Name":"Naresh Kumar Chawala","so":"Ram Sharan","Address":"736 Mahmood Nagar","Phone":"N/a","Weapon":"N/a"},{"Name":"Sarfaraz","so":"Hedayat Kha","Address":"Mahmood Nagar","Phone":"N/a","Weapon":"N/a"},{"Name":"Aayoob","so":"Mhod. Yaseen","Address":"75 Mahmood Nagar","Phone":"N/a","Weapon":"N/a"},{"Name":"Haji Sayeed","so":"Yasin","Address":"76 Mahmood Nagar","Phone":"N/a","Weapon":"N/a"},{"Name":"Maneger ( Orintal Bank )","so":"N/a","Address":"N/a","Phone":"N/a","Weapon":"N/a"},{"Name":"Mhod. Taiyab","so":"Abdul Mazid","Address":"Mahmood Nagar","Phone":"9368309292","Weapon":"N/a"},{"Name":"Gulbhar","so":"Aasatula","Address":"13 Mahmood Nagar","Phone":"7520222645","Weapon":"N/a"},{"Name":"Adil Aktar","so":"Babu Khan","Address":"60 Mahmood Ulhak Road","Phone":"9720035035","Weapon":"N/a"},{"Name":"Mhod.asif","so":"Haji Unus","Address":"749 Saraybhalim","Phone":"7409907049","Weapon":"N/a"},{"Name":"Sakil Ahmad","so":"Meharban Ali","Address":"435 Saray Bhalim","Phone":"9319583760","Weapon":"N/a"},{"Name":"Mohd. Yamin Kurashi","so":"Haji Noor Mohomd","Address":"1105 Saray Bhalim","Phone":"9897471677","Weapon":"N/a"},{"Name":"Sahnawaj","so":"Haji Aiyub","Address":"1115 Saraybhalim","Phone":"N/a","Weapon":"N/a"}],"chowkidar":[{"Name":"Nil","so":"Nil","Address":"Nil","Phone":"Nil"}],"councellor":[{"Name":"wasim gazi","so":"Nil","Address":"Nil","Phone":"9219665559"}],"historySheeter":[{"Name":"Anish","so":"Sareef","Address":"Dariya Ganz","Status":"Lapata","Phone":"N/a"},{"Name":"Navajis Aka Sahil","so":"Mahmoob Shek","Address":"Podi Wada","Status":"Present","Phone":"N/a"}],"convictedCriminals":[{"Name":"Nil","so":"Nil","3status":"Nil"}],"crimes5Yrs":[{"Name":"Salim Aka Bhindi","so":"Riyazudeen","crimeno":"229/15","Section":"147,148,452,323,504,506 Ipc","Address":"Mahoomd Nagar Mrt"},{"Name":"Nafiz","so":"Riyazudeen","crimeno":"229/15","Section":"147,148,452,323,504,506 Ipc","Address":"Mahoomd Nagar Mrt"},{"Name":"Salaudeen","so":"Riyazudeen","crimeno":"229/15","Section":"147,148,452,323,504,506 Ipc","Address":"Mahoomd Nagar Mrt"},{"Name":"Sanwar","so":"Riyazudeen","crimeno":"229/15","Section":"147,148,452,323,504,506 Ipc","Address":"Mahoomd Nagar Mrt"},{"Name":"Hasim Aka Mohd.aasim","so":"Riyazudeen","crimeno":"229/15","Section":"147,148,452,323,504,506 Ipc","Address":"Mahoomd Nagar Mrt"},{"Name":"Haji Kalu","so":"Nazaar","crimeno":"185/16","Section":"323,504,307 Ipc","Address":"Saray Bhalim P.s. Kotwali"},{"Name":"Osama","so":"Hajikalu","crimeno":"185/16","Section":"323,504,307 Ipc","Address":"Saray Bhalim P.s. Kotwali"},{"Name":"","so":"","crimeno":"","Section":"","Address":""}],"electionCrimes":[{"Name":"nil","so":"nil","crimeno":"nil","Section":"Nil","Address":"nil"}],"politician":[{"Name":"Nil","so":"Nil","Address":"Nil","Phone":"Nil"}],"boundDownUnder":"Nil","vulnerabilityDetails":"critical","warrantedCriminals":[{"Name":"Nil","so":"Nil","Address":"Nil","Phone":"Nil"}],"condition":"Good"},{"stationID":"KT-15","stationName":"chopal muslim rajputan banisaray","latitude":" 28.97335","longitude":"77.70821","polingCenterPhoto":"../img/mediPanchayat.png","routes":"../img/3.png","collectionPoint":"../img/3.png","population":"Nil","voters":"545","villageMohalla":"mahoomd ulhuk road ","path":"#/menu/tab/medicalDetails","respectedPpl":[{"Name":"Dr. Nishar Ahmed","so":"N/a","Address":"N/a","Phone":"9319689164"},{"Name":"Mursalim","so":"N/a","Address":"N/a","Phone":"9536645757"}],"retiredGovtSer":[{"Name":"nil","so":"nil","Address":"nil","Phone":"nil"}],"neighbourPolling":[{"Name":"Mursalim","so":"Lt.abdul Raseed","Address":"N/a","Phone":"9536645757"},{"Name":"Aklak","so":"Asfak","Address":"N/a","Phone":"9368271334"},{"Name":"Dr. Nishar Ahmad","so":"N/a","Address":"N/a","Phone":"9997725662"},{"Name":"Adil","so":"N/a","Address":"N/a","Phone":"9897980597"},{"Name":"Muula Yunus","so":"N/a","Address":"N/a","Phone":"N/a"}],"armsLicenseHolder":[{"Name":"junaid faruk","so":"hasan faruk","Address":"254 banisaray","Phone":"9411024299","Weapon":"n/a"},{"Name":"nayeem kurashi","so":"yashin kurashi","Address":"228 hakim safi chowk, banisaray ","Phone":"n/a","Weapon":"n/a"},{"Name":"isamudin","so":"abdul bahid","Address":"180 banisaray","Phone":"n/a","Weapon":"n/a"},{"Name":"mhod. Faruk","so":"abdul aziz","Address":"125 banisaray","Phone":"9358387755","Weapon":"n/a"},{"Name":"mhod. Safik","so":"mhod. Yusuf","Address":"4 banisaray","Phone":"n/a","Weapon":"n/a"},{"Name":"dr.mahrajudin ahemd","so":"safudin","Address":"254 banisaray","Phone":"n/a","Weapon":"n/a"},{"Name":"aabidahmed","so":"aalaudeen","Address":"banisaray","Phone":"n/a","Weapon":"n/a"},{"Name":"sahidaktar","so":"babu kha","Address":"59 banisaray","Phone":"9897742370","Weapon":"n/a"},{"Name":"johan","so":"mhod. Wasi","Address":"52 banisaray ","Phone":"n/a","Weapon":"n/a"},{"Name":"mhod.anis","so":"waseer ahamed","Address":"125banisaray","Phone":"9897785359","Weapon":"n/a"}],"chowkidar":[{"Name":"Nil","so":"Nil","Address":"Nil","Phone":"Nil"}],"councellor":[{"Name":"mhod. aasif","so":"Nil","Address":"Nil","Phone":"9219665559"}],"historySheeter":[{"Name":"Sahajad","so":"Zafar","Address":"Ragdo Ki Chopal","Status":"Present","Phone":"N/a"},{"Name":"Raseed","so":"Deen Mhomamd","Address":"Ragdo Ki Chopal","Status":"Present","Phone":"N/a"},{"Name":"Ali Sher","so":"Waseer","Address":"Banisaray","Status":"Lapata","Phone":"N/a"},{"Name":"Kalu Aka Shubash","so":"Raghuveer","Address":"Saha Gasha","Status":"Present","Phone":"N/a"},{"Name":"Raseed","so":"Habib Bula","Address":"Dariya Ganz","Status":"Lapata","Phone":"N/a"},{"Name":"Sahid","so":"Deen Mhomamd","Address":"Ragdo Ki Chopal","Status":"Lapata","Phone":"N/a"}],"convictedCriminals":[{"Name":"Nil","so":"Nil","3status":"Nil"}],"crimes5Yrs":[{"Name":"Nadeem","so":"Sirajudeen","crimeno":"137/14","Section":"323,352,336 Ipc","Address":"Mahmoodnagar P.s Kotwali"},{"Name":"Aalaudeen","so":"Haji Boondu","crimeno":"302/14","Section":"147,452,323,506 Ipc","Address":"Ragdoki Chopal P.s. Kotwali"},{"Name":"Islamudeen","so":"Haji Boondu","crimeno":"302/14","Section":"147,452,323,506 Ipc","Address":"Ragdoki Chopal P.s. Kotwali"},{"Name":"Chand","so":"Haji Boondu","crimeno":"302/14","Section":"147,452,323,506 Ipc","Address":"Ragdoki Chopal P.s. Kotwali"}],"electionCrimes":[{"Name":"nil","so":"nil","crimeno":"nil","Section":"Nil","Address":"nil"}],"politician":[{"Name":"Nil","so":"Nil","Address":"Nil","Phone":"Nil"}],"boundDownUnder":"Nil","vulnerabilityDetails":"critical","warrantedCriminals":[{"Name":"Nil","so":"Nil","Address":"Nil","Phone":"Nil"}],"condition":"Good"},{"stationID":"KT-16","stationName":"dharamshala vaish agarwal jatan street","latitude":" 28.97182","longitude":"77.70454","polingCenterPhoto":"../img/mediPanchayat.png","routes":"../img/3.png","collectionPoint":"../img/3.png","population":"Nil","voters":"nil","villageMohalla":"khistpazan, jatan street, baniya pada ","path":"#/menu/tab/medicalDetails","respectedPpl":[{"Name":"Mahrban","so":"Ishukali","Address":"N/a","Phone":"9897981081"},{"Name":"Mhod. Rihan","so":"Sahveg Kha","Address":"N/a","Phone":"9759504478"},{"Name":"Nadeem","so":"Samsudeen","Address":"N/a","Phone":"9897759786"},{"Name":"Amir","so":"N/a","Address":"N/a","Phone":"8307649114"}],"retiredGovtSer":[{"Name":"nil","so":"nil","Address":"nil","Phone":"nil"}],"neighbourPolling":[{"Name":"Mhod. Arif","so":"Mhod.shami","Address":"N/a","Phone":"9410028358"},{"Name":"Anish","so":"Acchan","Address":"N/a","Phone":"9758941244"},{"Name":"Pawan Kumar","so":"Devander Sing","Address":"N/a","Phone":"9411667560"},{"Name":"Naushad","so":"N/a","Address":"N/a","Phone":"9997744692"},{"Name":"Parvaz","so":"Aziz Ahmad","Address":"N/a","Phone":"9258488510"}],"armsLicenseHolder":[{"Name":"Amir Ahmad","so":"Karim Sidiki","Address":"48 Kishtpazan","Phone":"N/a","Weapon":"N/a"},{"Name":"Ravinder Kumar Sharma","so":"Chet Narayan Sharma","Address":"207baniya Pada","Phone":"N/a","Weapon":"N/a"},{"Name":"Anikit Kumar","so":"Jitender Singh","Address":"121 Jatan Street","Phone":"N/a","Weapon":"N/a"},{"Name":"Amit Sharma","so":"Vipin Kuamr Sharma","Address":"75 Jatan Street","Phone":"N/a","Weapon":"N/a"},{"Name":"Susil Chandr Sharma","so":"Lakshman Prashad Sharma","Address":"180 Jatan Street","Phone":"9761022225","Weapon":"N/a"},{"Name":"Mahendr Sing Saini","so":"Girghu Singh","Address":"Jatan Street","Phone":"N/a","Weapon":"N/a"},{"Name":"Shankar Rasrogi","so":"Jagdes Rastogi","Address":"Jatan Street","Phone":"9897157359","Weapon":"N/a"},{"Name":"Rambarosha Pathak","so":"Kanti Prashad","Address":"188 Jatan Street","Phone":"N/a","Weapon":"N/a"},{"Name":"Gulam Mainudeen","so":"Kalwa Phalwan","Address":"103 Jatan Street","Phone":"989755639","Weapon":"N/a"},{"Name":"Abdul Bhavav","so":"Ramjani","Address":"312 Lisari Gate, Jatan Street","Phone":"N/a","Weapon":"N/a"},{"Name":"Narash Rastogi","so":"Jagdesh Saran","Address":"84 Jatan Street","Phone":"N/a","Weapon":"N/a"}],"chowkidar":[{"Name":"Nil","so":"Nil","Address":"Nil","Phone":"Nil"}],"councellor":[{"Name":"sunil saini","so":"Nil","Address":"Nil","Phone":"7895645166"}],"historySheeter":[{"Name":"Naushad","so":"Altaf","Address":"Ragdo Ki Chopal","Status":"Laapata","Phone":"N/a"},{"Name":"Mahendra","so":"Parmatma Sharan","Address":"Baniya Pada","Status":"Laapata","Phone":"N/a"}],"convictedCriminals":[{"Name":"Nil","so":"Nil","3status":"Nil"}],"crimes5Yrs":[{"Name":"Nadeem","so":"Sirajudeen","crimeno":"137/14","Section":"323,352,336 Ipc","Address":"Mahmoodnagar P.s Kotwali"},{"Name":"Aalaudeen","so":"Haji Boondu","crimeno":"302/14","Section":"147,452,323,506 Ipc","Address":"Ragdoki Chopal P.s. Kotwali"},{"Name":"Islamudeen","so":"Haji Boondu","crimeno":"302/14","Section":"147,452,323,506 Ipc","Address":"Ragdoki Chopal P.s. Kotwali"},{"Name":"Chand","so":"Haji Boondu","crimeno":"302/14","Section":"147,452,323,506 Ipc","Address":"Ragdoki Chopal P.s. Kotwali"}],"electionCrimes":[{"Name":"nil","so":"nil","crimeno":"nil","Section":"Nil","Address":"nil"}],"politician":[{"Name":"Nil","so":"Nil","Address":"Nil","Phone":"Nil"}],"boundDownUnder":"Nil","vulnerabilityDetails":"critical","warrantedCriminals":[{"Name":"Nil","so":"Nil","Address":"Nil","Phone":"Nil"}],"condition":"Good"},{"stationID":"KT-17","stationName":"prathik vidhyaliya kishtpazan","latitude":" 28.97238","longitude":"77.70386","polingCenterPhoto":"../img/mediPanchayat.png","routes":"../img/3.png","collectionPoint":"../img/3.png","population":"Nil","voters":"1500","villageMohalla":"sahanathan ","path":"#/menu/tab/medicalDetails","respectedPpl":[{"Name":"qasim","so":"hamid","Address":"n/a","Phone":"9897074604"},{"Name":"sunil saini","so":"n/a","Address":"n/a","Phone":"7895645166"}],"retiredGovtSer":[{"Name":"sahanavj","so":"n/a","Address":"n/a","Phone":"9412748412"},{"Name":"sahid ahmed","so":"rafeek ahmad","Address":"n/a","Phone":"9997875971"},{"Name":"ameer ahmed","so":"mhod. Karim","Address":"n/a","Phone":"9837175690"}],"neighbourPolling":[{"Name":"sahid aka babli","so":"ahasan","Address":"khistpajan","Phone":"9219631404"},{"Name":"ahakam chaudary","so":"abdul hakim","Address":"bamiya pada","Phone":"9690144205"},{"Name":"mufti kamar","so":"nadarali","Address":"khistpajan","Phone":"75202369162"},{"Name":"jahid","so":"aas mohmad","Address":"khistpajan","Phone":"7417510477"},{"Name":"aakram","so":"islam","Address":"khistpajan","Phone":"8868058279"}],"armsLicenseHolder":[{"Name":"mhod.yunus","so":"mhod. Ismile","Address":"30/49 sahnathan","Phone":"n/a","weapon":"n/a"},{"Name":"riyazudeen","so":"aalaudeen","Address":"164 sahanathan","Phone":"n/a","weapon":"n/a"},{"Name":"mhod. Khalid","so":"shubhan","Address":"sahanathan","Phone":"n/a","weapon":"n/a"},{"Name":"shubhan","so":"mhod.usman","Address":"sahanathan","Phone":"n/a","weapon":"n/a"},{"Name":"pream chand","so":"deewan chand","Address":"224 meerut gate saha nathan","Phone":"n/a","weapon":"n/a"},{"Name":"mhod. Tamkin","so":"muktyar hasan","Address":"31 sahanathan","Phone":"n/a","weapon":"n/a"},{"Name":"haj maraj","so":"babu kha","Address":"sahanathan","Phone":"n/a","weapon":"n/a"},{"Name":"haji eliyas","so":"babu kha","Address":"19 shanathan","Phone":"n/a","weapon":"n/a"},{"Name":"zahir aabas","so":"haji eliyas","Address":"19 shanathan","Phone":"n/a","weapon":"n/a"},{"Name":"siraz rehaman","so":"fazal rehaman","Address":"386 sahanathan","Phone":"n/a","weapon":"n/a"},{"Name":"aasif tyagi","so":"mhod. Eliyas","Address":"177 sahanathan","Phone":"n/a","weapon":"n/a"}],"chowkidar":[{"Name":"Nil","so":"Nil","Address":"Nil","Phone":"Nil"}],"councellor":[{"Name":"sunil saini","so":"Nil","Address":"Nil","Phone":"7895645166"}],"historySheeter":[{"Name":"mhod. Saleem","so":"hanif","Address":"sahanathan","Status":"present","Phone":"n/a"},{"Name":"aatik","so":"kaalu","Address":"sahanathan","Status":"present","Phone":"n/a"},{"Name":"tansi razza","so":"hasan razza","Address":"sahanathan","Status":"present","Phone":"n/a"},{"Name":"amrudeen","so":"raheesudeen","Address":"sahanathan","Status":"present","Phone":"n/a"}],"convictedCriminals":[{"Name":"Nil","so":"Nil","3status":"Nil"}],"crimes5Yrs":[{"Name":"rihan","so":"sahjama","crimeno":"314/14 ","Section":"307,504,506 ipc","Address":"school wali gali sahanathan"},{"Name":"fazi","so":"sahjama","crimeno":"314/14 ","Section":"307,504,506 ipc","Address":"school wali gali sahanathan"},{"Name":"ani","so":"sahjama","crimeno":"314/14 ","Section":"307,504,506 ipc","Address":"school wali gali sahanathan"},{"Name":"aabid","so":"nasrudeen","crimeno":"238/15","Section":"307 ipc","Address":"sahanathan p.s. Kotwali"},{"Name":"bilal","so":"nasrudeen","crimeno":"238/15","Section":"307 ipc","Address":"sahanathan p.s. Kotwali"}],"electionCrimes":[{"Name":"nil","so":"nil","crimeno":"nil","Section":"Nil","Address":"nil"}],"politician":[{"Name":"Nil","so":"Nil","Address":"Nil","Phone":"Nil"}],"boundDownUnder":"Nil","vulnerabilityDetails":"critical","warrantedCriminals":[{"Name":"Nil","so":"Nil","Address":"Nil","Phone":"Nil"}],"condition":"Good"},{"stationID":"KT-18","stationName":"ashrfiya madarsha play school karam ali","latitude":" 28.97460","longitude":"77.70479","polingCenterPhoto":"../img/mediPanchayat.png","routes":"../img/3.png","collectionPoint":"../img/3.png","population":"Nil","voters":"Nil","villageMohalla":"nakarchiyan, mahajanpada, padiyawada ","path":"#/menu/tab/medicalDetails","respectedPpl":[{"Name":"sarfaraz","so":"zilani","Address":"karamali","Phone":"n/a"},{"Name":"haji haron","so":" alaudeen","Address":"karamali","Phone":"9837774483"}],"retiredGovtSer":[{"Name":"Nil","so":"Nil","Address":"Nil","Phone":"Nil"}],"neighbourPolling":[{"Name":"umar","so":"maeenudeen","Address":"n/a","Phone":"9897416295"},{"Name":"aarif","so":"fira husan","Address":"n/a","Phone":"9897185660"},{"Name":"aanas","so":"sarfaraaz","Address":"n/a","Phone":"n/a"},{"Name":"aahsan","so":"irfan","Address":"n/a","Phone":"7669018057"},{"Name":"asif","so":"kaiyom","Address":"n/a","Phone":"9760200646"}],"armsLicenseHolder":[{"Name":"akatar kurashi","so":"azgar kurashi","Address":"77 nakarchiyan","Phone":"9837409137"},{"Name":"faheem","so":"mhod. Ali","Address":"20 guzri bazar","Phone":"n/a"},{"Name":"mhod. Furkan ali","so":"gulzar singh","Address":"145 nakar chiyan","Phone":"n/a"},{"Name":"msai khan yusufi","so":"jaid a khan","Address":"nakarchiyan","Phone":"n/a"},{"Name":"jamin","so":"rasheed ahamed","Address":"194 nakarchiyan","Phone":"n/a"},{"Name":"aaktar kurashi","so":"asgzar kurashi","Address":"nakarchiyan","Phone":"n/a"},{"Name":"mhod. Tayiyab","so":"babu","Address":"nakarchiyan","Phone":"9358269478"}],"chowkidar":[{"Name":"Nil","so":"Nil","Address":"Nil","Phone":"Nil"}],"councellor":[{"Name":"sunil saini","so":"Nil","Address":"Nil","Phone":"7895645166"}],"historySheeter":[{"Name":"mhatab","so":"aalha kha","Address":"karamali","Status":"n/a","Phone":"n/a"}],"convictedCriminals":[{"Name":"sahid","so":"karam ali","3status":"punesed"}],"crimes5Yrs":[{"Name":"rihan","so":"sahjama","crimeno":"314/14 ","Section":"307,504,506 ipc","Address":"school wali gali sahanathan"},{"Name":"fazi","so":"sahjama","crimeno":"314/14 ","Section":"307,504,506 ipc","Address":"school wali gali sahanathan"},{"Name":"ani","so":"sahjama","crimeno":"314/14 ","Section":"307,504,506 ipc","Address":"school wali gali sahanathan"},{"Name":"aabid","so":"nasrudeen","crimeno":"238/15","Section":"307 ipc","Address":"sahanathan p.s. Kotwali"},{"Name":"bilal","so":"nasrudeen","crimeno":"238/15","Section":"307 ipc","Address":"sahanathan p.s. Kotwali"}],"electionCrimes":[{"Name":"nil","so":"nil","crimeno":"nil","Section":"Nil","Address":"nil"}],"politician":[{"Name":"Nil","so":"Nil","Address":"Nil","Phone":"Nil"}],"boundDownUnder":"Nil","vulnerabilityDetails":"critical","warrantedCriminals":[{"Name":"Nil","so":"Nil","Address":"Nil","Phone":"Nil"}],"condition":"Good"},{"stationID":"KT-19","stationName":"latifa begumbal academy jatan street","latitude":" 28.971185","longitude":" 77.70479","polingCenterPhoto":"../img/mediPanchayat.png","routes":"../img/3.png","collectionPoint":"../img/3.png","population":"Nil","voters":"873","villageMohalla":"sarayjina ","path":"#/menu/tab/medicalDetails","respectedPpl":[{"Name":"Mhod. Irshad","so":"Ahashaan","Address":"N/a","Phone":"9368011691"},{"Name":"Sarfaraz","so":"Mhoanmat Khursaid","Address":"N/a","Phone":"9359157185"},{"Name":"Anish","so":"Yunus","Address":"N/a","Phone":"9319259419"},{"Name":"Ashu","so":"Mhod. Shaveer","Address":"N/a","Phone":"9897228374"}],"retiredGovtSer":[{"Name":"Nil","so":"Nil","Address":"Nil","Phone":"Nil"}],"neighbourPolling":[{"Name":"Ramzani","so":"Ali Mhomad","Address":"N/a","Phone":"9389630123"},{"Name":"Amir","so":"Rahees","Address":"N/a","Phone":"9997101418"},{"Name":"Aanshar","so":"Karim","Address":"N/a","Phone":"9837246021"},{"Name":"Mahraaz","so":"Jarurudeen","Address":"N/a","Phone":"N/a"},{"Name":"Aash Mhomad","so":"Shabeer","Address":"N/a","Phone":"9897278374"}],"armsLicenseHolder":[{"Name":"nil","so":"nil","Address":"nil","Phone":"nil"}],"chowkidar":[{"Name":"Nil","so":"Nil","Address":"Nil","Phone":"Nil"}],"councellor":[{"Name":"sunil saini","so":"Nil","Address":"Nil","Phone":"7895645166"}],"historySheeter":[{"Name":"Mahendra Kana","so":"Pramod Kumar","Address":"Baniya Pada","Status":"Laapata","Phone":"N/a"},{"Name":"Saleem","so":"Hanif","Address":"Sahanathan","Status":"Present","Phone":"N/a"},{"Name":"Aatik","so":"Kalu Aka Kalu","Address":"Sahanathan","Status":"Present","Phone":"N/a"},{"Name":"Aabid","so":"Navab","Address":"Purva Peerbaksh","Status":"Present","Phone":"N/a"},{"Name":"Salman Aka Guddu","so":"Hakim Damil Ahmed","Address":"Sahanathan","Status":"N/a","Phone":"N/a"}],"convictedCriminals":[{"Name":"nil","so":"nil","3status":"nil"}],"crimes5Yrs":[{"Name":"Sadik","so":"Saadeek","crimeno":"175/15","Section":"307,504,506 Ipc","Address":"Saraygina P.s. Kotwali"}],"electionCrimes":[{"Name":"nil","so":"nil","crimeno":"nil","Section":"Nil","Address":"nil"}],"politician":[{"Name":"Nil","so":"Nil","Address":"Nil","Phone":"Nil"}],"boundDownUnder":"Nil","vulnerabilityDetails":"critical","warrantedCriminals":[{"Name":"Nil","so":"Nil","Address":"Nil","Phone":"Nil"}],"condition":"Good"},{"stationID":"KT-20","stationName":"nagar nigam prathmik vidhyaliya saraybhalim","latitude":" 28.97347","longitude":"  77.70751","polingCenterPhoto":"../img/mediPanchayat.png","routes":"../img/3.png","collectionPoint":"../img/3.png","population":"Nil","voters":"3211","villageMohalla":"saraybhalim ","path":"#/menu/tab/medicalDetails","respectedPpl":[{"Name":"Asif Anshari","so":"N/a","Address":"N/a","Phone":"9259783240"},{"Name":"Aftab Aka Raja","so":"Mhod. Hanif Anshari","Address":"Purva Peer Baksh","Phone":"N/a"}],"retiredGovtSer":[{"Name":"Nil","so":"Nil","Address":"Nil","Phone":"Nil"}],"neighbourPolling":[{"Name":"Salim Gazi","so":"Aalaudeen","Address":"N/a","Phone":"0121-3203025"},{"Name":"Aalaudeen Kurashi","so":"N/a","Address":"N/a","Phone":"9897004972"},{"Name":"Masroof","so":"Nafuja","Address":"N/a","Phone":"9219130927"},{"Name":"Israt","so":"Aabid","Address":"N/a","Phone":"9837448701"}],"armsLicenseHolder":[{"Name":"Haji Nasirudeen","so":"Haji Mura","Address":"380 Saray Bhalim","Phone":"N/a","Weapon":"N/a"},{"Name":"Mhod. Jahid","so":"Abdul Karim","Address":"328 Saraybhalim","Phone":"N/a","Weapon":"N/a"},{"Name":"Sabirhusan","so":"Sadulla","Address":"725 Saray Bhalim","Phone":"N/a","Weapon":"N/a"},{"Name":"Sahid Ahmad","so":"Nurahmed","Address":"680 Saray Bhalim","Phone":"N/a","Weapon":"N/a"},{"Name":"Haji Yakub Kurashi","so":"Faheemudin","Address":"1113 Saray Bhalim","Phone":"N/a","Weapon":"N/a"},{"Name":"Imran","so":"Haji Yakub Kurashi","Address":"1113 Saray Bhalim","Phone":"N/a","Weapon":"N/a"},{"Name":"Yunus","so":"Hakimudin","Address":"113 Sara Bhalim","Phone":"N/a","Weapon":"N/a"},{"Name":"Sahajad","so":"Mohd. Yusuf Kuraasi","Address":"1103 Saraybhalim","Phone":"N/a","Weapon":"N/a"},{"Name":"Navab Ahmad","so":"Jumma","Address":"1140 Saraybhalim","Phone":"N/a","Weapon":"N/a"},{"Name":"Sakil Ahmed","so":"Haji Latif","Address":"518  Saraybhalim","Phone":"N/a","Weapon":"N/a"},{"Name":"Nasurudeen","so":"Haji Bhura","Address":"370saraybhalim","Phone":"N/a","Weapon":"N/a"},{"Name":"Mhod. Yasin","so":"Abdul Latif","Address":"Saraybhalim","Phone":"N/a","Weapon":"N/a"}],"chowkidar":[{"Name":"Nil","so":"Nil","Address":"Nil","Phone":"Nil"}],"councellor":[{"Name":"mhod. asif anshari","so":"Nil","Address":"Nil","Phone":"9259783240"}],"historySheeter":[{"Name":"Nayim","so":"Saleem","Address":"Saraybhalim","Status":"Present","Phone":"N/a"},{"Name":"Navab","so":"Jamil Kah","Address":"Saraybhalim","Status":"Present","Phone":"N/a"},{"Name":"Veadu Akaved Prakash","so":"N/a","Address":"Prem Padiya","Status":"Present","Phone":"N/a"},{"Name":"Papu Aka Bahav","so":"N/a","Address":"Purva Prre Baksh","Status":"N/a","Phone":"N/a"},{"Name":"Nayeem Aka Nimmo","so":"Sufi Ishak","Address":"Saraybhalim","Status":"Present","Phone":"N/a"},{"Name":"Shates","so":"Puranchand","Address":"Padiyan","Status":"Laapata","Phone":"N/a"},{"Name":"Yashin Aka Bhura","so":"Saveer","Address":"Visati Waligali","Status":"Present","Phone":"N/a"},{"Name":"Ajiz Aka Lattur","so":"Abdul Maji","Address":"Dariya Ganz","Status":"Present","Phone":"N/a"},{"Name":"Naseem Aka Pahadi","so":"Sirajudin","Address":"Mahmood Nagar","Status":"Present","Phone":"N/a"}],"convictedCriminals":[{"Name":"Nadeem","so":"Mhom. Chas","3status":"772 Saray Bhalim","4address":"N/a"},{"Name":"Sahanavaj","so":"Mhom. Chas","3status":"772 Saray Bhalim","4address":"N/a"},{"Name":"Rafeek Aka Baaua","so":"Safat Ahmed","3status":"Saray Bhalim","4address":"N/a"},{"Name":"Rasheed","so":"Ebuu","3status":"Saray Bhalim","4address":"N/a"},{"Name":"Eshhak","so":"Rajak","3status":"Saray Bhalim","4address":"N/a"},{"Name":"Sharuk","so":"Eshak","3status":"Saray Bhalim","4address":"N/a"},{"Name":"Istyak","so":"Ishak","3status":"Saray Bhalim","4address":"N/a"},{"Name":"Mhod. Umar","so":"Sahabudeen","3status":"274/2 Saray Bhalim","4address":"N/a"},{"Name":"Mur Saleem","so":"Rasheed","3status":"312/96 Saray Bhalim","4address":"N/a"},{"Name":"Zubair","so":"Sahid","3status":"870 Saray Bhalim","4address":"N/a"},{"Name":"Israr","so":"Re Zaudeen","3status":"Saray Bhalim","4address":"N/a"},{"Name":"Anwar","so":"Ahmad","3status":"285 Saray Bhalim","4address":"N/a"}],"crimes5Yrs":[{"Name":"Sadik","so":"Saadeek","crimeno":"175/15","Section":"307,504,506 Ipc","Address":"Saraygina P.s. Kotwali"}],"electionCrimes":[{"Name":"nil","so":"nil","crimeno":"nil","Section":"Nil","Address":"nil"}],"politician":[{"Name":"Nil","so":"Nil","Address":"Nil","Phone":"Nil"}],"boundDownUnder":"Nil","vulnerabilityDetails":"critical","warrantedCriminals":[{"Name":"Nil","so":"Nil","Address":"Nil","Phone":"Nil"}],"condition":"Good"},{"stationID":"KT-21","stationName":"nagar nigam prathmik vidhyaliya-2 saraybhalim","latitude":"  28.97314","longitude":"  77.70966","polingCenterPhoto":"../img/mediPanchayat.png","routes":"../img/3.png","collectionPoint":"../img/3.png","population":"Nil","voters":"2511","villageMohalla":"saraybhalim ","path":"#/menu/tab/medicalDetails","respectedPpl":[{"Name":"mahtab","so":"n/a","Address":"n/a","Phone":"9358840095"},{"Name":"irshad","so":"n/a","Address":"n/a","Phone":"9045066852"},{"Name":"mohd.asif anshari","so":"n/a","Address":"n/a","Phone":"9259783240"}],"retiredGovtSer":[{"Name":"Nil","so":"Nil","Address":"Nil","Phone":"Nil"}],"neighbourPolling":[{"Name":"sahabudeen","so":"n/a","Address":"n/a","Phone":"7310589582"},{"Name":"islamudeen","so":"n/a","Address":"n/a","Phone":"9557693152"},{"Name":"dr.mhod.rashid","so":"n/a","Address":"n/a","Phone":"9634486772"},{"Name":"salim kurashi","so":"n/a","Address":"n/a","Phone":"9412200433"},{"Name":"mhod. Yunis","so":"n/a","Address":"n/a","Phone":"9319394404"}],"armsLicenseHolder":[{"Name":"salaudin","so":"hakimodin","Address":"580 saray bhalim","Phone":"n/a","weapon":"n/a"},{"Name":"haji aayiub","so":"faheemudin","Address":"111 saray bhalim","Phone":"n/a","weapon":"n/a"},{"Name":"mhod. Nayem","so":"sufi nayaz","Address":"1103/1 saray bhalim","Phone":"n/a","weapon":"n/a"},{"Name":"kamil","so":"saheed ahmed","Address":"57 saray bhalim","Phone":"9319965002","weapon":"n/a"},{"Name":"saheed ahmed","so":"wazir ahmed","Address":"1078 saray bhalim","Phone":"n/a","weapon":"n/a"},{"Name":"hajizaheer ahmed","so":"nazir ahmed","Address":"saray bhalim","Phone":"n/a","weapon":"n/a"},{"Name":"abdul malik safi","so":"abdul hafiz safi","Address":"559 saray bhalim","Phone":"n/a","weapon":"n/a"},{"Name":"maraj","so":"navab","Address":"332 saray bhalim","Phone":"n/a","weapon":"n/a"},{"Name":"haji salim","so":"inam ilahi","Address":"1142 saray bhalim","Phone":"n/a","weapon":"n/a"},{"Name":"mohd.javed","so":"rahees ahmed","Address":"314 saray bhalim","Phone":"n/a","weapon":"n/a"},{"Name":"tuhad husan","so":"nasir husan","Address":"725 saray bhalim","Phone":"n/a","weapon":"n/a"}],"chowkidar":[{"Name":"Nil","so":"Nil","Address":"Nil","Phone":"Nil"}],"councellor":[{"Name":"Nil","so":"Nil","Address":"Nil","Phone":"Nil"}],"historySheeter":[{"Name":"anish","so":"faiz mhod.","Address":"saraybhaim","Status":"laapata"},{"Name":"anish aka anishu pandit","so":"n/a","Address":"saraybhaim","Status":"present"},{"Name":"sartaj","so":"abdul azij","Address":"saraybhaim","Status":"n/a"},{"Name":"mukesh","so":"naubat lal","Address":"dariya ganz","Status":"present"},{"Name":"sahajad aka ballo","so":"mhod. Ayub","Address":"saraybhaim","Status":"present"},{"Name":"saleem","so":"anwar ahmed","Address":"179 bani saray","Status":"present"},{"Name":"haji yakub kurashi","so":"faheemudeen","Address":"saraybhaim","Status":"present"},{"Name":"raeem aka papu","so":"babu","Address":"saraybhaim","Status":"laapata"},{"Name":"mosin akatar","so":"nayim","Address":"saraybhaim","Status":"laapata"},{"Name":"nayim aka nimo","so":"sufi ishhak","Address":"1055 sarayabhalim","Status":"present"},{"Name":"babu aka islam","so":"yunus","Address":"saraybhaim","Status":"present"}],"convictedCriminals":[{"Name":"nil","so":"nil","3status":"nil","4address":"nil"}],"crimes5Yrs":[{"Name":"kalid","so":"yunus","crimeno":"235/13","Section":"324,352 ipc","Address":"saraybhalim p.s. Kotwali"},{"Name":"sakir","so":"yunus","crimeno":"235/13","Section":"324,352 ipc","Address":"saraybhalim p.s. Kotwali"},{"Name":"wahid","so":"yunus","crimeno":"235/13","Section":"324,352 ipc","Address":"saraybhalim p.s. Kotwali"},{"Name":"hamid","so":"yunus","crimeno":"235/13","Section":"324,352 ipc","Address":"saraybhalim p.s. Kotwali"},{"Name":"shek","so":"tilawar","crimeno":"336/13","Section":"324,352 ipc","Address":"saraybhalim p.s. Kotwali"},{"Name":"nadeem aka bholu","so":"sirajudin","crimeno":"336/13","Section":"324,352 ipc","Address":"saraybhalim p.s. Kotwali"},{"Name":"sahajad","so":"shek","crimeno":"336/13","Section":"324,352 ipc","Address":"saraybhalim p.s. Kotwali"},{"Name":"shadav","so":"gayashudeen","crimeno":"336/13","Section":"324,352 ipc","Address":"saraybhalim p.s. Kotwali"},{"Name":"asif","so":"sahid","crimeno":"188/14","Section":"452,323,504,506 ipc","Address":"podiwada saraybhalim p.s.kotwali"},{"Name":"nitu mudgal","so":"chandra mhoan","crimeno":"241/15","Section":"147,148,323,506 ipc","Address":"119 saha khaki khatriyo ka chowk p.s. Kotwali"},{"Name":"honey sharma","so":"lt.manoj sharma","crimeno":"241/15","Section":"147,148,323,506 ipc","Address":" saha khaki khatriyo ka chowk p.s. Kotwali"}],"electionCrimes":[{"Name":"nil","so":"nil","crimeno":"nil","Section":"Nil","Address":"nil"}],"politician":[{"Name":"Nil","so":"Nil","Address":"Nil","Phone":"Nil"}],"boundDownUnder":"Nil","vulnerabilityDetails":"critical","warrantedCriminals":[{"Name":"Nil","so":"Nil","Address":"Nil","Phone":"Nil"}],"condition":"Good"},{"stationID":"KT-22","stationName":"prathmik vidhyala karamali","latitude":"  28.97254","longitude":"  77.70346","polingCenterPhoto":"../img/mediPanchayat.png","routes":"../img/3.png","collectionPoint":"../img/3.png","population":"Nil","voters":"611","villageMohalla":"karamali ","path":"#/menu/tab/medicalDetails","respectedPpl":[{"Name":"mhod. Saleem ahmed","so":"jalisudeen rahaman","Address":"Nil","Phone":"9258876320"},{"Name":"sahyeed saleem","so":"nizamudeen","Address":"Nil","Phone":"9358095111"}],"retiredGovtSer":[{"Name":"Nil","so":"Nil","Address":"Nil","Phone":"Nil"}],"neighbourPolling":[{"Name":"saha navaj matik","so":"n/a","Address":"n/a","Phone":"9917285535"},{"Name":"mhod.rihan","so":"n/a","Address":"n/a","Phone":"9759004478"},{"Name":"azhar sultan","so":"n/a","Address":"n/a","Phone":"9319325101"},{"Name":"aani","so":"n/a","Address":"n/a","Phone":"8307875253"}],"armsLicenseHolder":[{"Name":"asfsar ali","so":"naseem ali","Address":"161 karamali","Phone":"n/a","weapon":"n/a"},{"Name":"maho.navaden ahmed","so":"lt. Ishaul","Address":"85 karam ali","Phone":"n/a","weapon":"n/a"},{"Name":"nadeem ahmed","so":"lt. Ishaul","Address":"85 karam ali","Phone":"n/a","weapon":"n/a"},{"Name":"mhod.javed","so":"washeerudin","Address":"181 karam ali","Phone":"n/a","weapon":"n/a"},{"Name":"giftaul islam","so":"manjur ul islam","Address":"336 karam ali","Phone":"9412205170","weapon":"n/a"},{"Name":"ajay kumar","so":"pawan kumar verma","Address":"114 karam ali","Phone":"9837096860","weapon":"n/a"},{"Name":"mhod. Irfan","so":"ekwal","Address":"295 karam ali","Phone":"9897347468","weapon":"n/a"},{"Name":"haji mhod. Harum","so":"aalaudin","Address":"217 karam ali","Phone":"7500946786","weapon":"n/a"},{"Name":"israr ul haq","so":"jilhal ul haq","Address":"karam ali","Phone":"9411026307","weapon":"n/a"},{"Name":"nadim ul islam","so":"majur ul islam","Address":"356 karamali","Phone":"n/a","weapon":"n/a"}],"chowkidar":[{"Name":"Nil","so":"Nil","Address":"Nil","Phone":"Nil"}],"councellor":[{"Name":"Nil","so":"Nil","Address":"Nil","Phone":"Nil"}],"historySheeter":[{"Name":"Haji Eslal","so":"Haji Ekwal Kurashi","Address":"Nakar Chiyan","Status":"Jail","Phone":"N/a"},{"Name":"Afzaal","so":"Haji Ekwal Kurashi","Address":"Nakar Chiyan","Status":"Jail","Phone":"N/a"},{"Name":"Parvez","so":"Haji Eslal","Address":"Nakar Chiyan","Status":"Prsent","Phone":"N/a"},{"Name":"Arshad Aka Lodha","so":"Abdul Latif","Address":"Karamali","Status":"Prsent","Phone":"N/a"},{"Name":"Kalu Aka Raheman","so":"Haji Aamanat","Address":"Nakar Chiyan","Status":"Jail","Phone":"N/a"},{"Name":"Chandrbhan","so":"Pream Singh","Address":"Karamali","Status":"Prsent","Phone":"N/a"},{"Name":"Krishan Aka Kishan","so":"Ghamandilal","Address":"Thater Bada","Status":"Laapata","Phone":"N/a"}],"convictedCriminals":[{"Name":"nil","so":"nil","3status":"nil","4address":"nil"}],"crimes5Yrs":[{"Name":"kalid","so":"yunus","crimeno":"235/13","Section":"324,352 ipc","Address":"saraybhalim p.s. Kotwali"},{"Name":"sakir","so":"yunus","crimeno":"235/13","Section":"324,352 ipc","Address":"saraybhalim p.s. Kotwali"},{"Name":"wahid","so":"yunus","crimeno":"235/13","Section":"324,352 ipc","Address":"saraybhalim p.s. Kotwali"},{"Name":"hamid","so":"yunus","crimeno":"235/13","Section":"324,352 ipc","Address":"saraybhalim p.s. Kotwali"},{"Name":"shek","so":"tilawar","crimeno":"336/13","Section":"324,352 ipc","Address":"saraybhalim p.s. Kotwali"},{"Name":"nadeem aka bholu","so":"sirajudin","crimeno":"336/13","Section":"324,352 ipc","Address":"saraybhalim p.s. Kotwali"},{"Name":"sahajad","so":"shek","crimeno":"336/13","Section":"324,352 ipc","Address":"saraybhalim p.s. Kotwali"},{"Name":"shadav","so":"gayashudeen","crimeno":"336/13","Section":"324,352 ipc","Address":"saraybhalim p.s. Kotwali"},{"Name":"asif","so":"sahid","crimeno":"188/14","Section":"452,323,504,506 ipc","Address":"podiwada saraybhalim p.s.kotwali"},{"Name":"nitu mudgal","so":"chandra mhoan","crimeno":"241/15","Section":"147,148,323,506 ipc","Address":"119 saha khaki khatriyo ka chowk p.s. Kotwali"},{"Name":"honey sharma","so":"lt.manoj sharma","crimeno":"241/15","Section":"147,148,323,506 ipc","Address":" saha khaki khatriyo ka chowk p.s. Kotwali"}],"electionCrimes":[{"Name":"nil","so":"nil","crimeno":"nil","Section":"Nil","Address":"nil"}],"politician":[{"Name":"Nil","so":"Nil","Address":"Nil","Phone":"Nil"}],"boundDownUnder":"Nil","vulnerabilityDetails":"critical","warrantedCriminals":[{"Name":"Nil","so":"Nil","Address":"Nil","Phone":"Nil"}],"condition":"Good"},{"stationID":"KT-23","stationName":"basanti devi jain girls junior high school teergran","latitude":"  28.97652","longitude":"  77.70219","polingCenterPhoto":"../img/mediPanchayat.png","routes":"../img/3.png","collectionPoint":"../img/3.png","population":"Nil","voters":"1573","villageMohalla":"chamambran, teergran, chata anantram ","path":"#/menu/tab/medicalDetails","respectedPpl":[{"Name":"Mhod. Haji Irshad","so":"N/a","Address":"N/a","Phone":"9897441864"},{"Name":"Mhod. Irfan","so":"Ahasaan","Address":"N/a","Phone":"9897330175"},{"Name":"Amit","so":"Pawan Kumar","Address":"N/a","Phone":"7409374305"}],"retiredGovtSer":[{"Name":"Nil","so":"Nil","Address":"Nil","Phone":"Nil"}],"neighbourPolling":[{"Name":"Vinod Chand Sharma","so":"N/a","Address":"N/a","Phone":"N/a"},{"Name":"Kuldeep Kaushik","so":"N/a","Address":"N/a","Phone":"8882131132"},{"Name":"Pawan Kumar Sharma","so":"N/a","Address":"N/a","Phone":"8006090515"},{"Name":"Kanti Prshad Sharma","so":"N/a","Address":"N/a","Phone":"9639424242"},{"Name":"Sourav Kumar","so":"N/a","Address":"N/a","Phone":"9319300013"}],"armsLicenseHolder":[{"Name":"Komal Rastogi","so":"Rajkishor","Address":"65 Teergarn","Phone":"N/a","Weapon":"N/a"},{"Name":"Sourav Kumar","so":"Ashok Kumar","Address":"47 Cahamambran, Teergran","Phone":"N/a","Weapon":"N/a"},{"Name":"Mukesh Kumar","so":"Harish Chand","Address":"35 Mahiveer Galijain Mandir,teergran","Phone":"N/a","Weapon":"N/a"},{"Name":"Dinesh Kumar","so":"Prem Prakash Jain","Address":"69 Teergran","Phone":"N/a","Weapon":"N/a"},{"Name":"Sanjeev Rastogi","so":"Shubash Chand Rastogi","Address":"64 Teergran","Phone":"N/a","Weapon":"N/a"},{"Name":"Nausad","so":"Haji Safeek","Address":"48 Gugri Bazar, Chata Aanantram","Phone":"N/a","Weapon":"N/a"},{"Name":"Haji Irshad","so":"Haji Sarif","Address":"48 Chata Aanatram","Phone":"N/a","Weapon":"N/a"},{"Name":"Imdad","so":"Mhod.safik","Address":"48 Chata Aanatram","Phone":"N/a","Weapon":"N/a"},{"Name":"Shan Mhod.","so":"Saraft","Address":"110 Chata Aanantram","Phone":"N/a","Weapon":"N/a"},{"Name":"Muslim","so":"Mustakin","Address":"Chata Aanatram","Phone":"N/a","Weapon":"N/a"},{"Name":"Vipul","so":"Jai Praksh","Address":"Chata Aanatram","Phone":"N/a","Weapon":"N/a"}],"chowkidar":[{"Name":"Nil","so":"Nil","Address":"Nil","Phone":"Nil"}],"councellor":[{"Name":"Nil","so":"Nil","Address":"Nil","Phone":"Nil"}],"historySheeter":[{"Name":"Dhani Chand","so":"Ramnivash","Address":"Holi Mholla","Status":"Laapata","Phone":"N/a"},{"Name":"Fazil Aka Guudu","so":"Mubarik Husan","Address":"Sabungran","Status":"Present","Phone":"N/a"}],"convictedCriminals":[{"Name":"Nil","so":"Nil","3Status":"Nil","4Address":"Nil"}],"crimes5Yrs":[{"Name":"kalid","so":"yunus","crimeno":"235/13","Section":"324,352 ipc","Address":"saraybhalim p.s. Kotwali"},{"Name":"sakir","so":"yunus","crimeno":"235/13","Section":"324,352 ipc","Address":"saraybhalim p.s. Kotwali"},{"Name":"wahid","so":"yunus","crimeno":"235/13","Section":"324,352 ipc","Address":"saraybhalim p.s. Kotwali"},{"Name":"hamid","so":"yunus","crimeno":"235/13","Section":"324,352 ipc","Address":"saraybhalim p.s. Kotwali"},{"Name":"shek","so":"tilawar","crimeno":"336/13","Section":"324,352 ipc","Address":"saraybhalim p.s. Kotwali"},{"Name":"nadeem aka bholu","so":"sirajudin","crimeno":"336/13","Section":"324,352 ipc","Address":"saraybhalim p.s. Kotwali"},{"Name":"sahajad","so":"shek","crimeno":"336/13","Section":"324,352 ipc","Address":"saraybhalim p.s. Kotwali"},{"Name":"shadav","so":"gayashudeen","crimeno":"336/13","Section":"324,352 ipc","Address":"saraybhalim p.s. Kotwali"},{"Name":"asif","so":"sahid","crimeno":"188/14","Section":"452,323,504,506 ipc","Address":"podiwada saraybhalim p.s.kotwali"},{"Name":"nitu mudgal","so":"chandra mhoan","crimeno":"241/15","Section":"147,148,323,506 ipc","Address":"119 saha khaki khatriyo ka chowk p.s. Kotwali"},{"Name":"honey sharma","so":"lt.manoj sharma","crimeno":"241/15","Section":"147,148,323,506 ipc","Address":" saha khaki khatriyo ka chowk p.s. Kotwali"}],"electionCrimes":[{"Name":"nil","so":"nil","crimeno":"nil","Section":"Nil","Address":"nil"}],"politician":[{"Name":"mhod. saheed aklak","so":"Nil","Address":"Nil","Phone":"9837070786"}],"boundDownUnder":"Nil","vulnerabilityDetails":"critical","warrantedCriminals":[{"Name":"Nil","so":"Nil","Address":"Nil","Phone":"Nil"}],"condition":"Good"},{"stationID":"KT-24","stationName":"Rashtogi dharmashala krishna pada","latitude":"  28.997513","longitude":"  77.70623","polingCenterPhoto":"../img/mediPanchayat.png","routes":"../img/3.png","collectionPoint":"../img/3.png","population":"Nil","voters":"496","villageMohalla":"muffti wada ","path":"#/menu/tab/medicalDetails","respectedPpl":[{"Name":"Mhod. Asif","so":"N/a","Address":"N/a","Phone":"N/a"},{"Name":"Ajay Sheti","so":"N/a","Address":"N/a","Phone":"N/a"}],"retiredGovtSer":[{"Name":"Nil","so":"Nil","Address":"Nil","Phone":"Nil"}],"neighbourPolling":[{"Name":"Ashok Kumar","so":"Denish Kumar","Address":"N/a","Phone":"9837570665"},{"Name":"Muunu","so":"Rahmad","Address":"N/a","Phone":"N/a"},{"Name":"Sahid Ekbal","so":"Aaftab","Address":"N/a","Phone":"9808441386"},{"Name":"Bhupendra","so":"Lt. Rampal","Address":"N/a","Phone":"9368059610"},{"Name":"Salman","so":"Aaktar","Address":"N/a","Phone":"9997166987"}],"armsLicenseHolder":[{"Name":"Saleem","so":"Samsad","Address":"165 Mufftiwada","Phone":"N/a","Weapon":"N/a"},{"Name":"Mhod. Asalm","so":"Mhod. Yusuf","Address":"45 Muffti Wada","Phone":"N/a","Weapon":"N/a"},{"Name":"Waanik","so":"Mhod. Yusuf","Address":"45 Muffti Wada","Phone":"N/a","Weapon":"N/a"},{"Name":"Haji Adil","so":"Mhod. Yusuf","Address":"46 Muffti Wada","Phone":"N/a","Weapon":"N/a"},{"Name":"Saeed Ahmed","so":"Abdul Raheem","Address":"172 Mufftiwada","Phone":"N/a","Weapon":"N/a"},{"Name":"M. Asraf Muffti","so":"Mhod. Asfak","Address":"123 Mufftiwada","Phone":"N/a","Weapon":"N/a"},{"Name":"Anwar Ekwal","so":"Mhod. Kazim Muffti","Address":"Mufftiwada","Phone":"N/a","Weapon":"N/a"},{"Name":"Mhod. Adil","so":"Mhod. Yousuf","Address":"Mufftiwada","Phone":"N/a","Weapon":"N/a"},{"Name":"Mhod. Sahbir","so":"Jamiludin","Address":"44 Mufftiwada","Phone":"8810002922","Weapon":"N/a"}],"chowkidar":[{"Name":"Nil","so":"Nil","Address":"Nil","Phone":"Nil"}],"councellor":[{"Name":"mhod. asif","so":"Nil","Address":"Nil","Phone":"Nil"}],"historySheeter":[{"Name":"Nil","so":"Nil","Address":"Nil","Status":"Nil","Phone":"Nil"}],"convictedCriminals":[{"Name":"Nil","so":"Nil","3Status":"Nil","4Address":"Nil"}],"crimes5Yrs":[{"Name":"Nil","so":"Nil","crimeno":"Nil","Section":"Nil","Address":"Nil"}],"electionCrimes":[{"Name":"nil","so":"nil","crimeno":"nil","Section":"Nil","Address":"nil"}],"politician":[{"Name":"mhod. saheed aklak","so":"Nil","Address":"Nil","Phone":"9837070786"}],"boundDownUnder":"Nil","vulnerabilityDetails":"critical","warrantedCriminals":[{"Name":"Nil","so":"Nil","Address":"Nil","Phone":"Nil"}],"condition":"Good"},{"stationID":"KT-25","stationName":"ucch prathmik vidhyaliya andarcoat","latitude":"  28.97615","longitude":"   77.70454","polingCenterPhoto":"../img/mediPanchayat.png","routes":"../img/3.png","collectionPoint":"../img/3.png","population":"Nil","voters":"1006","villageMohalla":"sabugran ","path":"#/menu/tab/medicalDetails","respectedPpl":[{"Name":"Umeed Hasan","so":"Jamirudin","Address":"N/a","Phone":"9760316690"},{"Name":"Saiyad Niyar","so":"Mobin Nayir","Address":"N/a","Phone":"9412701420"},{"Name":"Mayan Kumar Sharma","so":"Ved Prakash","Address":"N/a","Phone":"9897243342"}],"retiredGovtSer":[{"Name":"Nil","so":"Nil","Address":"Nil","Phone":"Nil"}],"neighbourPolling":[{"Name":"Raheesudin","so":"Maiynudin","Address":"N/a","Phone":"7351282458"},{"Name":"Jamil Ahmed","so":"Waseer Ahmed","Address":"N/a","Phone":"9847950547"},{"Name":"Jahid","so":"Mobin","Address":"N/a","Phone":"7520964162"},{"Name":"Kazisajak","so":"Jahir Ahmed","Address":"N/a","Phone":"0121-421402"},{"Name":"Aakil","so":"Abdul Gaffar","Address":"N/a","Phone":"9634963477"}],"armsLicenseHolder":[{"Name":"Makhmul Ahmed","so":"Manan","Address":"250 Sabungran","Phone":"N/a","Weapon":"N/a"},{"Name":"Eliyas Rehmani","so":"Abdil Salim","Address":"166 Sabungran","Phone":"N/a","Weapon":"N/a"},{"Name":"Islamudin","so":"Jamiludin","Address":"188 Sabungran","Phone":"N/a","Weapon":"N/a"},{"Name":"Salaudin","so":"Mazid","Address":"133 Sabugran","Phone":"N/a","Weapon":"N/a"},{"Name":"Nafiz Ahmed","so":"Rahees Udin","Address":"H.n. 6 Sabungran","Phone":"N/a","Weapon":"N/a"}],"chowkidar":[{"Name":"Nil","so":"Nil","Address":"Nil","Phone":"Nil"}],"councellor":[{"Name":"mhod. asif","so":"Nil","Address":"Nil","Phone":"Nil"}],"historySheeter":[{"Name":"Bahaw","so":"Navab Kurashi","Address":"Sabungran","Status":"Present","Phone":"N/a"},{"Name":"Saleem","so":"Aftab","Address":"Sabungran","Status":"Present","Phone":"N/a"},{"Name":"Rasheed","so":"Haji Akhlak Ahmed","Address":"Sabungran","Status":"Present","Phone":"N/a"},{"Name":"Wazid","so":"Waseer","Address":"Sabungran, Guzri Chowk","Status":"Present","Phone":"N/a"}],"convictedCriminals":[{"Name":"Nil","so":"Nil","3Status":"Nil","4Address":"Nil"}],"crimes5Yrs":[{"Name":"Nil","so":"Nil","crimeno":"Nil","Section":"Nil","Address":"Nil"}],"electionCrimes":[{"Name":"nil","so":"nil","crimeno":"nil","Section":"Nil","Address":"nil"}],"politician":[{"Name":"nil","so":"Nil","Address":"Nil","Phone":"nil"}],"boundDownUnder":"Nil","vulnerabilityDetails":"critical","warrantedCriminals":[{"Name":"Nil","so":"Nil","Address":"Nil","Phone":"Nil"}],"condition":"Good"},{"stationID":"KT-27","stationName":"arya kaniya inter college naveen bhawan futa kuwa","latitude":"28.98035","longitude":"77.70488","polingCenterPhoto":"../img/mediPanchayat.png","routes":"../img/3.png","collectionPoint":"../img/3.png","population":"Nil","voters":"1955","villageMohalla":"swamipada ","path":"#/menu/tab/medicalDetails","respectedPpl":[{"Name":"Gaurav Naam Dev","so":"N/a","Address":"N/a","Phone":"9358425341"}],"retiredGovtSer":[{"Name":"Nil","so":"Nil","Address":"Nil","Phone":"Nil"}],"neighbourPolling":[{"Name":"Pramod Kumar","so":"N/a","Address":"N/a","Phone":"9319577653"},{"Name":"Ashvani Kumar","so":"N/a","Address":"N/a","Phone":"8126914844"},{"Name":"Enaam Ula Kha","so":"N/a","Address":"N/a","Phone":"9759600555"},{"Name":"Babu Lal Verma","so":"N/a","Address":"N/a","Phone":"9760243955"},{"Name":"Muktar Kha","so":"N/a","Address":"N/a","Phone":"9997135336"}],"armsLicenseHolder":[{"Name":"Sachin Singhal","so":"Ramkishor","Address":"190 Sawami Pada","Phone":"N/a","Weapon":"N/a"},{"Name":"Manoj","so":"Rupchand","Address":"67 Swamipada","Phone":"N/a","Weapon":"N/a"},{"Name":"Gopal Agarwal","so":"Lt. Ramkishan","Address":"Swami Pada","Phone":"N/a","Weapon":"N/a"},{"Name":"Manager(boi)","so":"N/a","Address":"Karnagar","Phone":"N/a","Weapon":"N/a"},{"Name":"Enaam Ula","so":"Safi Ula Khan","Address":"66/67 Sawamipada","Phone":"9759600555","Weapon":"N/a"},{"Name":"Rakesh Gupta","so":"Lt. Rahguver Dayal","Address":"340 Sawami Pada","Phone":"N/a","Weapon":"N/a"},{"Name":"Om Prakash Sharma","so":"M.n.sharma","Address":"376 Sami Pada","Phone":"9412202411","Weapon":"N/a"},{"Name":"Sanjeev Bhatnagar","so":"S.m. Bhatnagar","Address":"9/1 Swamipada","Phone":"9259884144","Weapon":"N/a"},{"Name":"Jai Prakash","so":"Pyaralal","Address":"422 Sawami Pada","Phone":"N/a","Weapon":"N/a"},{"Name":"Ram Kishor Singhal","so":"Shiv Charan Das","Address":"190 Sawami Pada","Phone":"9997320003","Weapon":"N/a"},{"Name":"Manoj Kumar Gupta","so":"Name Kumar","Address":"57 Sawami Pada","Phone":"N/a","Weapon":"N/a"},{"Name":"Susil Kumar","so":"Munshi Lal","Address":"501 Sawami Pada","Phone":"9897334948","Weapon":"N/a"},{"Name":"Gaurav Chorasiya","so":"Dari Chorasiya","Address":"54 Sawami Pada","Phone":"N/a","Weapon":"N/a"},{"Name":"Anil Goel","so":"Radhe Mohan","Address":"177 Sawami Pada","Phone":"N/a","Weapon":"N/a"}],"chowkidar":[{"Name":"Nil","so":"Nil","Address":"Nil","Phone":"Nil"}],"councellor":[{"Name":"Nil","so":"Nil ","Address":"Nil","Phone":"Nil"}],"historySheeter":[{"Name":"Vijay Aka Babli","so":"Radha Krishan","Address":"Futa Kuwa","Status":"N/a","Phone":"N/a"}],"convictedCriminals":[{"Name":"Nil","so":"Nil","3Status":"Nil","4Address":"Nil"}],"crimes5Yrs":[{"Name":"Nil","so":"Nil","crimeno":"Nil","Section":"Nil","Address":"Nil"}],"electionCrimes":[{"Name":"nil","so":"nil","crimeno":"nil","Section":"Nil","Address":"nil"}],"politician":[{"Name":"nil","so":"Nil","Address":"Nil","Phone":"nil"}],"boundDownUnder":"Nil","vulnerabilityDetails":"critical","warrantedCriminals":[{"Name":"Nil","so":"Nil","Address":"Nil","Phone":"Nil"}],"condition":"Good"},{"stationID":"KT-28","stationName":"dharmashala dalampada","latitude":"28.97719","longitude":"77.70330","polingCenterPhoto":"../img/mediPanchayat.png","routes":"../img/3.png","collectionPoint":"../img/3.png","population":"Nil","voters":"787","villageMohalla":"dalampada ","path":"#/menu/tab/medicalDetails","respectedPpl":[{"Name":"Dr. Rajni Mohan","so":"N/a","Address":"N/a","Phone":"9897289342"},{"Name":"Dr. Mohan","so":"N/a","Address":"N/a","Phone":"9897289342"},{"Name":"Aakash Agrwal","so":"N/a","Address":"N/a","Phone":"N/a"}],"retiredGovtSer":[{"Name":"Nil","so":"Nil","Address":"Nil","Phone":"Nil"}],"neighbourPolling":[{"Name":"Aakash Agrawal","so":"N/a","Address":"N/a","Phone":"N/a"},{"Name":"Nitin","so":"N/a","Address":"N/a","Phone":"9719414144"},{"Name":"Dr. Mohan","so":"N/a","Address":"N/a","Phone":"9897289342"},{"Name":"Ankit","so":"N/a","Address":"N/a","Phone":"9917846574"},{"Name":"Anju Goel","so":"N/a","Address":"N/a","Phone":"9259136088"}],"armsLicenseHolder":[{"Name":"Nitin Parashar","so":"Kishan Sharma","Address":"112 Dalampada","Phone":"N/a","Weapon":"N/a"},{"Name":"Sachin Gupta","so":"Ashok Gupta","Address":"79 M Gali Dalampada","Phone":"N/a","Weapon":"N/a"},{"Name":"Ajay Verma","so":"Mulchand Verma","Address":"152 Dalam Pada","Phone":"N/a","Weapon":"N/a"},{"Name":"Sanjy Kumar","so":"Mulchand Verma","Address":"152 Dalam Pada","Phone":"9837057728","Weapon":"N/a"},{"Name":"Mukesh Kumar Jain","so":"Babulal","Address":"172 Dalampada","Phone":"N/a","Weapon":"N/a"},{"Name":"Kapurchand Rastogi","so":"Ganga Sharan","Address":"89 Ramgali, Dalampada","Phone":"N/a","Weapon":"N/a"},{"Name":"Chandra Prakash","so":"Umrav Singh Verma","Address":"121 Dalam Pada","Phone":"N/a","Weapon":"N/a"},{"Name":"Prveen Agrwal","so":"Mulchand Agarwal","Address":"Ram Gali, Dalam Pada","Phone":"N/a","Weapon":"N/a"},{"Name":"Akshay Agarwal","so":"Rakesh Mohan","Address":"79 Dalampada","Phone":"N/a","Weapon":"N/a"},{"Name":"Sachin Gupta","so":"Ashok Gupta","Address":"79 Ramgali, Dalampada","Phone":"N/a","Weapon":"N/a"},{"Name":"Nitin","so":"Kishan Sharma","Address":"112 Dalampada","Phone":"N/a","Weapon":"N/a"},{"Name":"Vijay Rashtogi","so":"Ram Rastogi","Address":"Chowk Babasha","Phone":"N/a","Weapon":"N/a"}],"chowkidar":[{"Name":"Nil","so":"Nil","Address":"Nil","Phone":"Nil"}],"councellor":[{"Name":"vijay aanand","so":"Nil ","Address":"Nil","Phone":"Nil"}],"historySheeter":[{"Name":"Sanjeev Aka Papan","so":"Ashvani Kumar","Address":"Chipiwada","Status":"Present","Phone":"N/a"},{"Name":"Manoj Kumar","so":"Kasturi Lal","Address":"Dalampada","Status":"Present","Phone":"N/a"},{"Name":"Ajay Aka Lala","so":"Ved Prakash","Address":"Dalampada","Status":"Present","Phone":"N/a"}],"convictedCriminals":[{"Name":"Nil","so":"Nil","3Status":"Nil","4Address":"Nil"}],"crimes5Yrs":[{"Name":"Aman","so":"Raju Mental","crimeno":"227/13","Section":"307 Ipc","Address":"Dalampada P.s. Kotwali"},{"Name":"Raju Mental","so":"Mahendra Kumar","crimeno":"227/13","Section":"307 Ipc","Address":"Dalampada P.s. Kotwali"}],"electionCrimes":[{"Name":"nil","so":"nil","crimeno":"nil","Section":"Nil","Address":"nil"}],"politician":[{"Name":"nil","so":"Nil","Address":"Nil","Phone":"nil"}],"boundDownUnder":"Nil","vulnerabilityDetails":"critical","warrantedCriminals":[{"Name":"Nil","so":"Nil","Address":"Nil","Phone":"Nil"}],"condition":"Good"},{"stationID":"KT-29","stationName":"saraswati academy babakhaki","latitude":" 28.97930","longitude":"77.70398","polingCenterPhoto":"../img/mediPanchayat.png","routes":"../img/3.png","collectionPoint":"../img/3.png","population":"Nil","voters":"2136","villageMohalla":"jatiwada-1, jatiwada-2, sahakhaki  ","path":"#/menu/tab/medicalDetails","respectedPpl":[{"Name":"Gauravnaam Dev","so":"N/a","Address":"9358425341","Phone":"N/a"}],"retiredGovtSer":[{"Name":"Nil","so":"Nil","Address":"Nil","Phone":"Nil"}],"neighbourPolling":[{"Name":"Sachin Sharma","so":"N/a","Address":"N/a","Phone":"9837602368"},{"Name":"Anand Jain","so":"N/a","Address":"N/a","Phone":"9837525471"},{"Name":"Pulkit Agarwal","so":"N/a","Address":"N/a","Phone":"9927292793"},{"Name":"Dinesh Rastogi","so":"N/a","Address":"N/a","Phone":"9411616389"}],"armsLicenseHolder":[{"Name":"Gaurav","so":"Bholenath","Address":"230 Jattiwada","Phone":"N/a","Weapon":"N/a"},{"Name":"Pyiush Chand","so":"Rajkishor Sharma","Address":"294 Jatti Wada","Phone":"N/a","Weapon":"N/a"},{"Name":"Aanad Prakash","so":"Gyan Prakash","Address":"350 Jatti Wada","Phone":"N/a","Weapon":"N/a"},{"Name":"Ashok","so":"Phalad","Address":"Jatti Wada","Phone":"9027415917","Weapon":"N/a"},{"Name":"Rajendra Kumar","so":"Phalad Singh","Address":"7 Jatti Wada","Phone":"7895662424","Weapon":"N/a"},{"Name":"Shiv Kumar Verma","so":"Phalad Singh","Address":"Jatti Wada","Phone":"9412207157","Weapon":"N/a"},{"Name":"Naveen Kumar","so":"Hari Prakaash","Address":"11 Jattiwada","Phone":"N/a","Weapon":"N/a"},{"Name":"Aman Mittal","so":"Rajendra Kumar","Address":"125/2 Jattiwada","Phone":"N/a","Weapon":"N/a"}],"chowkidar":[{"Name":"Nil","so":"Nil","Address":"Nil","Phone":"Nil"}],"councellor":[{"Name":"gaurav naamdev","so":"sudheer kumar ","Address":"Nil","Phone":"9358425341"}],"historySheeter":[{"Name":"Nil","so":"Nil","Address":"Nil","Status":"Nil","Phone":"Nil"}],"convictedCriminals":[{"Name":"Nil","so":"Nil","3Status":"Nil","4Address":"Nil"}],"crimes5Yrs":[{"Name":"Nil","so":"Nil","crimeno":"Nil","Section":"Nil","Address":"Nil"}],"electionCrimes":[{"Name":"nil","so":"nil","crimeno":"nil","Section":"Nil","Address":"nil"}],"politician":[{"Name":"nil","so":"Nil","Address":"Nil","Phone":"nil"}],"boundDownUnder":"Nil","vulnerabilityDetails":"critical","warrantedCriminals":[{"Name":"Nil","so":"Nil","Address":"Nil","Phone":"Nil"}],"condition":"Good"},{"stationID":"KT-30","stationName":"dharmsala sirnimal near nigar ceniama","latitude":" 28.98142","longitude":"77.70414","polingCenterPhoto":"../img/mediPanchayat.png","routes":"../img/3.png","collectionPoint":"../img/3.png","population":"Nil","voters":"2905","villageMohalla":"saray kharnagar, bazar kharnagar  ","path":"#/menu/tab/medicalDetails","respectedPpl":[{"Name":"Gaurav Naam Dev","so":"N/a","Address":"N/a","Phone":"9358425341"},{"Name":"Aakash Kumar","so":"N/a","Address":"N/a","Phone":"8791249014"}],"retiredGovtSer":[{"Name":"Nil","so":"Nil","Address":"Nil","Phone":"Nil"}],"neighbourPolling":[{"Name":"Mahesh Chand","so":"N/a","Address":"N/a","Phone":"9412515238"},{"Name":"Parveen","so":"N/a","Address":"N/a","Phone":"9897015670"},{"Name":"Aakash Kumar","so":"N/a","Address":"N/a","Phone":"8791249014"},{"Name":"Mhod. Junaid","so":"N/a","Address":"N/a","Phone":"9027550763"}],"armsLicenseHolder":[{"Name":"Arun Verma","so":"Shivpal","Address":"5- Ladies Park, Kharnagar","Phone":"N/a","Weapon":"N/a"},{"Name":"Manager(boi)","so":"N/a","Address":"N/a","Phone":"N/a","Weapon":"N/a"},{"Name":"P.k. Jain (manager Pnb)","so":"N/a","Address":"N/a","Phone":"N/a","Weapon":"N/a"},{"Name":"Prakesh Chand Gupta","so":"Hem Chand","Address":"197 Khar Nagra","Phone":"N/a","Weapon":"N/a"},{"Name":"Hari Singh","so":"Jaasan Lal","Address":"246 Saray Khar Nagar","Phone":"N/a","Weapon":"N/a"},{"Name":"Anil Kumar","so":"Veer Bhan","Address":"324/3saray Khar Nagar","Phone":"N/a","Weapon":"N/a"},{"Name":"Aalam Chand","so":"Rama Chand Swami","Address":"292 New Khar Nagar","Phone":"N/a","Weapon":"N/a"},{"Name":"Rakesh Swami","so":"Chandrasheker","Address":"Kharnagar","Phone":"N/a","Weapon":"N/a"},{"Name":"Jala Husan","so":"Mustaz Husan","Address":"163 Saray Khar Nagar","Phone":"N/a","Weapon":"N/a"},{"Name":"Nishank Swami","so":"Rahesh Swami","Address":"333 Rajaview Khar Nagar","Phone":"N/a","Weapon":"N/a"},{"Name":"Nitin","so":"Kishan Sharma","Address":"112 Dalampada","Phone":"N/a","Weapon":"N/a"}],"chowkidar":[{"Name":"Nil","so":"Nil","Address":"Nil","Phone":"Nil"}],"councellor":[{"Name":"gaurav naamdev","so":"sudheer kumar ","Address":"Nil","Phone":"9358425341"}],"historySheeter":[{"Name":"Nil","so":"Nil","Address":"Nil","Status":"Nil","Phone":"Nil"}],"convictedCriminals":[{"Name":"Nil","so":"Nil","3Status":"Nil","4Address":"Nil"}],"crimes5Yrs":[{"Name":"Nil","so":"Nil","crimeno":"Nil","Section":"Nil","Address":"Nil"}],"electionCrimes":[{"Name":"nil","so":"nil","crimeno":"nil","Section":"Nil","Address":"nil"}],"politician":[{"Name":"nil","so":"Nil","Address":"Nil","Phone":"nil"}],"boundDownUnder":"Nil","vulnerabilityDetails":"critical","warrantedCriminals":[{"Name":"Nil","so":"Nil","Address":"Nil","Phone":"Nil"}],"condition":"Good"}]