[{"stationID":"BM-01","stationName":"Nagar Nika Kanya Uchh Prathmik Vidhyala Krishan Puri","latitude":"28.9733","longitude":"77.6963","polingCenterPhoto":"/img/mediPanchayat.png","routes":"/img/3.png","collectionPoint":"/img/3.png","population":"Nil","voters":"1416","villageMohalla":"Baghpat Gate","path":"#/menu/tab/medicalDetails","respectedPpl":[{"Name":"Shri Anil kumar Jain","so":"Nil","Address":"Nil","Phone":"9456450112"},{"Name":"Ashok Goyal ","so":"Nil","Address":"Nil","Phone":"9412201454"},{"Name":"Mukesh Aggarwal","so":"Nil","Address":"Shardha Road","Phone":"9058665444"},{"Name":"Kumer Sahab Bhadana","so":"Nil","Address":"Nil","Phone":"9058501227"}],"retiredGovtSer":[{"Name":"Nil","so":"Nil","Address":"Nil","Phone":"Nil"}],"neighbourPolling":[{"Name":"Shri Sanjay Kumar Jain","so":"Nil","Address":"Nil","Phone":"9319631110"},{"Name":"Anubhav Goyal","so":"Nil","Address":"Nil","Phone":"9837064131"},{"Name":"Ankit Arora","so":"Nil","Address":"Nil","Phone":"Nil"}],"armsLicenseHolder":[{"Name":"Vinod goyal","so":"shiv shankar lal goyal","Address":"392  Baghpat Gate","Phone":"9927217953","Weapon":"DBBL"},{"Name":"Dr.shri kabel Krishan","so":"Desh raj Singh","Address":"Baghpat Gate","Phone":"Nil","Weapon":"Revolver"},{"Name":"Shri Brij Mohan","so":"Balwant","Address":"1390 Baghpat Gate","Phone":"9837109698","Weapon":"Revolver"},{"Name":"Shri Narendra Kumar Aggarwal","so":"Nathu singh","Address":"Baghpat Gate","Phone":"9897499065","Weapon":"Revolver"},{"Name":"Shri ravindra Kumar","so":"Keval Ram","Address":"970 Baghpat Gate","Phone":"9760039451","Weapon":"Revolver"},{"Name":"Haji Sahed","so":"Haji Haqemuddin","Address":"Baghpat Gate","Phone":"9358018109","Weapon":"Revolver"},{"Name":"Rajiv Kumar sharma","so":"Fateh chand Sharma","Address":"622 Baghpat Gate","Phone":"9837030061","Weapon":"Pistol"},{"Name":"Shri Vinod Goyal","so":"Subash Goyal","Address":"Baghpat Gate","Phone":"Nil","Weapon":"DBBL"},{"Name":"Triloki Nath","so":"Nursing das Sharma","Address":"Baghpat Gate","Phone":"9837345625","Weapon":"Revolver"}],"chowkidar":[{"Name":"Nil","so":"Nil","Address":"Nil","Phone":"Nil"}],"councellor":[{"Name":"Miss Rashmi Gupta","so":"Nil","Address":"Nil","Phone":"9319797910"},{"Name":"Shri Harkishan Gupta","so":"Nil","Address":"Nil","Phone":"9319797910"}],"historySheeter":[{"Name":"Nil","so":"Nil","Address":"Nil","Status":"Nil","Phone":"Nil"}],"convictedCriminals":[{"Name":"Nil","so":"Nil","3Status":"Nil","4Address":"Nil"}],"crimes5Yrs":[{"Name":"Nil","so":"Nil","crimeno":"Nil","Section":"Nil","Address":"Nil"}],"electioncrimeno":[{"Name":"Nil","so":"Nil","crimeno":"Nil","Section":"Nil","Address":"Nil"}],"politician":[{"Name":"Rajkumar","so":"Nil","Address":"Nil","Phone":"9412209459"},{"Name":"Dinesh Kumar ","so":"Nil","Address":"Nil","Phone":"9027121319"}],"boundDownUnder":"Nil","vulnerabilityDetails":"General","warrantedCriminals":[{"Name":"Nil","so":"Nil","Address":"Nil","Phone":"Nil"}],"condition":"Good"},{"stationID":"BM-02","stationName":"DharamShala lala Bhagwandas NandKishor Rastogi Kishan  Puri Delhi Gate","latitude":"28.9737","longitude":"77.6956","polingCenterPhoto":"/img/mediPanchayat.png","routes":"/img/3.png","collectionPoint":"/img/3.png","population":"Nil","voters":"1032","villageMohalla":"Baghpat Road","path":"#/menu/tab/medicalDetails","respectedPpl":[{"Name":"Vimal Saxena","so":"Nil","Address":"Nil","Phone":"9359345970"},{"Name":"Arvind Sharma","so":"Nil","Address":"Nil","Phone":"Nil"},{"Name":"Ankit","so":"Nil","Address":"Nil","Phone":"9027942518"}],"retiredGovtSer":[{"Name":"Nil","so":"Nil","Address":"Nil","Phone":"Nil"}],"neighbourPolling":[{"Name":"Ashok","so":"Nil","Address":"Nil","Phone":"Nil"},{"Name":"Pankaj gupta","so":"Nil","Address":"Nil","Phone":"1212529542"},{"Name":"Sagar","so":"Nil","Address":"Nil","Phone":"8979711216"},{"Name":"Rajkumar","so":"Nil","Address":"Nil","Phone":"9412209459"},{"Name":"Jai Bhagwan","so":"Nil","Address":"Nil","Phone":"9837219706"},{"Name":"Suresh Chand Jain","so":"Nil","Address":"Nil","Phone":"9634699159"}],"armsLicenseHolder":[{"Name":"Nil","so":"Nil","Address":"Nil","Phone":"Nil","Weapon":"Nil"}],"chowkidar":[{"Name":"Nil","so":"Nil","Address":"Nil","Phone":"Nil"}],"councellor":[{"Name":"Shrimati Mishtha Devi","so":"Nil","Address":"Nil","Phone":"9058501227"},{"Name":" Shri Ashok Singhal","so":"Nil","Address":"Nil","Phone":"9837886606"}],"historySheeter":[{"Name":"Nil","so":"Nil","Address":"Nil","Status":"Nil","Phone":"Nil"}],"convictedCriminals":[{"Name":"Nil","so":"Nil","3Status":"Nil","4Address":"Nil"}],"crimes5Yrs":[{"Name":"Amit Saini","so":"Ram  Chandra","crimeno":"480/12","Section":"332,353,504,506 IPC","Address":"1425 Indra Nagar First"},{"Name":"Badal","so":"Paramjeet","crimeno":"287/13","Section":"379,411 IPC","Address":"Punjabi Pura"},{"Name":"Pappu","so":"Birbal","crimeno":"538/13","Section":"25/4 A Act","Address":"Tetabi "},{"Name":"Unknown","so":"Nil","crimeno":"125/15","Section":"147,323,504 IPC","Address":"Nil"},{"Name":"Haji Zafar Uswani","so":"lt. Hamid","crimeno":"387/16","Section":"25 A Act","Address":"Nil"}],"electioncrimeno":[{"Name":"Nil","so":"Nil","crimeno":"Nil","Section":"Nil","Address":"Nil"}],"politician":[{"Name":"Rajkumar","so":"Nil","Address":"Nil","Phone":"9837592986"},{"Name":"Dinesh Kumar","so":"Nil","Address":"Nil","Phone":"9027121319"}],"boundDownUnder":"Nil","vulnerabilityDetails":"General","warrantedCriminals":[{"Name":"Nil","so":"Nil","Address":"Nil","Phone":"Nil"}],"condition":"Good"},{"stationID":"BM-03","stationName":"Prathamik vidhyala Hari Nagar","latitude":"28.9722","longitude":"77.7018","polingCenterPhoto":"/img/mediPanchayat.png","routes":"/img/3.png","collectionPoint":"/img/3.png","population":"Nil","voters":"700","villageMohalla":"Hari Nagar Purva Ilahibaksh","path":"#/menu/tab/medicalDetails","respectedPpl":[{"Name":"Haji Waseem","so":"Nil","Address":"Nil","Phone":"9319846856"},{"Name":"Nand lal Pal","so":"MoolChand Pal","Address":"Nil","Phone":"9319810752"},{"Name":"Ashish","so":"Nanak","Address":"Nil","Phone":"9719397888"},{"Name":"Rajesh","so":"Ram Chandra","Address":"Nil","Phone":"9358808203"}],"retiredGovtSer":[{"Name":"Yogendra Kumar Sharma","so":"Nil","Address":"Nil","Phone":"9897901044"},{"Name":"Viresh Tyagi","so":"Nil","Address":"Nil","Phone":"9719216309"}],"neighbourPolling":[{"Name":"Yogendra Kumar Sharma","so":"Lt. Jai Prakash Sharma","Address":"Nil","Phone":"9897901044"},{"Name":"Rajesh","so":"Ram Chandra","Address":"Nil","Phone":"9358808203"},{"Name":"Ashish","so":"Nanak Chand","Address":"Nil","Phone":"9719397888"},{"Name":"Rahul Sharma","so":"Munesh Sharma","Address":"Nil","Phone":"9837310824"},{"Name":"Nand Lal Pal","so":"MoolChand Pal","Address":"Nil","Phone":"9319810752"}],"armsLicenseHolder":[{"Name":"Raavendra Kumar","so":"Har Nand","Address":"Hari  Nagar","Phone":"9997222023","Weapon":"DBBL"},{"Name":"Nepal Singh","so":"Nathu Lal","Address":"Hari  Nagar","Phone":"9556296294","Weapon":"Revolver"},{"Name":"Jai Bhagwan","so":"Beg Raj","Address":"Hari  Nagar","Phone":"9897146322","Weapon":"SBBL"},{"Name":"Sudheer Kumar","so":"Ram  Kishor","Address":"Hari  Nagar","Phone":"9837373780","Weapon":"Revolver"},{"Name":"Suresh Chandra Sharma","so":"Mangal Sain","Address":"Hari  Nagar","Phone":"Nil","Weapon":"Pistol"},{"Name":"Mohd. Afjal","so":"Hanef","Address":"Purva ilahi Baksh","Phone":"9997058786","Weapon":"Revolver"},{"Name":"Sahed (Adv)","so":"Mohd. Aqtar","Address":"Purva ilahi Baksh","Phone":"9412200485","Weapon":"Revolver"},{"Name":"Sakheer Ahmad","so":"Aqtar Ali","Address":"Purva ilahi Baksh","Phone":"Nil","Weapon":"Pistol"},{"Name":"Girish","so":"Om Prakash","Address":"Hari  Nagar","Phone":"Nil","Weapon":"Pistol"},{"Name":"Bharat Veer","so":"Ghudiya","Address":"Purva ilahi Baksh","Phone":"Nil","Weapon":"DBBL"},{"Name":"Om Prakash","so":"Kishan Chandra verma","Address":"Hari  Nagar","Phone":"Nil","Weapon":"Revolver"}],"chowkidar":[{"Name":"Nil","so":"Nil","Address":"Nil","Phone":"Nil"}],"councellor":[{"Name":"Sunil Dutt Saini","so":"Nil","Address":"Nil","Phone":"9358410400"},{"Name":"Ashok Kumar","so":"Nil","Address":"Nil","Phone":"Nil"}],"historySheeter":[{"Name":"Nil","so":"Nil","Address":"Nil","Status":"Nil","Phone":"Nil"}],"convictedCriminals":[{"Name":"Nil","so":"Nil","3Status":"Nil","4Address":"Nil"}],"crimes5Yrs":[{"Name":"Ram Avtar","so":"Meera Singh","crimeno":"420/12","Section":"323,504,147,352 IPC","Address":"107 Guri Pura"},{"Name":"Simpal","so":"Arjun Singh","crimeno":"365/13","Section":"354 (K) 323,504","Address":"Harinagar"},{"Name":"Priyanka sharma","so":"D/o Subash Chandra","crimeno":"323/14","Section":"147,452,354 A) 504,323","Address":"Harinagar"},{"Name":"Mustaq Chauchan","so":"lt. Iliyaz","crimeno":"487/14","Section":"380,511 IPC","Address":"Harinagar"},{"Name":"Shejad","so":"Irfan","crimeno":"220/16","Section":"452307504506 IPC","Address":"208 Zakir colony"}],"electioncrimeno":[{"Name":"Nil","so":"Nil","crimeno":"Nil","Section":"Nil","Address":"Nil"}],"politician":[{"Name":"Nishu Gupta","so":"Nil","Address":"Nil","Phone":"8266822698"},{"Name":"Haji Waseem ","so":"Nil","Address":"Nil","Phone":"9319846856"},{"Name":"Shajad Mevati","so":"Nil","Address":"Nil","Phone":"9219887463"}],"boundDownUnder":"Nil","vulnerabilityDetails":"Hyper Sensitve","warrantedCriminals":[{"Name":"Nil","so":"Nil","Address":"Nil","Phone":"Nil"}],"condition":"Good"},{"stationID":"BM-04","stationName":"Nagar Nigam Prathmik Vidhyala Krishna Puri Baghpat gate Meerut","latitude":" 28.9733","longitude":"  77.6963","polingCenterPhoto":"/img/mediPanchayat.png","routes":"/img/3.png","collectionPoint":"/img/3.png","population":"Nil","voters":"1416","villageMohalla":"Baghpat Gate","path":"#/menu/tab/medicalDetails","respectedPpl":[{"Name":"Shri Anil kumar Jain","so":"Nil","Address":"Nil","Phone":"9456450112"},{"Name":"Ashok Goyal ","so":"Nil","Address":"Nil","Phone":"9412201454"},{"Name":"Mukesh Aggarwal","so":"Nil","Address":"Shardha Road","Phone":"9058665444"},{"Name":"Kumer Sahab Bhadana","so":"Nil","Address":"Nil","Phone":"9058501227"}],"retiredGovtSer":[{"Name":"Nil","so":"Nil","Address":"Nil","Phone":"Nil"}],"neighbourPolling":[{"Name":"Shri Sanjay Kumar Jain","so":"Nil","Address":"Nil","Phone":"9319631110"},{"Name":"Anubhav Goyal","so":"Nil","Address":"Nil","Phone":"9837064131"},{"Name":"Ankit Arora","so":"Nil","Address":"Nil","Phone":"Nil"}],"armsLicenseHolder":[{"Name":"Vinod goyal","so":"shiv shankar lal goyal","Address":"392  Baghpat Gate","Phone":"9927217953","Weapon":"DBBL"},{"Name":"Dr.shri kabel Krishan","so":"Desh raj Singh","Address":"Baghpat Gate","Phone":"Nil","Weapon":"Revolver"},{"Name":"Shri Brij Mohan","so":"Balwant","Address":"1390 Baghpat Gate","Phone":"9837109698","Weapon":"Revolver"},{"Name":"Shri Narendra Kumar Aggarwal","so":"Nathu singh","Address":"Baghpat Gate","Phone":"9897499065","Weapon":"Revolver"},{"Name":"Shri ravindra Kumar","so":"Keval Ram","Address":"970 Baghpat Gate","Phone":"9760039451","Weapon":"Revolver"},{"Name":"Haji Sahed","so":"Haji Haqemuddin","Address":"Baghpat Gate","Phone":"9358018109","Weapon":"Revolver"},{"Name":"Rajiv Kumar sharma","so":"Fateh chand Sharma","Address":"622 Baghpat Gate","Phone":"9837030061","Weapon":"Pistol"},{"Name":"Shri Vinod Goyal","so":"Subash Goyal","Address":"Baghpat Gate","Phone":"Nil","Weapon":"DBBL"},{"Name":"Triloki Nath","so":"Nursing das Sharma","Address":"Baghpat Gate","Phone":"9837345625","Weapon":"Revolver"}],"chowkidar":[{"Name":"Nil","so":"Nil","Address":"Nil","Phone":"Nil"}],"councellor":[{"Name":"Miss Rashmi Gupta","so":"Nil","Address":"Nil","Phone":"9319797910"},{"Name":"Shri Harkishan Gupta","so":"Nil","Address":"Nil","Phone":"9319797910"}],"historySheeter":[{"Name":"Nil","so":"Nil","Address":"Nil","Status":"Nil","Phone":"Nil"}],"convictedCriminals":[{"Name":"Nil","so":"Nil","3Status":"Nil","4Address":"Nil"}],"crimes5Yrs":[{"Name":"Nil","so":"Nil","crimeno":"Nil","Section":"Nil","Address":"Nil"}],"electioncrimeno":[{"Name":"Nil","so":"Nil","crimeno":"Nil","Section":"Nil","Address":"Nil"}],"politician":[{"Name":"Rajkumar","so":"Nil","Address":"Nil","Phone":"9412209459"},{"Name":"Dinesh Kumar ","so":"Nil","Address":"Nil","Phone":"9027121319"}],"boundDownUnder":"Nil","vulnerabilityDetails":"General","warrantedCriminals":[{"Name":"Nil","so":"Nil","Address":"Nil","Phone":"Nil"}],"condition":"Good"},{"stationID":"BM-05","stationName":"Nagar Nigam Ucch Prathmik Vidhyala Purva Ilahi Baksh","latitude":"28.9725","longitude":"77.7031","polingCenterPhoto":"/img/mediPanchayat.png","routes":"/img/3.png","collectionPoint":"/img/3.png","population":"Nil","voters":"2700","villageMohalla":"Purva Mukram Hussain, Purva Ilahi baksh ,Jatav Gate ,Saini Wali Gali","path":"#/menu/tab/medicalDetails","respectedPpl":[{"Name":"Pahelwaan Rahesuddin","so":"Nil","Address":"Nil","Phone":"9897053959"},{"Name":"ajad(Kapde wale)","so":"Nil","Address":"Nil","Phone":"9897228946"},{"Name":"Haji Alem Uddin","so":"Nil","Address":"Nil","Phone":"8430137774"},{"Name":"Batter Bhai","so":"Nil","Address":"Nil","Phone":"9368283055"}],"retiredGovtSer":[{"Name":"Nil","so":"Nil","Address":"Nil","Phone":"Nil"}],"neighbourPolling":[{"Name":"Tabir","so":"Sahabuddin","Address":"Nil","Phone":"9368888862"},{"Name":"Zahir","so":"Haji Aleem Uddin","Address":"Nil","Phone":"9634587650"},{"Name":"Saddam","so":"Raheesuddin","Address":"Nil","Phone":"9897053959"},{"Name":"Haseen","so":"Batter","Address":"Nil","Phone":"9897053959"},{"Name":"Ajay","so":"Rajveer","Address":"Nil","Phone":"9719272737"}],"armsLicenseHolder":[{"Name":"Haji Aslam","so":"Saheed","Address":"Purva  Ilahi Baksh","Phone":"9319962461","Weapon":"DBBL"},{"Name":"Liyakat Ali","so":"Yusof","Address":"Purva  Ilahi Baksh","Phone":"9997783450","Weapon":"DBBL"},{"Name":"Saleem Ahmad","so":"Rafeq","Address":"Purva  Ilahi Baksh","Phone":"Nil","Weapon":"DBBL"},{"Name":"Saleem","so":"Aas Mohd.","Address":"Purva  Ilahi Baksh","Phone":"9897330686","Weapon":"Revolver/Rifle"},{"Name":"Bali Mohd. Babu","so":"Nijamuddin","Address":"Purva  Ilahi Baksh","Phone":"9897515100","Weapon":"Revolver"},{"Name":"Ajad Arif","so":"Deen Mohd.","Address":"Purva  Ilahi Baksh","Phone":"9897228946","Weapon":"Revolver"},{"Name":"Amjad Ali","so":"Liyakat","Address":"Purva  Ilahi Baksh","Phone":"999783450","Weapon":"Pistol"},{"Name":"Sayeem Ahmad Querashi","so":"Waheed Ahmad","Address":"Purva  Ilahi Baksh","Phone":"9897077707","Weapon":"Revolver"},{"Name":"Sanem Alam","so":"Abdul Hamid","Address":"Purva  Ilahi Baksh","Phone":"9897627774","Weapon":"Pistol"},{"Name":"Dr.Saref","so":"Haji Sayed","Address":"Purva  Ilahi Baksh","Phone":"9927860001","Weapon":"Rifle"},{"Name":"Nisar Ahmad","so":"Jafruddin","Address":"Purva  Ilahi Baksh","Phone":"9837786416","Weapon":"Revolver"}],"chowkidar":[{"Name":"Nil","so":"Nil","Address":"Nil","Phone":"Nil"}],"councellor":[{"Name":"Sunil Dutt Saini","so":"Nil","Address":"Nil","Phone":"9358410400"},{"Name":"Haji Kamal Uddin","so":"Nil","Address":"Nil","Phone":"9897786281"}],"historySheeter":[{"Name":"Bhabuddin/goli","so":"Hamiruddin","Address":"Purva Ilahi Baksh","Status":"Nil","Phone":"Nil"},{"Name":"Ayub/Soni","so":"Reseed","Address":"Purva Ilahi Baksh","Status":"Nil","Phone":"Nil"},{"Name":"dilshad","so":"Mustafa","Address":"Purva Ilahi Baksh","Status":"Nil","Phone":"Nil"},{"Name":"jaju/Samad","so":"Gulzar","Address":"Purva Ilahi Baksh","Status":"Nil","Phone":"Nil"}],"convictedCriminals":[{"Name":"Nil","so":"Nil","3Status":"Nil","4Address":"Nil"}],"crimes5Yrs":[{"Name":"Sahajad","so":"Hariyaj","crimeno":"484/12","Section":"148,149,952,323,504,506 IPC","Address":"Purva Ilahi Baksh"},{"Name":"Jamil Aqtar","so":"Ahmad Hussain","crimeno":"213/13","Section":"380,411 IPC","Address":"Rampur Bharai"},{"Name":"Ram  Chandra","so":"Puran Singh","crimeno":"553/13","Section":"325,323,504,506 IPC","Address":"Raj Sneh Wali Gali Purva Ilahi baksh"},{"Name":"Ajad","so":"Deen Mohd","crimeno":"303/14","Section":"147,452,354 (A) 323,504 IPC","Address":"Purva Ilahi Baksh"},{"Name":"Fatima","2Wo":"Israf","crimeno":"251/15","Section":"406,467,468,471,323,504,506,420 IPC","Address":"129 Purva Ilahi Baksh"},{"Name":"Amit","so":"Karan Singh","crimeno":"479/15","Section":"4523235,04,506","Address":"Purva Ilahi Baksh"}],"electioncrimeno":[{"Name":"Nil","so":"Nil","crimeno":"Nil","Section":"Nil","Address":"Nil"}],"politician":[{"Name":"Harun Chaudhary","so":" NIL","Address":" NIL","Phone":"9897434840"},{"Name":"Ajay Jatav","so":" NIL","Address":" NIL","Phone":"9719272737"},{"Name":"Danish","so":" NIL","Address":" NIL","Phone":"9760487475"},{"Name":"Mahesh Pratp Jatav","so":" NIL","Address":" NIL","Phone":"9319344235"},{"Name":"Islamuddin Gaji","so":" NIL","Address":" NIL","Phone":" NIL"}],"boundDownUnder":"Nil","vulnerabilityDetails":"Hyper  Sensitive","warrantedCriminals":[{"Name":"Nil","so":"Nil","Address":"Nil","Phone":"Nil"}],"condition":"Good"},{"stationID":"BM-06","stationName":"Ambedkar dharam Shala Bhagwat Pura","latitude":"28.9705","longitude":"77.7006","polingCenterPhoto":"/img/mediPanchayat.png","routes":"/img/3.png","collectionPoint":"/img/3.png","population":"Nil","voters":"5000","villageMohalla":"Laxman Puri BhagwatPura","path":"#/menu/tab/medicalDetails","respectedPpl":[{"Name":"Rajkumar","so":"Lt. Amar Singh","Address":"Nil","Phone":"9837183342"},{"Name":"Om Prakash (Kabadi)","so":"Amnu","Address":"Nil","Phone":"9927548145"},{"Name":"Ram Nath","so":"Bhagwan Das","Address":"Nil","Phone":"7500340434"},{"Name":"Vinod ","so":"roopkaran","Address":"Nil","Phone":"9837324532"}],"retiredGovtSer":[{"Name":"Nil","so":"Nil","Address":"Nil","Phone":"Nil"}],"neighbourPolling":[{"Name":"Som Prakash","so":"Maha singh","Address":"Nil","Phone":"9837823327"},{"Name":"Sangram Dhawan","so":"Bhram Dhawan","Address":"Nil","Phone":"9548116232"},{"Name":"Rinku","so":"Ashok","Address":"Nil","Phone":"9639926455"},{"Name":"Rajkumar ","so":"amar Singh","Address":"Nil","Phone":"9837183342"},{"Name":"Naveen","so":"Bhopal Singh","Address":"Nil","Phone":"8954425837"}],"armsLicenseHolder":[{"Name":"Rajkumar","so":"Bhagwat Prasad","Address":"Laxman Puri","Phone":"9045865212","Weapon":"DBBL"},{"Name":"Khem chand","so":"Shyam  Singh","Address":"Bhagwat pura","Phone":"Nil","Weapon":"DBBL"},{"Name":"Karan Singh","so":"Bhagat singh","Address":"Bhagwat pura","Phone":"8865021706","Weapon":"SBBL"},{"Name":"Ashok Kumar","so":"Shyam  Singh","Address":"Bhagwat pura","Phone":"121515237","Weapon":"DBBL"},{"Name":"Mukesh","so":"Pratap singh","Address":"Bhagwat pura","Phone":"9412511862","Weapon":"Rifle"},{"Name":"Satish Chandra","so":"Shri Ram","Address":"Bhagwat pura","Phone":"9319925686","Weapon":"DBBL"},{"Name":"Pradeep","so":"Sita Ram","Address":"Laxman Puri","Phone":"9837117763","Weapon":"Revolver"},{"Name":"Rakesh Kumar","so":"Kishan Kumar","Address":"Bhagwat pura","Phone":"9917310639","Weapon":"Revolver"},{"Name":"Madhusudan","so":"Ram Das","Address":"Laxman Puri","Phone":"9927019658","Weapon":"Pistol"},{"Name":"Jagrur","so":"Veer singh","Address":"Laxman Puri","Phone":"Nil","Weapon":"Pistol"},{"Name":"Sanjay","so":"Asaram","Address":"Bhagwat pura","Phone":"9897979208","Weapon":"Revolver"}],"chowkidar":[{"Name":"Nil","so":"Nil","Address":"Nil","Phone":"Nil"}],"councellor":[{"Name":"Achal Rahul","so":"Nil","Address":"Nil","Phone":"9358782111"},{"Name":"Sangeeta Rahul","so":"Nil","Address":"Nil","Phone":"9358782111"}],"historySheeter":[{"Name":"Hari","so":"Chiddi","Address":"Bhagwat Pura","Status":"Nil","Phone":"Nil"},{"Name":"Gajraj singh","so":"Niyarder Singh","Address":"Bhagwat Pura","Status":"Nil","Phone":"Nil"},{"Name":"Satish","so":"Prakash","Address":"Gautam Nagar","Status":"Nil","Phone":"Nil"},{"Name":"Pawan","so":"Ram Chandar","Address":"Gautam Nagar","Status":"Nil","Phone":"Nil"}],"convictedCriminals":[{"Name":"Nil","so":"Nil","3Status":"Nil","4Address":"Nil"}],"crimes5Yrs":[{"Name":"Kela Devi","so":"W/O lt. rohtash","crimeno":"105/12","Section":"147,3323,324,506 IPC","Address":"936 Laxman Puri"},{"Name":"Kiran","so":"W/o Keher Singh","crimeno":"253/12","Section":"4,57,380","Address":"Laxman Puri"},{"Name":"Ram babu","so":"Nil","crimeno":"365/14","Section":"377,511,7/8 (Pos Co.)","Address":"Nil"},{"Name":"Sanjeet","so":"Om Prakash","crimeno":"530/14","Section":"324,338,506 IPC","Address":"Laxman Puri"},{"Name":"Dharam Veer","so":"Mukdi Lal","crimeno":"501/14","Section":"406,427,506 IPC","Address":"Indra Nagar"},{"Name":"Lokesh","so":"Gopal","crimeno":"104/16","Section":"354,354 D,504,506 IPC","Address":"Bhagwat Pura"}],"electioncrimeno":[{"Name":"Nil","so":"Nil","crimeno":"Nil","Section":"Nil","Address":"Nil"}],"politician":[{"Name":"Chatar Singh Jatav","so":"Nil","Address":"Nil","Phone":"9917066075"},{"Name":"Nitin Bachan","so":"Nil","Address":"Nil","Phone":"9837400043"},{"Name":"Achal Rahul","so":"Nil","Address":"Nil","Phone":"9358782111"},{"Name":"Khem Chand Pahelwan ","so":"Nil","Address":"Nil","Phone":"9319616426"},{"Name":"RajKumar/Raju","so":"Nil","Address":"Nil","Phone":"9837183334"}],"boundDownUnder":"Nil","vulnerabilityDetails":"General","warrantedCriminals":[{"Name":"Nil","so":"Nil","Address":"Nil","Phone":"Nil"}],"condition":"Good"},{"stationID":"BM-07","stationName":"R B Public School Ishwar Puri","latitude":"28.9726","longitude":" 77.6989","polingCenterPhoto":"/img/mediPanchayat.png","routes":"/img/3.png","collectionPoint":"/img/3.png","population":"Nil","voters":"3600","villageMohalla":"Bhagwat Pura","path":"#/menu/tab/medicalDetails","respectedPpl":[{"Name":"Sunil Jatav","so":"Nil","Address":"Nil","Phone":"9897462354"},{"Name":"Jai Kumar","so":"Nil","Address":"Nil","Phone":"8791583190"},{"Name":"lalit Kumar","so":"Nil","Address":"Nil","Phone":"9837012386"}],"retiredGovtSer":[{"Name":"Nil","so":"Nil","Address":"Nil","Phone":"Nil"}],"neighbourPolling":[{"Name":"Vinod Kumar Rana","so":"Nil","Address":"Nil","Phone":"9897285244"},{"Name":"Mahesh Jatav","so":"Nil","Address":"Nil","Phone":"9319344235"},{"Name":"Pawan Ved","so":"Nil","Address":"Nil","Phone":"9045291899"}],"armsLicenseHolder":[{"Name":"Rakesh Kumar sharma","so":"Kishan Kumar","Address":"Bhagwat Pura","Phone":"9917310639","Weapon":"DBBL"},{"Name":"Sanjay sharma","so":"Asaram Sharma","Address":"14 Bhagwat Pura","Phone":"9897979208","Weapon":"Revolver"},{"Name":"Vinod Kumar Sharma","so":"Kanti Prasad Sharma","Address":"Bhagwat Pura","Phone":"9837215638","Weapon":"Revolver"},{"Name":"Madhusudan Kaushik","so":"Ram Raj","Address":"563 LaxmanPuri Bhagwat Pura","Phone":"9927019658","Weapon":"Pistol"},{"Name":"Sunil Kumar","so":"Asaram ","Address":"14 Bhagwat Pura","Phone":"9997125095","Weapon":"Revolver"},{"Name":"Rajveer","so":"Lt. Shri Rame","Address":"439 LaxmanPuri","Phone":"Nil","Weapon":"Pistol"},{"Name":"Rajkumar","so":"OM Prakash","Address":"470 Bhagwat Pura","Phone":"Nil","Weapon":"Revolver"},{"Name":"Priyavant Sharma","so":"Sita Ram","Address":"722 Laxman Puri","Phone":"Nil","Weapon":"DBBL"},{"Name":"Yogendra Kumar Jatav","so":"Sukhveer","Address":"27/2 Bhagwat Pura","Phone":"Nil","Weapon":"Pistol"}],"chowkidar":[{"Name":"Nil","so":"Nil","Address":"Nil","Phone":"Nil"}],"councellor":[{"Name":"Achal Rahul","so":"Nil","Address":"Nil","Phone":"9358782111"},{"Name":"Sangeeta Rahul","so":"Nil","Address":"Nil","Phone":"9358782111"}],"historySheeter":[{"Name":"Jyoti Prasad","so":"Jile Singh","Address":"322 Ishwar Puri","Status":"Missing","Phone":"Nil"}],"convictedCriminals":[{"Name":"Nil","so":"Nil","3Status":"Nil","4Address":"Nil"}],"crimes5Yrs":[{"Name":"Nil","so":"Nil","crimeno":"Nil","Section":"Nil","Address":"Nil"}],"electioncrimeno":[{"Name":"Nil","so":"Nil","crimeno":"Nil","Section":"Nil","Address":"Nil"}],"politician":[{"Name":"Yogendra Jatav ","so":"Nil","Address":"Nil","Phone":9837321948},{"Name":"Mahesh Pratap Jatav","so":"Nil","Address":"Nil","Phone":9319983439}],"boundDownUnder":"Nil","vulnerabilityDetails":"General","warrantedCriminals":[{"Name":"Nil","so":"Nil","Address":"Nil","Phone":"Nil"}],"condition":"Good"},{"stationID":"BM-08","stationName":"Silar Public School Laxman Puri gali No.4","latitude":" 28.9698","longitude":"77.6975","polingCenterPhoto":"/img/mediPanchayat.png","routes":"/img/3.png","collectionPoint":"/img/3.png","population":"Nil","voters":"1500","villageMohalla":"Bhagwat Pura, Bhumiya Mandir , Horang Nagar, Dwarika Puri, Alok Vihar","path":"#/menu/tab/medicalDetails","respectedPpl":[{"Name":"Om Prakash Kabadi)","so":"Amnu","Address":"Nil","Phone":"9927548145"},{"Name":"Ram nath","so":"Bhagwan Das","Address":"Nil","Phone":"7500340434"},{"Name":"Manish","so":"Mahaveer","Address":"Nil","Phone":"7351252329"},{"Name":"Vinod","so":"Roopkaran","Address":"Nil","Phone":"9837324532"}],"retiredGovtSer":[{"Name":"Nil","so":"Nil","Address":"Nil","Phone":"Nil"}],"neighbourPolling":[{"Name":"Ram Nath","so":"Bhagwan Das","Address":"Nil","Phone":"7500340434"},{"Name":"Jitin","so":"Nand Kishor","Address":"Nil","Phone":"9837932950"},{"Name":"Rinku","so":"Ashok","Address":"Nil","Phone":"9639926455"},{"Name":"Sagar","so":"Babu","Address":"Nil","Phone":"9639393124"}],"armsLicenseHolder":[{"Name":"Roop Lal","so":"Harish Chand","Address":"Alok Vihar","Phone":"8755658067","Weapon":"DBBL"},{"Name":"Dev Raj","so":"Madan Pal","Address":"Bhagwat Pura","Phone":"9368242431","Weapon":"DBBL"},{"Name":"Vinod Kumar","so":"Banarsi das","Address":"Bhagwat Pura","Phone":"9897285244","Weapon":"DBBL"},{"Name":"Vinod Kumar","so":"Kanti Prasad","Address":"Bhagwat Pura","Phone":"9837215638","Weapon":"Revolver"},{"Name":"Shrimati Satesh","so":"W/O Lt. anil chaudhary","Address":"Bhagwat ki Chakki","Phone":"Nil","Weapon":"Revolver"},{"Name":"Sunil","so":"Asaram","Address":"Bhagwat Pura","Phone":"9997125095","Weapon":"Revolver"},{"Name":"DayaRam","so":"Hari Singh","Address":"Horang Nagar","Phone":"","Weapon":"Revolver"},{"Name":"Yogendra Jatav","so":"Sukhveer Singh","Address":"Bhagwat Pura","Phone":"9837321948","Weapon":"Revolver"},{"Name":"Raj Kumar","so":"Om prakash","Address":"Bhagwat Pura","Phone":"9358807879","Weapon":"Revolver"},{"Name":"Najir","so":"mumtaj","Address":"Purva Ilahi Baksh","Phone":"9760268375","Weapon":"Revolver"},{"Name":"Aslam","so":"Noor Mohd.","Address":"Purva Ilahi Baksh","Phone":"Nil","Weapon":"Rifle"}],"chowkidar":[{"Name":"Nil","so":"Nil","Address":"Nil","Phone":"Nil"}],"councellor":[{"Name":"Achal Rahul","so":"Nil","Address":"Nil","Phone":"9358782111"},{"Name":"Sangeeta Rahul","so":"Nil","Address":"Nil","Phone":"9358782111"}],"historySheeter":[{"Name":"Brijesh","so":"Bhagi Rath","Address":"Makan No. 1 Alok Vihar","Status":"Nil","Phone":"Nil"},{"Name":"Devendra","so":"Bhagwat Prasad","Address":"165 Alok Vihar","Status":"Nil","Phone":"Nil"},{"Name":"Vijay","so":"Dotu ram","Address":"13 Alok Vihar","Status":"Nil","Phone":"Nil"}],"convictedCriminals":[{"Name":"Nil","so":"Nil","3Status":"Nil","4Address":"Nil"}],"crimes5Yrs":[{"Name":"Nil","so":"Nil","crimeno":"Nil","Section":"Nil","Address":"Nil"}],"electioncrimeno":[{"Name":"Nil","so":"Nil","crimeno":"Nil","Section":"Nil","Address":"Nil"}],"politician":[{"Name":"Sangeeta Rahul   ","so":"Nil","Address":"Nil","Phone":"9358782111"},{"Name":"Chatar Singh  ","so":"Nil","Address":"Nil","Phone":"9917066075"},{"Name":"Nitin Bachan   ","so":"Nil","Address":"Nil","Phone":"983700043"}],"boundDownUnder":"Nil","vulnerabilityDetails":"General","warrantedCriminals":[{"Name":"Nil","so":"Nil","Address":"Nil","Phone":"Nil"}],"condition":"Good"},{"stationID":"BM-09","stationName":"Nehru Smarak Jr. High School Ganesh Puri","latitude":"28.9651","longitude":"77.6975","polingCenterPhoto":"/img/mediPanchayat.png","routes":"/img/3.png","collectionPoint":"/img/3.png","population":"Nil","voters":"1800","villageMohalla":"Ganesh Puri","path":"#/menu/tab/medicalDetails","respectedPpl":[{"Name":"Ankit Giri","so":"Ram Bhool giri","Address":"Nil","Phone":"9458078114"},{"Name":"Utpal Raj","so":"Shiva Nand Sharma","Address":"Nil","Phone":"9997123458"},{"Name":"Subash Saini","so":"Nil","Address":"Nil","Phone":"Nil"}],"retiredGovtSer":[{"Name":"Nil","so":"Nil","Address":"Nil","Phone":"Nil"}],"neighbourPolling":[{"Name":"Ankur","so":"Devendra","Address":"Nil","Phone":"7417553408"},{"Name":"Nitin Kumar","so":"Mukesh Kumar","Address":"Nil","Phone":"8923292982"},{"Name":"Vicky","so":"Rajendra Kumar","Address":"Nil","Phone":"8532968780"},{"Name":"Ajay Kumar","so":"Devendra Kumar","Address":"Nil","Phone":"9720117263"},{"Name":"Utpal Raj","so":"Shiva Nand sharma","Address":"Nil","Phone":"9997123458"}],"armsLicenseHolder":[{"Name":"Mohd. Arif","so":"Haji Nafees","Address":"Purva Ilahi Baksh","Phone":"9319777786","Weapon":"Pistol"},{"Name":"Priya Vat Sharma","so":"Sita Ram","Address":"Laxman puri","Phone":"9456481397","Weapon":"DBBL"},{"Name":"Haji abid","so":"Anees Ahmad","Address":"Purva Ilahi Baksh","Phone":"Nil","Weapon":"Revolver"}],"chowkidar":[{"Name":"Nil","so":"Nil","Address":"Nil","Phone":"Nil"}],"councellor":[{"Name":"Achal Rahul","so":"Nil","Address":"Nil","Phone":"9358782111"},{"Name":"Sangeeta Rahul","so":"Nil","Address":"Nil","Phone":"9358782111"}],"historySheeter":[{"Name":"Sonu/ Arun ","so":"Laxman Singh","Address":"262 Ganesh Puri","Status":"Nil","Phone":"Nil"},{"Name":"Naveen kashyap","so":"Sukhveer","Address":"145 Ganesh Puri","Status":"Nil","Phone":"Nil"},{"Name":"Rajesh","so":"Babu","Address":"196 Gali no.3 Ganesh Puri","Status":"Nil","Phone":"Nil"}],"convictedCriminals":[{"Name":"Nil","so":"Nil","3Status":"Nil","4Address":"Nil"}],"crimes5Yrs":[{"Name":"Sonu","so":"Kallu","crimeno":"275/12","Section":"324,352 IPC","Address":"Ganesh Puri"},{"Name":"Neeraj","so":"Prakash Chand","crimeno":"306/12","Section":"224,385,420,504,506,66(3) Suchna Pradoki Adhniyam","Address":"Ganesh Puri"},{"Name":"Rakesh","so":"Sohan Lal","crimeno":"368/12","Section":"323,325,504, IPC","Address":"1896/19 Indra Nagar"},{"Name":"Anees","so":"Haqam ali","crimeno":"513/12","Section":"3863075,04,506","Address":"Khatta Road Bharampuri"},{"Name":"Saleem/Niyaj","so":"Nil","crimeno":"29/13","Section":"307,507,IPC","Address":"Miya Mohd.nagar"},{"Name":"Nanak","so":"Kale","crimeno":"214/13","Section":"3233245,04,506","Address":"Naya Gao. Inhayat Pur"},{"Name":"Devendra Jag Mohan","so":"Balveer","crimeno":"247/14","Section":"3233245,04,506","Address":"Ganesh Puri"},{"Name":"Rakesh","so":"Kailash","crimeno":"531/14","Section":"3245,04,506","Address":"khatta Road "},{"Name":"Tarikat","so":"Shapakat","crimeno":"237/15","Section":"147,148,148,452,504,506,302,307,120 (B),34 IPC","Address":"Miya Mohd.nagar"},{"Name":"Vinod Jatav","so":"Dharam Pal","crimeno":"208/16","Section":"420,406,323,504,506 IPC","Address":"Ganesh Puri"},{"Name":"Pawan","so":"Trilok Chand","crimeno":"288/16","Section":"354,452,323,504,506 7/8 (pos co. ACT)","Address":"Ganesh Puri"},{"Name":"Kuldeep","so":"Nil","crimeno":"535/15","Section":"1471483234523250,00,000","Address":"Ganesh Puri"},{"Name":"Sandeep","so":"Nil","crimeno":"535/15","Section":"1471483234523250,00,000","Address":"Ganesh Puri"},{"Name":"tarun","so":"Nil","crimeno":"535/15","Section":"1471483234523250,00,000","Address":"Ganesh Puri"},{"Name":"Dharmendra ","so":"Uday veer","crimeno":"541/15","Section":"323,504,506,507,420,376,370,498,120 (B) IPC 3/4 Dowry ","Address":"P/S Tappal"}],"electioncrimeno":[{"Name":"Nil","so":"Nil","crimeno":"Nil","Section":"Nil","Address":"Nil"}],"politician":[{"Name":"Bablu ","so":"Nil","Address":"Nil","Phone":"Nil"},{"Name":"Ajay Kumar ","so":"Nil","Address":"Nil","Phone":"9720117263"},{"Name":"Utkal Raj ","so":" Shiva Nand","Address":"","Phone":"9997123458"}],"boundDownUnder":"Nil","vulnerabilityDetails":"General","warrantedCriminals":[{"Name":"Nil","so":"Nil","Address":"Nil","Phone":"Nil"}],"condition":"Good"},{"stationID":"BM-10","stationName":"Sardar Patel Municipal inter College Delhi Gate Sharda Road","latitude":"28.9728","longitude":"77.6964","polingCenterPhoto":"/img/mediPanchayat.png","routes":"/img/3.png","collectionPoint":"/img/3.png","population":"Nil","voters":"2500","villageMohalla":"Ismat Ganj Kabadi Bajar, Padao , Delhi Gate, Dal Mandi","path":"#/menu/tab/medicalDetails","respectedPpl":[{"Name":"Ashok Goyal Bhatte wale","so":"Nil","Address":"Nil","Phone":"9412201454"},{"Name":"Mukesh Agarwal","so":"Nil","Address":"Nil","Phone":"9058665444"},{"Name":"Kumar sahab Bhadana","so":"Nil","Address":"Nil","Phone":"9058501227"},{"Name":"Anil Kumar jain","so":"Nil","Address":"Nil","Phone":"9456450112"}],"retiredGovtSer":[{"Name":"Vinod Kumar","so":"Nil","Address":"Nil","Phone":"Nil"},{"Name":"Anil kumar goyal","so":"Nil","Address":"Nil","Phone":"9927543201"}],"neighbourPolling":[{"Name":"Nalin Kumar sharma (Ret Wale)","so":"Nil","Address":"Nil","Phone":"9927014140"},{"Name":"Anil Kumar goyal","so":"Nil","Address":"Nil","Phone":"9927543201"},{"Name":"Pradeep Kumar gupta","so":"Nil","Address":"Nil","Phone":"9412663721"},{"Name":"Ravendra Kumar goyal","so":"Nil","Address":"Nil","Phone":"8445131234"},{"Name":"Sanjeev Kumar Maheshwari","so":"Nil","Address":"Nil","Phone":"9412201477"}],"armsLicenseHolder":[{"Name":"Najeer Ahmad","so":"Haji Amjeed","Address":"Saraya Delhi Gate","Phone":"Nil","Weapon":"SBBL"},{"Name":"Haji Maksood","so":"Abdul Layik","Address":"Kabadi bajar","Phone":"Nil","Weapon":"DBBL"},{"Name":"Rajendra","so":"Umrao","Address":"ismat Ganj","Phone":"Nil","Weapon":"Pistol"},{"Name":"Suresh","so":"Umrao","Address":"ismat Ganj","Phone":"9412629565","Weapon":"Revolver"},{"Name":"Aslam","so":"Idresh","Address":"ismat Ganj","Phone":"Nil","Weapon":"Pistol"}],"chowkidar":[{"Name":"Satpal","so":"Nil","Address":"Nil","Phone":"8193004805"}],"councellor":[{"Name":"Rashmi Ggupta","so":"Nil","Address":"Nil","Phone":"9319797910"},{"Name":"Hari Kishan Parsad","so":"Nil","Address":"Nil","Phone":"9319797910"}],"historySheeter":[{"Name":"Nil","so":"Nil","Address":"Nil","Status":"Nil","Phone":"Nil"}],"convictedCriminals":[{"Name":"Nil","so":"Nil","3Status":"Nil","4Address":"Nil"}],"crimes5Yrs":[{"Name":"Amjad","so":"Kadir","crimeno":"337/12","Section":"498 A,323,324,307,3/4 Dowry Agniyam","Address":"Nil"},{"Name":"Shri jahah","2Wo":"kadir","crimeno":"337/12","Section":"498 A,323,324,307,3/4 Dowry Agniyam","Address":"Nil"},{"Name":"Amit/Arun","so":"Nil","crimeno":"437/12","Section":"384,171, IPC","Address":"Dharona Gulawti"},{"Name":"Yusof","so":"Bhole","crimeno":"139/13","Section":"452,392,323,506 IPC","Address":"Ismile Nagar"},{"Name":"Rajkumar/ Raju","so":"Amar Singh","crimeno":"298/13","Section":"384,323,504,506, IPC","Address":"Bhagwat Pura"},{"Name":"Rajesh Jahah","2Wo":" Sayeed ahmad","crimeno":"380/13","Section":"420,467,468,471,504,506 IPC","Address":"Shapir Gate"},{"Name":"Anil","so":"Nil","crimeno":"253/14","Section":"452,354, (A),504,506 IPC","Address":"Ismat ganj"},{"Name":"Juber","so":"Islam","crimeno":"488/14","Section":"3,92,411","Address":"Poorva Mohd. Nagar"},{"Name":"Shajad","so":"Sayyad","crimeno":"116/12","Section":"323,324,504 IPC","Address":"Baghpat Gate Bharampuri"},{"Name":"Sabab","so":"Saleem","crimeno":"60/13","Section":"21,20 NDPS","Address":"Delhi gate Patthar Balan"},{"Name":"Akash Kashyap","so":"Raju","crimeno":"253/16","Section":"4573,80,411","Address":"Sector 3  Madhav Puram"},{"Name":"Jahar lal","so":"Parapal","crimeno":"356/16","Section":"4204063234,52,506","Address":"Harsh villa"}],"electioncrimeno":[{"Name":"Nil","so":"Nil","crimeno":"Nil","Section":"Nil","Address":"Nil"}],"politician":[{"Name":"Kishan Kumar ","so":"Nil","Address":"Nil","Phone":"Nil"},{"Name":"Girish Gupta ","so":"Nil","Address":"Nil","Phone":"9837531641"},{"Name":"Manish Sharma","so":"Nil","Address":"Nil","Phone":"9837157444"},{"Name":"Sishta Devi Bhadana","so":"","Address":"","Phone":"9058501227"}],"boundDownUnder":"Nil","vulnerabilityDetails":"General","warrantedCriminals":[{"Name":"Nil","so":"Nil","Address":"Nil","Phone":"Nil"}],"condition":"Good"},{"stationID":"BM-11","stationName":"Daya Nand Sishu Sadan Jr. High School Bharam puri","latitude":"28.9701","longitude":"77.6962","polingCenterPhoto":"/img/mediPanchayat.png","routes":"/img/3.png","collectionPoint":"/img/3.png","population":"Nil","voters":"2200","villageMohalla":" Bharam Purii","path":"#/menu/tab/medicalDetails","respectedPpl":[{"Name":"Vipin Jindal","so":"Nil","Address":"Nil","Phone":"9319300584"},{"Name":"Anil","so":"Nil","Address":"Nil","Phone":"9837713311"},{"Name":"Pradeep Kumar","so":"Nil","Address":"Nil","Phone":"9012571494"}],"retiredGovtSer":[{"Name":"Nil","so":"Nil","Address":"Nil","Phone":"Nil"}],"neighbourPolling":[{"Name":"Nitish Kumar","so":"Nil","Address":"Nil","Phone":"9568213505"},{"Name":"Anand Prakash","so":"Nil","Address":"Nil","Phone":"9927550107"},{"Name":"Satish Kumar","so":"Nil","Address":"Nil","Phone":"9319312810"},{"Name":"Shri Mati rajesh","so":"Nil","Address":"Nil","Phone":"9358542382"}],"armsLicenseHolder":[{"Name":"Mukesh Kumar","so":"Raghunandan Prasad","Address":"671  Bharam puri","Phone":"9837743212","Weapon":"Revolver"},{"Name":"Deepak Gupta","so":"Ganga Sharan","Address":"Punjaya  Bharam puri","Phone":"9412082579","Weapon":"Revolver"},{"Name":"Abhinandan","so":"Shikhar Chand","Address":"Veer Nagar  Bharam puri","Phone":"9412804050","Weapon":"DBBL"},{"Name":"Vijendra","so":"Rajveer","Address":"Sharda Road  Bharam puri","Phone":"9412454937","Weapon":"Revolver"},{"Name":"Krishan Kumar","so":"Ram Prakash","Address":" Bharam puri","Phone":"9837794834","Weapon":"Rifle/Revolver/DBBL"},{"Name":"Ravi Dutt","so":"Roop Chand","Address":" Bharam puri","Phone":"9359712129","Weapon":"SBBL"},{"Name":"Sanjeev Kumar","so":"Deepti Mal","Address":" Bharam puri","Phone":"9219159390","Weapon":"Revolver"},{"Name":"Mukesh Kumar","so":"PramtmaSharan","Address":" Bharam puri","Phone":"9837354603","Weapon":"Pistol"},{"Name":"Pradeep verma","so":"Jai Prakash","Address":" Bharam puri","Phone":"8923947601","Weapon":"Pistol"}],"chowkidar":[{"Name":"Nil","so":"Nil","Address":"Nil","Phone":"Nil"}],"councellor":[{"Name":"Raju ","so":"Nil","Address":"Nil","Phone":"9634771453"},{"Name":"Vipin Jindal","so":"Nil","Address":"Nil","Phone":"9319300584"}],"historySheeter":[{"Name":"Nil","so":"Nil","Address":"Nil","Status":"Nil","Phone":"Nil"}],"convictedCriminals":[{"Name":"Nil","so":"Nil","3Status":"Nil","4Address":"Nil"}],"crimes5Yrs":[{"Name":"Afsar","so":"Yasin","crimeno":"38/12","Section":"41/109 CRPC","Address":"Rasleela Dasna"},{"Name":"Shajad","so":"Maksood","crimeno":"116/12","Section":"3233,24,504","Address":"Baghpat gate"},{"Name":"Ankur","so":"Aman","crimeno":"381/12","Section":"354 IPC","Address":"Gali no. 4 Bhagwat Pura"},{"Name":"Manoj","so":"Ram Kishan","crimeno":"224/13","Section":"392,411 IPC","Address":"Mangol Puri "},{"Name":"Unknown","so":"N/A","crimeno":"262/13","Section":"392","Address":"Nil"},{"Name":"Akash","so":"Arvind","crimeno":"346/13","Section":"3943,07,506","Address":" Bharam puri"},{"Name":"Raman","so":"Ram Pal","crimeno":"240/14","Section":"1471481493,07,504","Address":"Sector 2 Madhav Puram"},{"Name":"Pappu","so":"Devendra","crimeno":"530/15","Section":"3,80,411","Address":" Bharam puri"}],"electioncrimeno":[{"Name":"Nil","so":"Nil","crimeno":"Nil","Section":"Nil","Address":"Nil"}],"politician":[{"Name":"Nil","so":"Nil","Address":"Nil","Phone":"Nil"}],"boundDownUnder":"Nil","vulnerabilityDetails":"General","warrantedCriminals":[{"Name":"Nil","so":"Nil","Address":"Nil","Phone":"Nil"}],"condition":"Good"},{"stationID":"BM-12","stationName":"Kahnor Lal Girls Snatak College Sharda Road","latitude":"28.9708","longitude":"77.6919","polingCenterPhoto":"/img/mediPanchayat.png","routes":"/img/3.png","collectionPoint":"/img/3.png","population":"Nil","voters":"4200","villageMohalla":" Bharam Purii","path":"#/menu/tab/medicalDetails","respectedPpl":[{"Name":"Pawan Kumar","so":"Nil","Address":"Nil","Phone":"9897681800"},{"Name":"Praveen Kumar","so":"Nil","Address":"Nil","Phone":"9058972878"},{"Name":"Pradeep Kumar Aggarwal","so":"Nil","Address":"Nil","Phone":"Nil"}],"retiredGovtSer":[{"Name":"Pradeep Kumar Aggarwal","so":"Nil","Address":"Nil","Phone":"Nil"},{"Name":"Mahesh Chandra Singhal","so":"Nil","Address":"Nil","Phone":"9897332594"}],"neighbourPolling":[{"Name":"Rakesh Maheshwari","so":"Nil","Address":"Nil","Phone":"9997700520"},{"Name":"Sanjay Sharma Medical  wale","so":"Nil","Address":"Nil","Phone":"9557654444"},{"Name":"Ashok Kumar(type Wale)","so":"Nil","Address":"Nil","Phone":"9411617930"},{"Name":"Mukesh Maheshwari","so":"Nil","Address":"Nil","Phone":"9837571888"},{"Name":"Rajiv Gupta","so":"Nil","Address":"Nil","Phone":"9897098709"}],"armsLicenseHolder":[{"Name":"Sudheer Chabra","so":"Indra sen","Address":"Bharam puri","Phone":"9997829993","Weapon":"Revolver"},{"Name":"Satish Kumar sharma","so":"Bheem Sen","Address":"Bharam puri","Phone":"Nil","Weapon":"Revolver"},{"Name":"Rajendra Kumar","so":"Munsi Lal","Address":"PanjayaBharam puri","Phone":"9456295100","Weapon":"Pistol"},{"Name":"Pankaj Jain","so":"Anand Kumar","Address":"Bharam puri","Phone":"Nil","Weapon":"Revolver"},{"Name":"Ankur","so":"Rakesh Bansal","Address":"Kamal Bhawan Bharam puri","Phone":"Nil","Weapon":"Pistol"},{"Name":"mukul yadav","so":"R.P Yadav","Address":"Bharam puri","Phone":"Nil","Weapon":"Revolver"}],"chowkidar":[{"Name":"Nil","so":"Nil","Address":"Nil","Phone":"Nil"}],"councellor":[{"Name":"Rashmi Gupta ","so":"Nil","Address":"Nil","Phone":"9319797910"},{"Name":"Hari Kishan Gupta","so":"Nil","Address":"Nil","Phone":"9319797910"}],"historySheeter":[{"Name":"Nil","so":"Nil","Address":"Nil","Status":"Nil","Phone":"Nil"}],"convictedCriminals":[{"Name":"Nil","so":"Nil","3Status":"Nil","4Address":"Nil"}],"crimes5Yrs":[{"Name":"Yogendra","so":"Hardas","crimeno":"354/12","Section":"363,366 IPC","Address":"Barauli Bulanshaher"},{"Name":"Safi Kant Bhatnagar","so":"Radhe Shaym","crimeno":"500/12","Section":"294 IPC","Address":"Bharam Puri"},{"Name":"Arun Vishwas","so":"Om Prakash","crimeno":"152/13","Section":"153 (k) 295 (K) 67 IT Act","Address":"Madhav Puram"},{"Name":"Gagan Gupta","so":"Mahendra Pal","crimeno":"214/13","Section":"395,306, IPC","Address":"Madhav Puram"},{"Name":"Haji Mohd.","so":"Haji Aqtar","crimeno":"297/14","Section":"386,323,506 IPC","Address":"Nil"},{"Name":"Amjad","so":"Kadir","crimeno":"293/16","Section":"4204065,04,506","Address":"Ismat Ganj"}],"electioncrimeno":[{"Name":"Nil","so":"Nil","crimeno":"Nil","Section":"Nil","Address":"Nil"}],"politician":[{"Name":"Rajiv Gupta Kale  ","so":"Nil","Address":"Nil","Phone":"9897098709"},{"Name":"Pankaj GUPta  ","so":"Nil","Address":"Nil","Phone":"Nil"},{"Name":"Sushil Sharma ","so":"Nil","Address":"Nil","Phone":"Nil"},{"Name":"Satendra Sharma/ Billu ","so":"Nil","Address":"Nil","Phone":"9759000020"},{"Name":"Jai Prakash Aggarwal ","so":"Nil","Address":"Nil","Phone":"9837257030"},{"Name":"Sanjay Sharma Mandal  ","so":"Nil","Address":"Nil","Phone":"9837070809"}],"boundDownUnder":"Nil","vulnerabilityDetails":"General","warrantedCriminals":[{"Name":"Nil","so":"Nil","Address":"Nil","Phone":"Nil"}],"condition":"Good"},{"stationID":"BM-13","stationName":"Aditya Public School Gali No.7 Master Colony","latitude":"28.968","longitude":"77.6969","polingCenterPhoto":"/img/mediPanchayat.png","routes":"/img/3.png","collectionPoint":"/img/3.png","population":"Nil","voters":"1900","villageMohalla":"Bharam Puri, Sharda Road","path":"#/menu/tab/medicalDetails","respectedPpl":[{"Name":"Vipin jindal","so":"Nil","Address":"Nil","Phone":"9319300584"},{"Name":"Raju Verma","so":"Nil","Address":"Nil","Phone":"9634771453"},{"Name":"Rinku","so":"Nil","Address":"Nil","Phone":"8755880416"}],"retiredGovtSer":[{"Name":"Nil","so":"Nil","Address":"Nil","Phone":"Nil"}],"neighbourPolling":[{"Name":"Kapoor Aman","so":"Nil","Address":"Nil","Phone":"9897339882"},{"Name":"Gagan","so":"Nil","Address":"Nil","Phone":"7669627967"},{"Name":"Monu","so":"Nil","Address":"Nil","Phone":"9027408070"},{"Name":"Rinku","so":"Nil","Address":"Nil","Phone":"8755580416"},{"Name":"Raju Verma","so":"Nil","Address":"Nil","Phone":"9634771453"}],"armsLicenseHolder":[{"Name":"Mahaveer","so":"Lajpat Ray","Address":"Bharam Puri","Phone":"9368061704","Weapon":"SBBL"},{"Name":"Raju Goyal","so":"Ami Lal","Address":"Bharam Puri","Phone":"9997435777","Weapon":"DBBL"},{"Name":"Jitendra Kumar","so":"Nathi Lal Sharma","Address":"Bharam Puri","Phone":"9971119488","Weapon":"Revolver"},{"Name":"Ajay Kumar","so":"Ram Prakash","Address":"Bharam Puri","Phone":"9837817703","Weapon":"Pistol"},{"Name":"Shiv Kumar Tyagi","so":"Nand Kishor","Address":"Bharam Puri","Phone":"Nil","Weapon":"DBBL"},{"Name":"Amrish","so":"Indra Swaroop","Address":"Bharam Puri","Phone":"9897661226","Weapon":"DBBL/ Revolver"},{"Name":"Surendra Kumar","so":"Nathi Lal","Address":"Bharam Puri","Phone":"Nil","Weapon":"DBBL"},{"Name":"Devendra","so":"Rishi Pal","Address":"Bharam Puri","Phone":"1212530568","Weapon":"DBBL"},{"Name":"Vinod Kumar","so":"Balwant","Address":"Medical Bhawan","Phone":"8439091037","Weapon":"Revolver"},{"Name":"Ratan lal","so":"Pyare Lal","Address":"Bharam Puri","Phone":"1212522234","Weapon":"DBBL"}],"chowkidar":[{"Name":"Nil","so":"Nil","Address":"Nil","Phone":"Nil"}],"councellor":[{"Name":"Raju Verma","so":"Nil","Address":"Nil","Phone":"9634771453"},{"Name":"Vipin Jindal","so":"Nil","Address":"Nil","Phone":"9319350584"}],"historySheeter":[{"Name":"Nil","so":"Nil","Address":"Nil","Status":"Nil","Phone":"Nil"}],"convictedCriminals":[{"Name":"Nil","so":"Nil","3Status":"Nil","4Address":"Nil"}],"crimes5Yrs":[{"Name":"Nil","so":"Nil","crimeno":"Nil","Section":"Nil","Address":"Nil"}],"electioncrimeno":[{"Name":"Nil","so":"Nil","crimeno":"Nil","Section":"Nil","Address":"Nil"}],"politician":[{"Name":"Nil","so":"Nil","Address":"Nil","Phone":"Nil"}],"boundDownUnder":"Nil","vulnerabilityDetails":"General","warrantedCriminals":[{"Name":"Nil","so":"Nil","Address":"Nil","Phone":"Nil"}],"condition":"Good"},{"stationID":"BM-14","stationName":"Chavli Devi Arya Kanya Inter College BharamPuri","latitude":"28.9700","longitude":" 77.6961","polingCenterPhoto":"/img/mediPanchayat.png","routes":"/img/3.png","collectionPoint":"/img/3.png","population":"Nil","voters":"2800","villageMohalla":"Bharam Puri , Gauri Pura","path":"#/menu/tab/medicalDetails","respectedPpl":[{"Name":"Rakesh Gaud","so":"Nil","Address":"Nil","Phone":"8273308654"},{"Name":"Dinesh Jain","so":"Nil","Address":"Nil","Phone":"9897901228"},{"Name":"Pawan Aggarwal","so":"Nil","Address":"Nil","Phone":"9837422128"}],"retiredGovtSer":[{"Name":"Nil","so":"Nil","Address":"Nil","Phone":"Nil"}],"neighbourPolling":[{"Name":"Dr. Shri Mati Neelam","so":"Nil","Address":"Nil","Phone":"9411022182"},{"Name":"Sher Singh","so":"Nil","Address":"Nil","Phone":"9837248489"},{"Name":"Deepak Jain","so":"Nil","Address":"Nil","Phone":"9638416303"},{"Name":"Rakesh Gaud","so":"Nil","Address":"Nil","Phone":"8273308654"},{"Name":"Pawan Aggarwal","so":"Nil","Address":"Nil","Phone":"9837422128"}],"armsLicenseHolder":[{"Name":"Deepak Singhal","so":"Devendra","Address":"Gauri Pura","Phone":"Nil","Weapon":"DBBL"},{"Name":"Indra Kumar Garg","so":"Devdutt","Address":"Gauri Pura","Phone":"Nil","Weapon":"Revolver/DBBL"},{"Name":"Amreesh","so":"G.R Gupta","Address":"Panjaya","Phone":"Nil","Weapon":"Revolver"},{"Name":"Akash Sharma","so":"Ganga Sharan","Address":"Bharam Puri","Phone":"1212522318","Weapon":"SBBL"},{"Name":"Narendra","so":"Nihal Singh","Address":"Bharam Puri","Phone":"9837254060","Weapon":"Revolver"},{"Name":"Mukesh Kumar","so":"Ravanand","Address":"Bharam Puri","Phone":"Nil","Weapon":"Rifle"},{"Name":"Ishwar Chand","so":"nanak Chand","Address":"Bharam Puri","Phone":"Nil","Weapon":"DBBL"},{"Name":"Kanti Prasad","so":"Raja","Address":"Bharam Puri","Phone":"Nil","Weapon":"Revolver"},{"Name":"Bal mukund Sharm","so":"Mam  Chand sharma","Address":"Bharam Puri","Phone":"Nil","Weapon":"DBBL"},{"Name":"Pradeep Kumar","so":"Mahendra","Address":"Bharam Puri","Phone":"9412668885","Weapon":"DBBL"}],"chowkidar":[{"Name":"Nil","so":"Nil","Address":"Nil","Phone":"Nil"}],"councellor":[{"Name":"Raju Verma","so":"Nil","Address":"Nil","Phone":"9634771453"},{"Name":"Vipin Jindal","so":"Nil","Address":"Nil","Phone":"9319350584"}],"historySheeter":[{"Name":"Sanjeev/Chunnu","so":"Ved Prakash","Address":"Bharam Puri","Status":"Missing","Phone":"Nil"},{"Name":"Rajesh","so":"Yash Pal","Address":"Bharam Puri","Status":"Missing","Phone":"Nil"},{"Name":"Umesh","so":"Yash Pal","Address":"Bharam Puri","Status":"Missing","Phone":"Nil"},{"Name":"Dinesh","so":"Ram Bharose","Address":"Bharam Puri","Status":"Present","Phone":"Nil"},{"Name":"Anand","so":"Mohan/BuddPrakash","Address":"Bharam Puri","Status":"Missing","Phone":"Nil"},{"Name":"Raju/ Raj Kumar","so":"Jai Pal","Address":"106 Bharam Puri","Status":"Present","Phone":"Nil"},{"Name":"Sudheer","so":"Mangal Sen","Address":"578 Bharam Puri","Status":"Jail","Phone":"Nil"},{"Name":"Gauri/Gaurav","so":"Ram Kishor","Address":"245 Bharam Puri","Status":"Missing","Phone":"Nil"}],"convictedCriminals":[{"Name":"Nil","so":"Nil","3Status":"Nil","4Address":"Nil"}],"crimes5Yrs":[{"Name":"Gaurav","so":"Gajab Singh","crimeno":"12/11.","Section":"213 Gangster","Address":"Bharam Puri"},{"Name":"Sachin","so":"Kishor","crimeno":"276/11","Section":"294 IPC","Address":"Prempuri"},{"Name":"Pramod","so":"Jai Chand","crimeno":"393/11","Section":"452,323,504,506 IPC","Address":"Shiv Shakti Nagar"},{"Name":"Subash","so":"Nil","crimeno":"443/11","Section":"3923235,04,506","Address":"Jai Prakash Wali Gali"},{"Name":"Shajad","so":"Sayeed","crimeno":"116/12","Section":"3243,23,504","Address":"Baghpat Gate Maksood ali Chock"},{"Name":"Manmohan","so":"Manmohan Dixit","crimeno":"465/12","Section":"147,323,504,506,452 IPC","Address":"Bharam Puri"},{"Name":"Salman","so":"Zafar","crimeno":"512/12","Section":"420,467,468,471, 12 (B) IPC 12/27 Aushdiya Abhiniyam","Address":"Kamalpur"},{"Name":"Rahul","so":"Surendra","crimeno":"142/13","Section":"452,323,504,506 IPC","Address":"Bharam Puri"},{"Name":"Mukul kaushik","so":"virendra","crimeno":"143/13","Section":"147,427,506 IPC","Address":"Bharam Puri"},{"Name":"Navneet","so":"Manoj","crimeno":"153/13","Section":"147,148,336,323,427 IPC","Address":"Bhagwat Pura"},{"Name":"Pradeep Verma","so":"Jai Prakash","crimeno":"285/13","Section":"147,336,323,504,506 IPC","Address":"938 Bharam Puri"},{"Name":"Unknown","so":"Nil","crimeno":"139/15","Section":"Nil","Address":"Bharam Puri"},{"Name":"Akash","so":"Arvind","crimeno":"346/13","Section":"3943,07,506","Address":"Bharam Puri"}],"electioncrimeno":[{"Name":"Nil","so":"Nil","crimeno":"Nil","Section":"Nil","Address":"Nil"}],"politician":[{"Name":"Nil","so":"Nil","Address":"Nil","Phone":"Nil"}],"boundDownUnder":"Nil","vulnerabilityDetails":"General","warrantedCriminals":[{"Name":"Nil","so":"Nil","Address":"Nil","Phone":"Nil"}],"condition":"Good"},{"stationID":"BM-15","stationName":"Vivek Anand Academy Indra Nagar","latitude":"28.9672","longitude":"77.6936","polingCenterPhoto":"/img/mediPanchayat.png","routes":"/img/3.png","collectionPoint":"/img/3.png","population":"Nil","voters":"4000","villageMohalla":"Indra Nagar","path":"#/menu/tab/medicalDetails","respectedPpl":[{"Name":"Ajay Sharma","so":"Nil","Address":"Nil","Phone":"9758312140"},{"Name":"Ashwani Kaushik","so":"Nil","Address":"Nil","Phone":"9536243132"},{"Name":"PPS Tyagi","so":"Nil","Address":"Nil","Phone":"9759173012"},{"Name":"Kamal Gupta","so":"Nil","Address":"Nil","Phone":"9837038958"}],"retiredGovtSer":[{"Name":"Nil","so":"Nil","Address":"Nil","Phone":"Nil"}],"neighbourPolling":[{"Name":"Anand Prakash","so":"Nil","Address":"Nil","Phone":"9927550107"},{"Name":"Satish Kumar","so":"Nil","Address":"Nil","Phone":"9316312810"}],"armsLicenseHolder":[{"Name":"Manoj Kumar","so":"MunsiLal","Address":"Indra Nagar","Phone":"9837803170","Weapon":"DBBL"},{"Name":"Vijay Kumar","so":"Subash","Address":"Indra Nagar","Phone":"Nil","Weapon":"Revolver"},{"Name":"Satish Kumar","so":"Mahendra","Address":"Indra Nagar","Phone":"8899977779","Weapon":"Pistol"},{"Name":"Vinod","so":"Ram Kishan","Address":"Indra Nagar","Phone":"9412207488","Weapon":"Revolver"},{"Name":"Ajay Aggarwal","so":"Kishan","Address":"Indra Nagar","Phone":"9412632193","Weapon":"Pistol"},{"Name":"Pawan","so":"Kripal Singh","Address":"Indra Nagar","Phone":"9837069746","Weapon":"Pistol"},{"Name":"Narendra","so":"Bhopal","Address":"Indra Nagar","Phone":"9837329919","Weapon":"Rifle/revolver"},{"Name":"Mahesh","so":"Bhudev Gaud","Address":"Indra Nagar","Phone":"9897227695","Weapon":"DBBL"}],"chowkidar":[{"Name":"Nil","so":"Nil","Address":"Nil","Phone":"Nil"}],"councellor":[{"Name":"Raju Verma","so":"Nil","Address":"Nil","Phone":"9634771453"},{"Name":"Vipin Jindal","so":"Nil","Address":"Nil","Phone":"9319350584"}],"historySheeter":[{"Name":"Akhilesh","so":"Surendra Pal","Address":"Indra Nagar","Status":"Present","Phone":"Nil"},{"Name":"Vipin Jindal","so":"Ghasi Ram","Address":"Indra Nagar","Status":"Present","Phone":"Nil"},{"Name":"Rakesh","so":"Surendra Pal","Address":"Indra Nagar","Status":"Jail","Phone":"Nil"},{"Name":"Ashok","so":"Indraj","Address":"Indra Nagar","Status":"Missing","Phone":"Nil"},{"Name":"Laxman yadav","so":"Harish Chandra","Address":"Indra Nagar","Status":"Present","Phone":"Nil"}],"convictedCriminals":[{"Name":"Praveen ","so":"Indra Jeet","3Status":"Nil","4address":"Gali No. 4 Indra Nagar (Puruskaar Ghosit)"}],"crimes5Yrs":[{"Name":"Asif","so":"jam Bhed","crimeno":"265/14","Section":"363,366 IPC","Address":"Islam Nagar"},{"Name":"Ashish","so":"Suresh","crimeno":"200/14","Section":"392","Address":"Indra Nagar"},{"Name":"Unknown","so":"Unknown","crimeno":"9/14.","Section":"336,337 IPC","Address":"Nil"},{"Name":"Gaurav","so":"Rakesh","crimeno":"649/14","Section":"359 (K)","Address":"Shashi Mahal"},{"Name":"Nitin","so":"Satta","crimeno":"89/15","Section":"308,323,504,506 IPC","Address":"Malyana Nagar"},{"Name":"Sunill Verma","so":"Rajendra","crimeno":"109/15","Section":"323,353,504,506 IPC","Address":"Indra Nagar"},{"Name":"Manav Goyal","so":"Harish Kumar","crimeno":"276/15","Section":"4525045,06,427","Address":"Indra Nagar"},{"Name":"Manav Goyal","so":"Harish Kumar","crimeno":"423/15","Section":"323,504,506,325 IPC","Address":"Bharam Puri"},{"Name":"Kapil","so":"Brijesh","crimeno":"461/15","Section":"376,120 (B) 3/4 7/4 Pos co. ACT","Address":"Shiv Shakti Nagar"},{"Name":"Manish","so":"Jai Prakash","crimeno":"3/16.","Section":"452,323,504,506 IPC","Address":"Master Colony"}],"electioncrimeno":[{"Name":"Nil","so":"Nil","crimeno":"Nil","Section":"Nil","Address":"Nil"}],"politician":[{"Name":"Amit Gupta ","so":"Nil","Address":"Nil","Phone":"9927270493"},{"Name":"Ajay Sharma","so":"Nil","Address":"Nil","Phone":"9758312140"},{"Name":"Anshu Gupta ","so":"Nil","Address":"Nil","Phone":"9997343143"}],"boundDownUnder":"Nil","vulnerabilityDetails":"General","warrantedCriminals":[{"Name":"Nil","so":"Nil","Address":"Nil","Phone":"Nil"}],"condition":"Good"},{"stationID":"BM-16","stationName":"Bharti Public Jr. High School Indra Nagar","latitude":"28.9650","longitude":"77.6961","polingCenterPhoto":"/img/mediPanchayat.png","routes":"/img/3.png","collectionPoint":"/img/3.png","population":"Nil","voters":"2400","villageMohalla":"Indra Nagar","path":"#/menu/tab/medicalDetails","respectedPpl":[{"Name":"Vipin Jindal","so":"Nil","Address":"Nil","Phone":"9319300584"},{"Name":"Anil","so":"Nil","Address":"Nil","Phone":"9837113311"},{"Name":"Pradeep Kumar","so":"Nil","Address":"Nil","Phone":"9012571494"}],"retiredGovtSer":[{"Name":"Nil","so":"Nil","Address":"Nil","Phone":"Nil"}],"neighbourPolling":[{"Name":"Dinesh Gupta","so":"Nil","Address":"Nil","Phone":"9058113616"},{"Name":"Manish Sharma","so":"Nil","Address":"Nil","Phone":"9997021121"},{"Name":"Krishna Verma","so":"Nil","Address":"Nil","Phone":"9997910060"},{"Name":"Pradeep Kumar","so":"Nil","Address":"Nil","Phone":"9012571494"},{"Name":"Suder kant","so":"Nil","Address":"Nil","Phone":"9058591071"}],"armsLicenseHolder":[{"Name":"Kailash Chandra","so":"Benishah","Address":"Indra Nagar 1st","Phone":"Nil","Weapon":"DBBL"},{"Name":"Sushil Dutt","so":"Hari Dutt","Address":"Indra Nagar 1st","Phone":"9927038381","Weapon":"Pistol"},{"Name":"Sashi Prakash","so":"R.C garg","Address":"Master Colony","Phone":"Nil","Weapon":"DBBL"},{"Name":"Sohan lal","so":"babu Ram","Address":"Master Colony","Phone":"9837817704","Weapon":"Revolver"},{"Name":"Ashok","so":"Bhishan lal","Address":"Indra Nagar","Phone":"Nil","Weapon":"DBBL"},{"Name":"Ratan Singh","so":"Himmat","Address":"Indra Nagar","Phone":"9927130837","Weapon":"SBBL"},{"Name":"Jai Karan Gupta","so":"JagDesh","Address":"Indra Nagar 2nd","Phone":"Nil","Weapon":"Revolver"},{"Name":"Naresh","so":"JagDesh","Address":"Indra Nagar 2nd","Phone":"Nil","Weapon":"Revolver"}],"chowkidar":[{"Name":"Nil","so":"Nil","Address":"Nil","Phone":"Nil"}],"councellor":[{"Name":"Raju Verma","so":"Nil","Address":"Nil","Phone":"9634771453"},{"Name":"Vipin Jindal","so":"Nil","Address":"Nil","Phone":"9319350584"}],"historySheeter":[{"Name":"Nil","so":"Nil","Address":"Nil","Status":"Nil","Phone":"Nil"}],"convictedCriminals":[{"Name":"Praveen ","so":"Indra Jeet","3Status":"Nil","4address":"Gali No. 4 Indra Nagar (Puruskaar Ghosit)"}],"crimes5Yrs":[{"Name":"Jagveer","so":"Munsi lal","crimeno":"86/12","Section":"3/4 Gunda Act","Address":"Gali No. 4 Bharam Puri"},{"Name":"Varun/Mora","so":"Naresh","crimeno":"189/12","Section":"2/3 Gangster","Address":"253 Bharampuri"},{"Name":"mahendra","so":"Ram Avtar","crimeno":"454/12","Section":"392411 IPC","Address":"Keshu pur Rumala"},{"Name":"Salman","so":"Jafar","crimeno":"512/12","Section":"470,467,468,471,120 (B) 18/27 Act","Address":"Medical"},{"Name":"Rahul","so":"Surender","crimeno":"142/13","Section":"452,323,504,506 IPC","Address":"698 Bharam Puri"},{"Name":"Unknown","so":"Unknown","crimeno":"369/13","Section":"420 IPC","Address":"N/A"},{"Name":"Subodh","so":"Hari Kishan","crimeno":"348/13","Section":"25/4 A Act","Address":"Near Shani Mandir BharamPuri"},{"Name":"Subodh Arshad","so":"ZahirUddin","crimeno":"349/13","Section":"25/4 ","Address":"Shokat Colony Bharampuri"},{"Name":"Gulshan","so":"Gulzaar dharam Dutt","crimeno":"398/13","Section":"25/4 ACT","Address":"Noor Nagar Madina colony"},{"Name":"Sonia Gupta","so":"Atul Goyal","crimeno":"211/14","Section":"498,323,324,504,506,","Address":"333 Bharam Puri"},{"Name":"Praveen Kumar","so":"trilok Kumar","crimeno":"219/14","Section":"4543803,23,504","Address":"Shiv shankar Puri"},{"Name":"Pawan","so":"Ram das","crimeno":"530/15","Section":"3,80,411","Address":"Bharampuri"}],"electioncrimeno":[{"Name":"Nil","so":"Nil","crimeno":"Nil","Section":"Nil","Address":"Nil"}],"politician":[{"Name":"Vipin Jindal ","so":"Nil","Address":"Nil","Phone":"9319300584"},{"Name":"Shabin Badli ","so":"Nil","Address":"Nil","Phone":"7217306410"}],"boundDownUnder":"Nil","vulnerabilityDetails":"General","warrantedCriminals":[{"Name":"Nil","so":"Nil","Address":"Nil","Phone":"Nil"}],"condition":"Good"},{"stationID":"BM-17","stationName":"Madh Rajput DharamShala Indra Nagar Meerut","latitude":"28.9667","longitude":"77.6941","polingCenterPhoto":"/img/mediPanchayat.png","routes":"/img/3.png","collectionPoint":"/img/3.png","population":"Nil","voters":"1850","villageMohalla":"Indra Nagar 1st , Mater Colony","path":"#/menu/tab/medicalDetails","respectedPpl":[{"Name":"Vipin Jindal","so":"Nil","Address":"Nil","Phone":"9319300584"},{"Name":"Rajesh Verma (ADV)","so":"Nil","Address":"Nil","Phone":"9997884163"},{"Name":"Sushil Gupta","so":"Nil","Address":"Nil","Phone":"9368439398"}],"retiredGovtSer":[{"Name":"Deen Dayal Verma","so":"Khanjan Singh Verma","Address":"Nil","Phone":"9997133043"},{"Name":"Braj Mohan Gupta","so":"Nil","Address":"Nil","Phone":"9259203040"}],"neighbourPolling":[{"Name":"Dr. T.C Sharma","so":"Nil","Address":"Nil","Phone":"9412204795"},{"Name":"Shiv Kumar Verma","so":"Nil","Address":"Nil","Phone":"9897751622"},{"Name":"Jitendra Jain","so":"Nil","Address":"Nil","Phone":"8439144313"},{"Name":"Surender kumar","so":"Nil","Address":"Nil","Phone":"9719355755"},{"Name":"Dinesh Rajput","so":"Nil","Address":"Nil","Phone":"9997708741"}],"armsLicenseHolder":[{"Name":"Krishan Pal","so":"Kabhar Singh","Address":"Master Colony","Phone":"8750255024","Weapon":"DBBL"},{"Name":"Raju verma","so":"Mahesh Chand ","Address":"Master Colony","Phone":"9927202099","Weapon":"pistol"},{"Name":"Rajeshh","so":"Shiv Dutt","Address":"Indra Nagar","Phone":"9358401345","Weapon":"DBBL"},{"Name":"Bhanu Prakash","so":"Jugal kishor","Address":"Master Colony","Phone":"9548242287","Weapon":"SBBL"},{"Name":"Adesh","so":"Bhagwat Prasad","Address":"Indra Nagar","Phone":"9837247172","Weapon":"Revolver"},{"Name":"Dharam Pal","so":"Bhedi Ram","Address":"Master Colony","Phone":"Nil","Weapon":"SBBL"},{"Name":"Rajendra","so":"Rameshwar","Address":"Indra Nagar","Phone":"9412269662","Weapon":"DBBL/Revolver"},{"Name":"Jagat Singh","so":"Bihari","Address":"Indra Nagar","Phone":"Nil","Weapon":"SBBL"}],"chowkidar":[{"Name":"Nil","so":"Nil","Address":"Nil","Phone":"Nil"}],"councellor":[{"Name":"Raju Verma","so":"Nil","Address":"Nil","Phone":"9634771453"},{"Name":"Vipin Jindal","so":"Nil","Address":"Nil","Phone":"9319350584"}],"historySheeter":[{"Name":"Titu/Yogesh","so":"Suresh Chand","Address":"Master Colony","Status":"Missing","Phone":"Nil"}],"convictedCriminals":[{"Name":"Praveen ","so":"Indra Jeet","3Status":"Nil","4address":"Gali No. 4 Indra Nagar (Puruskaar Ghosit)"}],"crimes5Yrs":[{"Name":"Pramod","so":"Jai Prakash","crimeno":"215/11","Section":"406,420,323,504,506,","Address":"Shiv Shakti Nagar"},{"Name":"Shashi Prakash","so":"Ramesh","crimeno":"311/11","Section":"307 IPC","Address":"Master Colony"},{"Name":"Vikas","so":"Ramesh Chand","crimeno":"347/16","Section":"498 A,304 B","Address":"Indra Nagar"}],"electioncrimeno":[{"Name":"Nil","so":"Nil","crimeno":"Nil","Section":"Nil","Address":"Nil"}],"politician":[{"Name":"Shivneet Verma ","so":"Nil","Address":"Nil","Phone":"9259957732"},{"Name":"Satish Upadhay ","so":"Nil","Address":"Nil","Phone":"9358540950"},{"Name":"Ravinder Verma ","so":"Nil","Address":"Nil","Phone":"Nil"},{"Name":"Saven Badli ","so":"Nil","Address":"Nil","Phone":"7217306410"},{"Name":"Mukesh Verma ","so":"Nil","Address":"Nil","Phone":"8171902902"},{"Name":"Kanti Parsad ","so":"Nil","Address":"Nil","Phone":"8273737584"}],"boundDownUnder":"Nil","vulnerabilityDetails":"General","warrantedCriminals":[{"Name":"Nil","so":"Nil","Address":"Nil","Phone":"Nil"}],"condition":"Good"},{"stationID":"BM-18","stationName":"Meerut City Public School Indra Nagar, Shiv Shakti Nagar","latitude":"28.9654","longitude":"77.6898","polingCenterPhoto":"/img/mediPanchayat.png","routes":"/img/3.png","collectionPoint":"/img/3.png","population":"Nil","voters":"1700","villageMohalla":"Indra Nagar ,Shiv Shakti Nagar","path":"#/menu/tab/medicalDetails","respectedPpl":[{"Name":"Ganga Prasad Gupta","so":"Gaya Prasad","Address":"Nil","Phone":"9927036063"},{"Name":"Rajiv Saini","so":"Ramesh Chandra Saini","Address":"Nil","Phone":"9219837791"},{"Name":"Hari Krishan Parsad","so":"Nil","Address":"Nil","Phone":"9319797910"},{"Name":"Surendra Yadav","so":"Nil","Address":"Nil","Phone":"9058577477"}],"retiredGovtSer":[{"Name":"P.D Sharma","so":"Nil","Address":"Nil","Phone":"9152794424"}],"neighbourPolling":[{"Name":"Manoj bakery Wale","so":"Nil","Address":"Nil","Phone":"9012309282"},{"Name":"Sanjay","so":"Nil","Address":"Nil","Phone":"9760963129"},{"Name":"Manoj","so":"Nil","Address":"Nil","Phone":"8126549509"},{"Name":"Deepu","so":"Nil","Address":"Nil","Phone":"8439296462"},{"Name":"Vipin","so":"Nil","Address":"Nil","Phone":"8126272670"}],"armsLicenseHolder":[{"Name":"Gurdeep","so":"Veriendra","Address":"Shiv Shakti Nagar","Phone":"Nil","Weapon":"DBBL"},{"Name":"Jagdesh Prasad","so":"Munsi lal","Address":"Shiv Shakti Nagar","Phone":"1212520321","Weapon":"DBBL"},{"Name":"Raju verma","so":"Mahesh chandra Verma","Address":"Shiv Shakti Nagar","Phone":"Nil","Weapon":"Nil"},{"Name":"Satprakash","so":"Pitambar","Address":"Shiv Shakti Nagar","Phone":"Nil","Weapon":"DBBL"},{"Name":"Suresh Pal","so":"Mangal Ram","Address":"Shiv Shakti Nagar","Phone":"Nil","Weapon":"SBBL"},{"Name":"Renu","so":"Lalit Mohan","Address":"Shiv Shakti Nagar","Phone":"1212403787","Weapon":"Revolver"},{"Name":"Brijeshwar","so":"Chandra Karan","Address":"Shiv Shakti Nagar","Phone":"Nil","Weapon":"DBBL"},{"Name":"Narendra","so":"Laxmi Chand","Address":"Shiv Shakti Nagar","Phone":"Nil","Weapon":"DBBL"},{"Name":"Jitendra","so":"Atar Singh","Address":"Shiv Shakti Nagar","Phone":"9412706784","Weapon":"Revolver"},{"Name":"Krishan Kumar","so":"Kripa Shankar","Address":"Shiv Shakti Nagar","Phone":"9368184328","Weapon":"Revolver"}],"chowkidar":[{"Name":"Bharam Singh yadav","so":"Nil","Address":"Nil","Phone":"9690061744"}],"councellor":[{"Name":"Hari Kishan","so":"Nil","Address":"Nil","Phone":"9319797910"}],"historySheeter":[{"Name":"Rakesh","so":"Ashok","Address":"Indra Nagar","Status":"Present","Phone":"Nil"},{"Name":"Vishal","so":"Raghuveer","Address":"Shiv Shakti Nagar","Status":"Missing","Phone":"Nil"}],"convictedCriminals":[{"Name":"Nil ","so":"Nil","3Status":"Nil","4address":"Nil"}],"crimes5Yrs":[{"Name":"Harinder/Nikki","so":"ram Kumar","crimeno":"37/11","Section":"498 A,304 B)","Address":"Djhobi Bada Basti Madhav Puram"},{"Name":"Pramod","so":"Jai Chand","crimeno":"215/11","Section":"406,420,323,504,506 IPC","Address":"Shiv Shakti Nagar"},{"Name":"Vikas","so":"Ramesh chand","crimeno":"347/11","Section":"498 A,304 B)","Address":"Indra Nagar"},{"Name":"Kiran Pal","so":"Sumit","crimeno":"440/11","Section":"323,498 A,3/4 Dowry ACT","Address":"Indra Nagar"},{"Name":"Rajkumar","so":"Ram Murti","crimeno":"441/11","Section":"147,120,352,506 IPC","Address":"Indra Nagar"},{"Name":"Sanjay Mittal","so":"Mangal Sen","crimeno":"149/12","Section":"147,452,323,506 IPC","Address":"Shiv Shakti Nagar"},{"Name":"Anupam Arora","so":"Jai Narayan","crimeno":"171/12","Section":"302 IPC","Address":"Indra Nagar"},{"Name":"Data Ram","so":"Nil","crimeno":"466/12","Section":"452,323,324,336,504,506,","Address":"Indra Nagar"},{"Name":"Ashish","so":"Nil","crimeno":"460/12","Section":"452,323,504,506 IPC","Address":"Nil"}],"electioncrimeno":[{"Name":"Nil","so":"Nil","crimeno":"Nil","Section":"Nil","Address":"Nil"}],"politician":[{"Name":"Rajendra Pal gupta","so":"Bhoore lal gupta","Address":"Nil","Phone":"7895463646"},{"Name":"Surendra Yadav  ","so":"Nil","Address":"Nil","Phone":"9058577477"},{"Name":"Surjeet  ","so":"Bharam Pal","Address":"Nil","Phone":"9319315506"}],"boundDownUnder":"Nil","vulnerabilityDetails":"General","warrantedCriminals":[{"Name":"Nil","so":"Nil","Address":"Nil","Phone":"Nil"}],"condition":"Good"},{"stationID":"BM-19","stationName":"GMJ Public School Bharam Puri Indra Nagar 1st","latitude":"28.9668","longitude":"77.6926","polingCenterPhoto":"/img/mediPanchayat.png","routes":"/img/3.png","collectionPoint":"/img/3.png","population":"Nil","voters":"1200","villageMohalla":"Indra Nagar 2nd","path":"#/menu/tab/medicalDetails","respectedPpl":[{"Name":"Manoj Gupta","so":"Nil","Address":"Nil","Phone":"9837036450"},{"Name":"Mayank Gupta","so":"Nil","Address":"Nil","Phone":"7409555545"},{"Name":"Rajiv Jain","so":"Nil","Address":"Nil","Phone":"7078247631"},{"Name":"Amit Jain","so":"Nil","Address":"Nil","Phone":"9058190600"}],"retiredGovtSer":[{"Name":"P.D Sharma","so":"Nil","Address":"Nil","Phone":"9152794424"}],"neighbourPolling":[{"Name":"Nil","so":"Nil","Address":"Nil","Phone":"Nil"}],"armsLicenseHolder":[{"Name":"Kailash Chand Sharma","so":"Beni Sahay","Address":"Indra Nagar","Phone":"Nil","Weapon":"DBBL"},{"Name":"Ratan Singh","so":"Himmat","Address":"Indra Nagar","Phone":"9927130837","Weapon":"SBBL"},{"Name":"Jai Karan Gupta","so":"Jagdesh","Address":"Indra Nagar","Phone":"Nil","Weapon":"Revolver"},{"Name":"Naresh","so":"Jagdesh","Address":"Indra Nagar","Phone":"Nil","Weapon":"Revolver"},{"Name":"Chandra Mohan","so":"Jagdesh","Address":"Indra Nagar","Phone":"9369775205","Weapon":"Revolver/Rifle"},{"Name":"Jai Bhagwan Sharma","so":"Sita Ram","Address":"Indra Nagar","Phone":"9758924725","Weapon":"DBBL"},{"Name":"Sanjay Gupta","so":"Shri nivas","Address":"Indra Nagar","Phone":"9412269341","Weapon":"Pistol"},{"Name":"Naarendra","so":"Bhopal","Address":"Indra Nagar","Phone":"Nil","Weapon":"Pistol"},{"Name":"Rakesh","so":"Om Prakash","Address":"Indra Nagar","Phone":"9412202404","Weapon":"Revolver"},{"Name":"Sanjeev","so":"Bishan Lal","Address":"Indra Nagar","Phone":"9837408532","Weapon":"Rifle"}],"chowkidar":[{"Name":"Nil","so":"Nil","Address":"Nil","Phone":"Nil"}],"councellor":[{"Name":"Raju Verma","so":"Nil","Address":"Nil","Phone":"9634771453"},{"Name":"Vipin Jindal","so":"Nil","Address":"Nil","Phone":"9319350584"}],"historySheeter":[{"Name":"Nil","so":"Nil","Address":"Nil","Status":"Nil","Phone":"Nil"}],"convictedCriminals":[{"Name":"Nil ","so":"Nil","3Status":"Nil","4address":"Nil"}],"crimes5Yrs":[{"Name":"Gyanendra","so":"Ravi Chandra","crimeno":"286/13","Section":"427,452,323,504,506,","Address":"Nil"},{"Name":"Gopal","so":"Arun","crimeno":"314/13","Section":"354 K","Address":"Shiv Shakti Nagar"},{"Name":"Kuldeep Singh Yadav","so":"Karan Singh","crimeno":"391/13","Section":"302.34","Address":"342 Kishan Pura"},{"Name":"Vinod Pradhan","so":"Nil","crimeno":"140/14","Section":"452,323,324,504,506,IPC","Address":"Indra nagar"},{"Name":"Shivam","so":"Sewak Tiwari","crimeno":"210/14","Section":"354 K, 427 B 7/8 pos Co.","Address":"Indra nagar"},{"Name":"Prashant","so":"Pramod Mittal","crimeno":"246/14","Section":"498 A,323,504,328,3/4 D Act","Address":"196 Indra Nagar"}],"electioncrimeno":[{"Name":"Nil","so":"Nil","crimeno":"Nil","Section":"Nil","Address":"Nil"}],"politician":[{"Name":"Sameer Gupta ","so":"Nil","Address":"Nil","Phone":"9358196215"},{"Name":"Naveen Badli ","so":"Nil","Address":"Nil","Phone":"9219558893"}],"boundDownUnder":"Nil","vulnerabilityDetails":"General","warrantedCriminals":[{"Name":"Nil","so":"Nil","Address":"Nil","Phone":"Nil"}],"condition":"Good"},{"stationID":"BM-20","stationName":"Dharam Shala Har Narayan Das Sharda Road","latitude":" 28.9717","longitude":"77.6941","polingCenterPhoto":"/img/mediPanchayat.png","routes":"/img/3.png","collectionPoint":"/img/3.png","population":"Nil","voters":"2000","villageMohalla":"Shiv Shankar Puri","path":"#/menu/tab/medicalDetails","respectedPpl":[{"Name":"Praveen Bhadana","so":"Nil","Address":"Nil","Phone":"8445268610"},{"Name":"Mahendra Dhanak","so":"Nil","Address":"Nil","Phone":"9897173636"},{"Name":"Sanjeev","so":"Nil","Address":"Nil","Phone":"9997258924"},{"Name":"Gopal Hari Maheshwari ","so":"Nil","Address":"Nil","Phone":"9837676397"}],"retiredGovtSer":[{"Name":"Devendra Kumar Jain","so":"Nil","Address":"Nil","Phone":"Nil"},{"Name":"Munendra Kumar Jain","so":"Nil","Address":"Nil","Phone":"Nil"},{"Name":"Mahesh Chandra Singhal","so":"Nil","Address":"Nil","Phone":"9897573394"},{"Name":"Sarla Devi","so":"Nil","Address":"Nil","Phone":"9897573364"},{"Name":"Dr. Om Prakash sharma","so":"Nil","Address":"Nil","Phone":"9259901570"}],"neighbourPolling":[{"Name":"Ravindra Saini","so":"Nil","Address":"Nil","Phone":"9719202010"},{"Name":"Kamal saini","so":"Nil","Address":"Nil","Phone":"9897907750"},{"Name":"Amit Aggarwal( Shivam Sarre)","so":"Nil","Address":"Nil","Phone":"9412629016"},{"Name":"Rakesh Dairy Wale","so":"Nil","Address":"Nil","Phone":"9012545125"},{"Name":"Ashok Sharma","so":"Nil","Address":"Nil","Phone":"9720977905"}],"armsLicenseHolder":[{"Name":"Pradeep Kumar","so":"Ramanand","Address":"Shiv Shankar Puri","Phone":"9810477766","Weapon":"Pistol"},{"Name":"Ravi Prakash","so":"Om Prakash","Address":"Shiv Shankar Puri","Phone":"9837189153","Weapon":"DBBL"},{"Name":"Rakesh Mohan","so":"Brij Bhushan","Address":"Shiv Shankar Puri","Phone":"9412205198","Weapon":"Pistol"},{"Name":"Vijay Pal","so":"Hukum Chand","Address":"Shiv Shankar Puri","Phone":"Nil","Weapon":"SBBL"},{"Name":"Harveer","so":"Arjun","Address":"Shiv Shankar Puri","Phone":"Nil","Weapon":"DBBL"},{"Name":"Indra Pal","so":"Prakash Kapoor","Address":"Shiv Shankar Puri","Phone":"Nil","Weapon":"DBBL"},{"Name":"Neeraj Kumar","so":"Shiv Narayan","Address":"Shiv Shankar Puri","Phone":"Nil","Weapon":"Revolver"},{"Name":"Daya Kkishan","so":"Lakmi Chand","Address":"Shiv Shankar Puri","Phone":"Nil","Weapon":"Revolver"},{"Name":"manoj Gupta","so":"Ram Avtar","Address":"Shiv Shankar Puri","Phone":"9412203514","Weapon":"Pistol"},{"Name":"Ankur Bansal","so":"Rakesh Kumar","Address":"Shiv Shankar Puri","Phone":"Nil","Weapon":"Pistol"}],"chowkidar":[{"Name":"Nil","so":"Nil","Address":"Nil","Phone":"Nil"}],"councellor":[{"Name":"Mishta Devi Bhadana","so":"Nil","Address":"Nil","Phone":"9058501227"},{"Name":"Ashok Singhal","so":"Nil","Address":"Nil","Phone":"9837886606"}],"historySheeter":[{"Name":"Sonu ","so":"Prakash Chand","Address":"Shiv Shankar Puri","Status":"Jail","Phone":"Nil"},{"Name":"Pramod","so":"Prakash Chand","Address":"Shiv Shankar Puri","Status":"Jail","Phone":"Nil"},{"Name":"Ajay","so":"Om Prakash","Address":"Shiv Shankar Puri","Status":"Present","Phone":"Nil"}],"convictedCriminals":[{"Name":"Nil ","so":"Nil","3Status":"Nil","4address":"Nil"}],"crimes5Yrs":[{"Name":"Jai Bhagwan","so":"nanak Chand","crimeno":"185/12","Section":"272,273,60 Act","Address":"Shiv Shankar Puri"},{"Name":"Rajesh","so":"Daulat","crimeno":"210/12","Section":"4523,23,506","Address":"Lajpat Nagar"},{"Name":"Pramod","so":"Prakash","crimeno":"136/14","Section":"498 A 304 B,281,3/4 Dowry Act","Address":"Shiv Shankar Puri"},{"Name":"Rajendra","so":"Mathur Singh","crimeno":"353/15","Section":"3,80,511","Address":"284 Shiv Chock"},{"Name":"Ravi","so":"Rajesh","crimeno":"360/15","Section":"25/4","Address":"Purani Police Choki"},{"Name":"Pintu","so":"Rajesh","crimeno":"410/15","Section":"323,308,508,506 IPC","Address":"Bagadyaan"},{"Name":"Sonu Mittal","so":"Yogendra Mittal","crimeno":"247/16","Section":"498 A,376,307,323,504,506,3/4","Address":"New shiv Shankar Puri"}],"electioncrimeno":[{"Name":"Nil","so":"Nil","crimeno":"Nil","Section":"Nil","Address":"Nil"}],"politician":[{"Name":"Praveen Bhadana ","so":"Nil","Address":"Nil","Phone":"8445268610"},{"Name":"Mohit ","so":"Nil","Address":"Nil","Phone":"9897198980"},{"Name":"Mahendra Dhanak","so":"Nil","Address":"Nil","Phone":"9897173636"},{"Name":"Manish Sharma ","so":"Nil","Address":"Nil","Phone":"9837157444"}],"boundDownUnder":"Nil","vulnerabilityDetails":"General","warrantedCriminals":[{"Name":"Nil","so":"Nil","Address":"Nil","Phone":"Nil"}],"condition":"Good"},{"stationID":"BM-21","stationName":"Prathmik Vidhyala Noor Nagar","latitude":" 28.9442","longitude":"77.6956","polingCenterPhoto":"/img/mediPanchayat.png","routes":"/img/3.png","collectionPoint":"/img/3.png","population":"Nil","voters":"2500","villageMohalla":"Noor Nagar , Friends Colony","path":"#/menu/tab/medicalDetails","respectedPpl":[{"Name":"Pawan Singh","so":"Nil","Address":"Nil","Phone":"7500856750"},{"Name":"Kapil Sagar","so":"Nil","Address":"Nil","Phone":"8954606030"},{"Name":"saamay Singh","so":"Nil","Address":"Nil","Phone":"8865934125"},{"Name":"Shubham","so":"Nil","Address":"Nil","Phone":"7248896330"},{"Name":"Naresh Kumar/Chotu Halwai","so":"Nil","Address":"Nil","Phone":"8474998109"}],"retiredGovtSer":[{"Name":"Nil","so":"Nil","Address":"Nil","Phone":"Nil"}],"neighbourPolling":[{"Name":"Daya Ram","so":"Nil","Address":"Nil","Phone":"9359620220"},{"Name":"Dinesh","so":"Nil","Address":"Nil","Phone":"8430567408"},{"Name":"Rajendra","so":"Nil","Address":"Nil","Phone":"9758271139"},{"Name":"Dev singh","so":"Nil","Address":"Nil","Phone":"7465918024"},{"Name":"Anil Kumar","so":"Nil","Address":"Nil","Phone":"8899799991"},{"Name":"Sunil Kumar","so":"Nil","Address":"Nil","Phone":"8193065360"}],"armsLicenseHolder":[{"Name":"Rajveer Singh","so":"balveer Singh","Address":"Noor Nagar","Phone":"9758570789","Weapon":"Rifle/AV"},{"Name":"Sau singh","so":"Bhagaya Singh","Address":"Noor Nagar","Phone":"9690844464","Weapon":"DBBL"},{"Name":"Vijay Pal","so":"Prahalad Singh","Address":"Noor Nagar","Phone":"9456204539","Weapon":"DBBL"},{"Name":"ChandraBhan","so":"Sirvad Singh","Address":"Noor Nagar","Phone":"Nil","Weapon":"DBBL"},{"Name":"Bhopal","so":"Nathu Singh","Address":"Noor Nagar","Phone":"9837029801","Weapon":"Rifle/Pistol"},{"Name":"Veer Singh","so":"Nayan Singh","Address":"Noor Nagar","Phone":"9760524799","Weapon":"DBBL"},{"Name":"Rajveer","so":"Balveer","Address":"Noor Nagar","Phone":"9758570789","Weapon":"Pistol"},{"Name":"Navratan","so":"Budh Prakash","Address":"244 Noor Nagar","Phone":"9837400370","Weapon":"DBBL/Gun"},{"Name":"Sanjeev Kumar","so":"Vijay Pal","Address":"Noor Nagar","Phone":"9412683516","Weapon":"Rifle"}],"chowkidar":[{"Name":"Nil","so":"Nil","Address":"Nil","Phone":"Nil"}],"councellor":[{"Name":"Prakashi Pal","so":"Nil","Address":"Nil","Phone":"9917363608"},{"Name":"Devendra","so":"Nil","Address":"Nil","Phone":"9759594444"}],"historySheeter":[{"Name":"Nil","so":"Nil","Address":"Nil","Status":"Jail","Phone":"Nil"}],"convictedCriminals":[{"Name":"Nil ","so":"Nil","3Status":"Nil","4address":"Nil"}],"crimes5Yrs":[{"Name":"Nil","so":"Nil","crimeno":"Nil","Section":"Nil","Address":"Nil"}],"electioncrimeno":[{"Name":"Nil","so":"Nil","crimeno":"Nil","Section":"Nil","Address":"Nil"}],"politician":[{"Name":"Uma Shankar Pal ","so":"Nil","Address":"Nil","Phone":"9927019111"},{"Name":"Pawan Singh Gurjar  ","so":"Nil","Address":"Nil","Phone":"9837999128"}],"boundDownUnder":"Nil","vulnerabilityDetails":"General","warrantedCriminals":[{"Name":"Nil","so":"Nil","Address":"Nil","Phone":"Nil"}],"condition":"Good"},{"stationID":"BM-22","stationName":"B.R.A inter College Jadu Wali Gali Tara Puri","latitude":"28.9606","longitude":"77.6931","polingCenterPhoto":"/img/mediPanchayat.png","routes":"/img/3.png","collectionPoint":"/img/3.png","population":"Nil","voters":"3500","villageMohalla":"New Tarapuri, Abrar Nagar, Tara Puri, Chaman colony, Khushal Nagar","path":"#/menu/tab/medicalDetails","respectedPpl":[{"Name":"Haji Shareef","so":"Nasir Ahmad","Address":"Nil","Phone":"Nil"},{"Name":"Aas Mohd.","so":"Nil","Address":"Nil","Phone":"9456036552"}],"retiredGovtSer":[{"Name":"Nil","so":"Nil","Address":"Nil","Phone":"Nil"}],"neighbourPolling":[{"Name":"Raja Bhaiya","so":"Nil","Address":"Nil","Phone":"9359452788"},{"Name":"Mustkeen Tomar","so":"Nil","Address":"Nil","Phone":"9457215322"},{"Name":"Salim Pathan","so":"Nil","Address":"Nil","Phone":"9045995278"},{"Name":"Asif Malik","so":"Nil","Address":"Nil","Phone":"9319351524"},{"Name":"Shoyab Rana","so":"Nil","Address":"Nil","Phone":"9045995278"}],"armsLicenseHolder":[{"Name":"Nil","so":"Nil","Address":"Nil","Phone":"Nil","Weapon":"Nil"}],"chowkidar":[{"Name":"Nil","so":"Nil","Address":"Nil","Phone":"Nil"}],"councellor":[{"Name":"Yasin Pahelwan","so":"Nil","Address":"Nil","Phone":"Nil"}],"historySheeter":[{"Name":"Yosuf / Ranga","so":"Abdul Waheed","Address":"Miya Mohd. Nagar","Status":"Missinig","Phone":"Nil"},{"Name":"Yosuf / Sufe","so":"Abdul Khan","Address":"Baniya Wala Khet","Status":"Present","Phone":"Nil"},{"Name":"Asif/ Tidda","so":"Samshad","Address":"Baniya Wala Khet","Status":"Missinig","Phone":"Nil"}],"convictedCriminals":[{"Name":"Nil ","so":"Nil","3Status":"Nil","4address":"Nil"}],"crimes5Yrs":[{"Name":"Rafeeq","so":"Rahis","crimeno":"355/11","Section":"3,93,323","Address":"Tara Puri"},{"Name":"Alam","so":"Najar","crimeno":"348/12","Section":"323,324,325,506,504,","Address":"Mumtaj Nagar"},{"Name":"Harun Faruk","so":"Nil","crimeno":"130/13","Section":"392,323, IPC","Address":"Nil"},{"Name":"Yasin","so":"Ali hasan","crimeno":"384/13","Section":"498 A 307,3/4 Dowry Act","Address":"Majid Nagar Hapur"},{"Name":"Unknown","so":"Nil","crimeno":"14/14","Section":"457,380 Ipc","Address":"Nil"},{"Name":"Alauddin","so":"Salauddin","crimeno":"10/14.","Section":"307 IPC","Address":"Subharti"},{"Name":"Akram","so":"Rahmat Ilahi","crimeno":"87/15","Section":"323,324,504,506 IPC","Address":"Kale Jadu Wali Gali"},{"Name":"Jubeir","so":"Gadwar","crimeno":"158/15","Section":"3,94,411","Address":"Samar Garden Lisadi Road"},{"Name":"Churrab","so":"Zahir","crimeno":"249/16","Section":"4,52,323","Address":"Tara Puri"},{"Name":"Salman","so":"Lihakat","crimeno":"251/16","Section":"147,148,149,307,323,504,506,452 IPC","Address":"Raseed Nagar"},{"Name":"Kadir","so":"Noor Mohd.","crimeno":"286/16","Section":"498 A, 323,504,506,3/4 Dowry Act","Address":"Hasoli Kanker Kheda"}],"electioncrimeno":[{"Name":"Nil","so":"Nil","crimeno":"Nil","Section":"Nil","Address":"Nil"}],"politician":[{"Name":"Asif Malik ","so":"Nil","Address":"Nil","Phone":"9319351524"},{"Name":"Raja Bhaiya  ","so":"Nil","Address":"Nil","Phone":"9359452788"},{"Name":"Mustkeen Tomar","so":"Nil","Address":"Nil","Phone":"9457215322"}],"boundDownUnder":"Nil","vulnerabilityDetails":"General","warrantedCriminals":[{"Name":"Nil","so":"Nil","Address":"Nil","Phone":"Nil"}],"condition":"Good"},{"stationID":"BM-23","stationName":"Dev Vati Devi Virendra Kumar Raj Kiya Inter College Madhav Puram","latitude":" 28.9571","longitude":"  77.6892","polingCenterPhoto":"/img/mediPanchayat.png","routes":"/img/3.png","collectionPoint":"/img/3.png","population":"Nil","voters":"5500","villageMohalla":"Madhav Puram","path":"#/menu/tab/medicalDetails","respectedPpl":[{"Name":"Om Pal Sharma","so":"Nil","Address":"Nil","Phone":"9411819607"},{"Name":"Mann Singh","so":"Nil","Address":"Nil","Phone":"9456482361"},{"Name":"Vikrant Sirohi (ADV)","so":"Nil","Address":"Nil","Phone":"9897201146"},{"Name":"Pawan Mittal","so":"Nil","Address":"Nil","Phone":"9548415743"}],"retiredGovtSer":[{"Name":"Om Veer Singh","so":"Nil","Address":"Nil","Phone":"9897464620"}],"neighbourPolling":[{"Name":"Neeraj Gupta","so":"Nil","Address":"Nil","Phone":"9719014566"},{"Name":"V.K Garg","so":"Nil","Address":"Nil","Phone":"9412832250"},{"Name":"vikas Sharma","so":"Nil","Address":"Nil","Phone":"9837380538"},{"Name":"Anil Verma","so":"Nil","Address":"Nil","Phone":"8791855429"},{"Name":"Anil Sharma","so":"Nil","Address":"Nil","Phone":"9411068259"}],"armsLicenseHolder":[{"Name":"Madan Gopal","so":"O.P Sahrma","Address":"Madhav Puram","Phone":"9897290069","Weapon":"DBBL/Revolver"},{"Name":"Lokesh Kumar","so":"Maam Chandra Aggarwal","Address":"Madhav Puram","Phone":"9927011922","Weapon":"DBBL"},{"Name":"Satpal Singh (ADV)","so":"Prahlad Singh","Address":"Madhav Puram","Phone":"9837189501","Weapon":"Rifle"},{"Name":"Bijendra Pal Singh","so":"Ramesh Chandra","Address":"Madhav Puram","Phone":"Nil","Weapon":"Rifle"},{"Name":"Mohit Gupta","so":"Jitendra Gupta","Address":"Madhav Puram","Phone":"Nil","Weapon":"F.G"},{"Name":"Bal Kishor","so":"Harshwaroop","Address":"Madhav Puram","Phone":"9720226677","Weapon":"DBBL"},{"Name":"Sachin","so":"Harshwaroop","Address":"Madhav Puram","Phone":"9927114548","Weapon":"Pistol"}],"chowkidar":[{"Name":"Dinesh Kumar","so":"Nil","Address":"Nil","Phone":"9634279617"}],"councellor":[{"Name":"Tarun Goyal ","so":"Nil","Address":"Nil","Phone":"9219157228"},{"Name":"Rakesh Sharma ","so":"Nil","Address":"Nil","Phone":"9358877102"}],"historySheeter":[{"Name":"Yosuf / Ranga","so":"Abdul Waheed","Address":"Miya Mohd. Nagar","Status":"Missinig","Phone":"Nil"},{"Name":"Yosuf / Sufe","so":"Abdul Khan","Address":"Baniya Wala Khet","Status":"Present","Phone":"Nil"},{"Name":"Asif/ Tidda","so":"Samshad","Address":"Baniya Wala Khet","Status":"Missinig","Phone":"Nil"}],"convictedCriminals":[{"Name":"Nil ","so":"Nil","3Status":"Nil","4address":"Nil"}],"crimes5Yrs":[{"Name":"Anand","so":"Peetam","crimeno":"47/12","Section":"3234205,04,506","Address":"Madhav Puram"},{"Name":"Raju","so":"Maharaj","crimeno":"126/12","Section":"294 IPC","Address":"Shimbha Bali GZB"},{"Name":"Monu","so":"Satpal","crimeno":"243/12","Section":"41.109","Address":"Madhav Puram"},{"Name":"Iqbal","so":"Naseer Khan","crimeno":"273/12","Section":"323,504,506,","Address":"ghosi Pura"},{"Name":"Kali Ram","so":"Karam Singh","crimeno":"221/14","Section":"498 A,304,3/4 D Act","Address":"RamPur Nagli"},{"Name":"Kapil","so":"Chandra Pal","crimeno":"476/13","Section":"392 IPC","Address":"Zahid Pur Kharkhoda"},{"Name":"Waseem","so":"Sajid","crimeno":"508/13","Section":"363,366,376,59 Sc Act","Address":"Rajpur"},{"Name":"Kusum","so":"Vijendra","crimeno":"205/14","Section":"498,323,504 IPC","Address":"Aita"},{"Name":"Prince","so":"pappi","crimeno":"329/14","Section":"3763775,06,420","Address":"314 Indra Nagar"},{"Name":"Vinod","so":"Vikram","crimeno":"20/15","Section":"427,504,506,34,3/11 Act","Address":"Madhav Puram"},{"Name":"Rashid","so":"Samshad","crimeno":"119/15","Section":"363,376,511,7/11 Pos Co.","Address":"Lisadi Gate"},{"Name":"Vikki Pandit","so":"Vinay","crimeno":"35/16","Section":"147,148,149,452,323,325,504,506,","Address":"Madhav Puram"},{"Name":"Prince Balmikki","so":"Nil","crimeno":"41/16","Section":"498 A,304 B , 3/4","Address":"Nil"}],"electioncrimeno":[{"Name":"Nil","so":"Nil","crimeno":"Nil","Section":"Nil","Address":"Nil"}],"politician":[{"Name":"Monu Gupta","so":"Nil","Address":"Nil","Phone":"9058885558"},{"Name":"Raj Kumar Manglik ","so":"Nil","Address":"Nil","Phone":"9917068209"},{"Name":"Ashu Sharma","so":"Nil","Address":"Nil","Phone":"8273133220"},{"Name":"Gaurav Saini ","so":"Nil","Address":"Nil","Phone":"9520858585"}],"boundDownUnder":"Nil","vulnerabilityDetails":"Sensitive","warrantedCriminals":[{"Name":"Nil","so":"Nil","Address":"Nil","Phone":"Nil"}],"condition":"Good"},{"stationID":"BM-24","stationName":"Mahaveer Academy Sector 1 Madhav Puram","latitude":"28.9602","longitude":"77.6917","polingCenterPhoto":"/img/mediPanchayat.png","routes":"/img/3.png","collectionPoint":"/img/3.png","population":"Nil","voters":"4200","villageMohalla":"Sector 1,2,3 Madhav Puram","path":"#/menu/tab/medicalDetails","respectedPpl":[{"Name":"Vipin Gupta","so":"Nil","Address":"Nil","Phone":"7417338158"},{"Name":"Pradeep Kumar (ADV)","so":"Nil","Address":"Nil","Phone":"9910978595"},{"Name":"Munesh Sharma","so":"Nil","Address":"Nil","Phone":"8923318366"}],"retiredGovtSer":[{"Name":"Nil","so":"Nil","Address":"Nil","Phone":"Nil"}],"neighbourPolling":[{"Name":"Nikhil Jain","so":"Nil","Address":"Nil","Phone":"9837955707"},{"Name":"Vivek Mohan Gupta","so":"Nil","Address":"Nil","Phone":"9719136055"},{"Name":"Payal Sharma","so":"Nil","Address":"Nil","Phone":"9997884157"},{"Name":"Avnish Kumar Gupta","so":"Nil","Address":"Nil","Phone":"9758297849"},{"Name":"neera Updhyay","so":"Nil","Address":"Nil","Phone":"9897079785"}],"armsLicenseHolder":[{"Name":"Sharad Goswami","so":"Mahendra giri","Address":"3 E Madhav Puram","Phone":"819150008","Weapon":"Pistol"},{"Name":"Deepak Azad Gupta","so":"Subash Chandra","Address":"3 E Madhav Puram","Phone":"9456229639","Weapon":"Revolver"},{"Name":"Deepak Sirohi","so":"Jagveer Singh","Address":"Sector 2 Madhav Puram","Phone":"9719600196","Weapon":"Pistol"},{"Name":"Sunil Chaudhary","so":"Jaswant","Address":"Madhav Puram","Phone":"9411644248","Weapon":"Pistol"},{"Name":"Dr. Anil Prakash","so":"Brij Bhushan","Address":"Madhav Puram","Phone":"9411022488","Weapon":"DBBL"},{"Name":"Jagdeep","so":"Ashok Kumar","Address":"Madhav Puram","Phone":"9358421490","Weapon":"Revolver"},{"Name":"Indra Jeet","so":"Devi Singh","Address":"Prem Vihar","Phone":"Nil","Weapon":"SBBL"},{"Name":"Ramesh Pal Singh","so":"Raghu Veer Singh ","Address":"Prem Vihar","Phone":"8909528501","Weapon":"DBBL"},{"Name":"Subodh Jindal","so":"Hirday Prakash","Address":"Prem Vihar","Phone":"9837799056","Weapon":"Rifle"},{"Name":"Yogendra Singh","so":"Hem Singh","Address":"Prem Vihar","Phone":"9319736743","Weapon":"DBBL"}],"chowkidar":[{"Name":"Seva Ram","so":"Nil","Address":"Nil","Phone":"9690544445"}],"councellor":[{"Name":"Tarun Goyal ","so":"Nil","Address":"Nil","Phone":"9219157228"},{"Name":"Rakesh Sharma ","so":"Nil","Address":"Nil","Phone":"9358877102"}],"historySheeter":[{"Name":"Vinod/ Pilua","so":"Prem Giri","Address":"R.K Puram","Status":"Present","Phone":"Nil"}],"convictedCriminals":[{"Name":"Nil ","so":"Nil","3Status":"Nil","4address":"Nil"}],"crimes5Yrs":[{"Name":"Sameer","so":"Harun","crimeno":"83/12","Section":"4,57,380","Address":"Islam Nagar Lisadi Gate"},{"Name":"Raju","so":"Soni","crimeno":"106/12","Section":"354,504, Sc/ST,3(1) Act","Address":"1098 Madhav Puram"},{"Name":"Sonu","so":"Rajveer","crimeno":"218/12","Section":"367 IPC","Address":"Shyam Nagar"},{"Name":"Sachin","so":"Deen Mohd.","crimeno":"236/12","Section":"3,92,411","Address":"Near Bhadwat Chakee"},{"Name":"Nosad","so":"Noor Mohd.","crimeno":"305/12","Section":"25/4 (A) Act","Address":"Raseed Nagar"},{"Name":"Prince","so":"ajay","crimeno":"314/12","Section":"498,323, 3/4 (D) Act","Address":"Sector 3 Madhav Puram"},{"Name":"Shubham","so":"Naresh","crimeno":"179/13","Section":"4543,80,411","Address":"Krishna Vihar Near Tanki"},{"Name":"Pal","so":"Tej Pal","crimeno":"433/13","Section":"302,34 IPC","Address":"New Basti Lalla Pura"},{"Name":"Gaurav","so":"Pappu","crimeno":"487/13","Section":"376,511,392,323,504,506,","Address":"655/3 Madhav Puram"},{"Name":"Waseem","so":"Sajid","crimeno":"508/13","Section":"363,366,376,","Address":"Maraj Pur"},{"Name":"Unknown","so":"Unknown","crimeno":"200/14","Section":"392","Address":"Nil"},{"Name":"Golu Balmikki","so":"Suraj Mukhi","crimeno":"232/14","Section":"363,366,376,3/4 Pos co.","Address":"Ram Leela Ground"},{"Name":"Lokesh/Neetu","so":"Nil","crimeno":"327/14","Section":"354, (A,D) ,506","Address":"Modi Nagar"},{"Name":"Mansveer","so":"Dal Chand","crimeno":"489/14","Section":"60/62,420,472,473,","Address":"Mundali"},{"Name":"Shaukeen","so":"Moveen","crimeno":"504/14","Section":"3,92,411","Address":"Nihola Mawana"},{"Name":"Sonu","so":"Jai Bhagwan","crimeno":"604/14","Section":"354 (A),452,7/8 Pos co.","Address":"Shiv Shakti Nagar"},{"Name":"Ajeej","so":"Jai Pal","crimeno":"20/15","Section":"427,504,506,34(5),3(1)","Address":"Poorva Mahaveer Meerut"},{"Name":"Raseed","so":"Samshad","crimeno":"119/15","Section":"363,376,511 IPC","Address":"Shah jhah Colony Lisadi Gate"},{"Name":"Harish","so":"Prem Pal","crimeno":"159/15","Section":"3235043083,25,147","Address":"1426 Indra Nagar"},{"Name":"Bhalu","so":"BrijPal","crimeno":"188/15","Section":"147,302 IPC","Address":"Nil"},{"Name":"Shahjad","so":"Shertha","crimeno":"207/15","Section":"452,323,506,504,","Address":"Poorvah Ali"},{"Name":"Lalu","so":"Unknown","crimeno":"239/16","Section":"452,323,504,506,","Address":"Nil"},{"Name":"Jasvinder/Sunny","so":"Prem Singh","crimeno":"260/16","Section":"60/72,420,467,468","Address":"Sector 3 Madhav Puram"}],"electioncrimeno":[{"Name":"Nil","so":"Nil","crimeno":"Nil","Section":"Nil","Address":"Nil"}],"politician":[{"Name":"Tarun Goyal","so":"Nil","Address":"Nil","Phone":"Nil"}],"boundDownUnder":"Nil","vulnerabilityDetails":"Sensitive","warrantedCriminals":[{"Name":"Nil","so":"Nil","Address":"Nil","Phone":"Nil"}],"condition":"Good"},{"stationID":"BM-25","stationName":"Shaheed Mangal Pandey Mahila Degree College Madhav Puram","latitude":"28.957","longitude":"77.694","polingCenterPhoto":"/img/mediPanchayat.png","routes":"/img/3.png","collectionPoint":"/img/3.png","population":"Nil","voters":"6500","villageMohalla":"Avas Vikas Colony R.K Puram Sector 3 Tejpal Enclave Saraswati Lok Ira Garden State ","path":"#/menu/tab/medicalDetails","respectedPpl":[{"Name":"Pradeep Kumar Bansal","so":"Nil","Address":"Nil","Phone":"9337023676"},{"Name":"Kanti Singhal","so":"Nil","Address":"Nil","Phone":"9412200641"},{"Name":"Ashwani Mittal","so":"Nil","Address":"Nil","Phone":"9917727504"},{"Name":"Maharaj Singh","so":"Nil","Address":"Nil","Phone":"9897489348"}],"retiredGovtSer":[{"Name":"Nil","so":"Nil","Address":"Nil","Phone":"Nil"}],"neighbourPolling":[{"Name":"Pankaj","so":"Nil","Address":"Nil","Phone":"8941092901"},{"Name":"Monu Gupta","so":"Nil","Address":"Nil","Phone":"9058885558"},{"Name":"Kapil Jain","so":"Nil","Address":"Nil","Phone":"9719871018"},{"Name":"Hari Mohan Sharma","so":"Nil","Address":"Nil","Phone":"9634025809"}],"armsLicenseHolder":[{"Name":"Nagendra Singh","so":"Bhagwan","Address":"R.k Puram","Phone":"9319976509","Weapon":"DBBL"},{"Name":"Jai Pal Singh","so":"Karan Singh","Address":"R.k Puram","Phone":"Nil","Weapon":"DBBL"},{"Name":"Dharam Pal Malhothra","so":"Maharaj","Address":"R.k Puram","Phone":"9412201715","Weapon":"Revolver"},{"Name":"Hans Kumar Jain","so":"Jai Chand Jain","Address":"R.k Puram","Phone":"9411903844","Weapon":"DBBL"},{"Name":"Supritendent Govt.","so":"Nil","Address":"R.k Puram","Phone":"9412421838","Weapon":"SBBL"},{"Name":"Lokesh Kumar","so":"Mam Chand","Address":"Sector 3 Madhav Puram","Phone":"9927011922","Weapon":"DBBL"},{"Name":"Jagdeep","so":"Ashok Kumar","Address":"Sector 3 Madhav Puram","Phone":"9837033825","Weapon":"Revolver"},{"Name":"Kumar Pal Singh Rathor","so":"Kishan Lal","Address":"Sector 3 Madhav Puram","Phone":"9719250440","Weapon":"DBBL"},{"Name":"Sunil Chaudhary","so":"Jaswant","Address":"776/3 E Madhav Puram","Phone":"9411644248","Weapon":"Pistol"}],"chowkidar":[{"Name":"Devnath Prasad","so":"Nil","Address":"Nil","Phone":"9936301345"}],"councellor":[{"Name":"Tarun Goyal ","so":"Nil","Address":"Nil","Phone":"9219157228"},{"Name":"Rakesh Sharma ","so":"Nil","Address":"Nil","Phone":"9358877102"}],"historySheeter":[{"Name":"Vinod/ Pilua","so":"Prem Giri","Address":"R.K Puram","Status":"Present","Phone":"Nil"}],"convictedCriminals":[{"Name":"Nil ","so":"Nil","3Status":"Nil","4address":"Nil"}],"crimes5Yrs":[{"Name":"Sahid","so":"Yasin","crimeno":"1/12.","Section":"25/4, ","Address":"Chamaro Wali Gali Raseed Nagar"},{"Name":"Nausad","so":"Alimuddin","crimeno":"3/12.","Section":"25/4","Address":"Eid Gahah Mohalla Kasba Murad Nagar GZB"},{"Name":"Arjun","so":"Kailash","crimeno":"15/12","Section":"25/4","Address":"Gali No.1 Ambedkar Nagar"},{"Name":"Anand Sharma","so":"Preetam","crimeno":"47/12","Section":"323,420,504,506 IPC","Address":"863/1 Madhav Puram"},{"Name":"Varun/Mota","so":"Naresh","crimeno":"61/12","Section":"25/4","Address":"Bharam Puri"},{"Name":"Ravi","so":"Subash","crimeno":"64/12","Section":"2/3 Gangster","Address":"Jagrati Vihar"},{"Name":"Ravi","so":"Rajveer","crimeno":"218/12","Section":"376 IPC","Address":"Indra Nagar Bharam Puri"},{"Name":"Vijendra","so":"Phralad","crimeno":"307/12","Section":"323,506,504,324 IPC","Address":"R.k Puram Bahram Puri"},{"Name":"Vicky","so":"Ramesh","crimeno":"352/12","Section":"24/4 A Act","Address":"Baraf Wali gali Bagad yaan"},{"Name":"Devendra Gurjar","so":"Nil","crimeno":"364/12","Section":"3075,04,323","Address":"Nil"},{"Name":"Sonu","so":"Mam Chand","crimeno":"487/12","Section":"420,468,471,170 IPC","Address":"Near Purani Chocki Ganesh Puri "},{"Name":"Unknown","so":"Unknown","crimeno":"549/12","Section":"4,57,380","Address":"Nil"},{"Name":"yogesh","so":"Prem Giri","crimeno":"558/13","Section":"8/20 NDPS","Address":"Madhav Puram"},{"Name":"Unknown","so":"Unknown","crimeno":"38/14","Section":"392 IPC","Address":"Nil"},{"Name":"Sanjay","so":"Sat Prakash","crimeno":"73/14","Section":"381,420,467,478,471,408,571,","Address":"Alok Park"},{"Name":"Bhagat Singh","so":"Narayan","crimeno":"245.14","Section":"457,380 IPC","Address":"Bhadolak GZB"},{"Name":"Rasid","so":"Samshad","crimeno":"119/15","Section":"363,376,7/8 Pos co. Act","Address":"Shah Jha Colony"},{"Name":"Juwab","so":"Jahwar","crimeno":"165/15","Section":"25 A Act","Address":"Shali Maar Garden"},{"Name":"Imran","so":"Babu","crimeno":"275/15","Section":"307,504,506 IPC","Address":"Ara machinee Wali Gali"},{"Name":"Danish Mulla","so":"Isham","crimeno":"238/16","Section":"3/4 Gunda Act","Address":"Madhav Puram"},{"Name":"Umesh","so":"Aay","crimeno":"242/16","Section":"147,148,149,307,504,506,","Address":"Shiv Shakti Nagar"}],"electioncrimeno":[{"Name":"Nil","so":"Nil","crimeno":"Nil","Section":"Nil","Address":"Nil"}],"politician":[{"Name":"Ashu Sharma ","so":"Nil","Address":"Nil","Phone":"8273133220"},{"Name":"Rajiv Goyal ","so":"Nil","Address":"Nil","Phone":"9359930272"},{"Name":"Om kar Yadav ","so":"Nil","Address":"Nil","Phone":"8126912367"},{"Name":"Kuldeep Kumar/Monu","so":"Nil","Address":"Nil","Phone":"9359699868"},{"Name":"Vijay Pal ","so":"Nil","Address":"Nil","Phone":"9997333857"}],"boundDownUnder":"Nil","vulnerabilityDetails":"Sensitive","warrantedCriminals":[{"Name":"Nil","so":"Nil","Address":"Nil","Phone":"Nil"}],"condition":"Good"},{"stationID":"BM-26","stationName":"Laad Krishna Inter College  Prem Vihar Madhav Puram","latitude":"28.9601","longitude":"77.6886","polingCenterPhoto":"/img/mediPanchayat.png","routes":"/img/3.png","collectionPoint":"/img/3.png","population":"Nil","voters":"1800","villageMohalla":"Shiv Shakti Nagar","path":"#/menu/tab/medicalDetails","respectedPpl":[{"Name":"Sushil Kumar","so":"Nil","Address":"Nil","Phone":"9808369791"},{"Name":"Yash Pal","so":"Nil","Address":"Nil","Phone":"9917307503"}],"retiredGovtSer":[{"Name":"Nil","so":"Nil","Address":"Nil","Phone":"Nil"}],"neighbourPolling":[{"Name":"Ram Nivas yadav/ Raju","so":"Nil","Address":"Nil","Phone":"9997039339"},{"Name":"Subash Chandra","so":"Nil","Address":"Nil","Phone":"9027563049"},{"Name":"Narendra","so":"Nil","Address":"Nil","Phone":"9557370669"},{"Name":"Satendra Kumar Gupta","so":"Nil","Address":"Nil","Phone":"9358400501"},{"Name":"Munendra Kumar","so":"Nil","Address":"Nil","Phone":"7217322812"}],"armsLicenseHolder":[{"Satendra Chaudhary":"Mukesh Kumar","Uday Veer":"Trilok Chandra","620 Shiv Shakti Nagar":"Shiv Shakti Nagar","7830265757":"9259126634","DBBL":"Revolver"},{"Satendra Chaudhary":"Rakesh Kumar","Uday Veer":"Kripal Singh Thakur","620 Shiv Shakti Nagar":"Shiv Shakti Nagar","7830265757":"1212403042","DBBL":"Revolver"},{"Satendra Chaudhary":"Ved Ram Singh","Uday Veer":"Alfat Singh","620 Shiv Shakti Nagar":"40/25 Shiv Shakti Nagar","7830265757":"Nil","DBBL":"Rifle"},{"Satendra Chaudhary":"Nirvesh Kumar","Uday Veer":"Giri Raj","620 Shiv Shakti Nagar":"556 Shiv Shakti Nagar","7830265757":"Nil","DBBL":"Pistol"},{"Satendra Chaudhary":"Ashish Tomar","Uday Veer":"Rajendra Kumar","620 Shiv Shakti Nagar":"Shiv Shakti Nagar","7830265757":"Nil","DBBL":"DBBL"},{"Satendra Chaudhary":"amar Nath Aggarwal","Uday Veer":"Jai Prakash","620 Shiv Shakti Nagar":"Shiv Shakti Nagar","7830265757":"Nil","DBBL":"Rifle/AV"},{"Satendra Chaudhary":"Navneet Garg","Uday Veer":"Ram Prakash","620 Shiv Shakti Nagar":"Shiv Shakti Nagar","7830265757":"Nil","DBBL":"Revolver"},{"Satendra Chaudhary":"Manish Kumar","Uday Veer":"Kripa Shankar","620 Shiv Shakti Nagar":"Shiv Shakti Nagar","7830265757":"Nil","DBBL":"Rifle"},{"Satendra Chaudhary":"Mahesh Chandra","Uday Veer":"Ganga Charan Sharma","620 Shiv Shakti Nagar":"Shiv Shakti Nagar","7830265757":"9837890478","DBBL":"Pistol"}],"chowkidar":[{"Name":"Nil","so":"Nil","Address":"Nil","Phone":"Nil"}],"councellor":[{"Name":"Rajiv Gupta/ Kale ","so":"Nil","Address":"Nil","Phone":"8273894709"}],"historySheeter":[{"Name":"Nil","so":"Nil","Address":"Nil","Status":"Nil","Phone":"Nil"}],"convictedCriminals":[{"Name":"Nil ","so":"Nil","3Status":"Nil","4address":"Nil"}],"crimes5Yrs":[{"Name":"Nil","so":"Nil","crimeno":"Nil","Section":"Nil","Address":"Nil"}],"electioncrimeno":[{"Name":"Nil","so":"Nil","crimeno":"Nil","Section":"Nil","Address":"Nil"}],"politician":[{"Name":"Nil","so":"Nil","Address":"Nil","Phone":"Nil"}],"boundDownUnder":"Nil","vulnerabilityDetails":"General","warrantedCriminals":[{"Name":"Nil","so":"Nil","Address":"Nil","Phone":"Nil"}],"condition":"Good"},{"stationID":"BM-27","stationName":"New Darshan Public School Shiv Shakti Nagar Near Water Tank","latitude":"28.9629","longitude":"77.6877","polingCenterPhoto":"/img/mediPanchayat.png","routes":"/img/3.png","collectionPoint":"/img/3.png","population":"Nil","voters":"4000","villageMohalla":"Shiv Shakti Nagar","path":"#/menu/tab/medicalDetails","respectedPpl":[{"Name":"Harsh Deep Singh","so":"Nil","Address":"Nil","Phone":"8445009218"},{"Name":"Atul gurjar","so":"Nil","Address":"Nil","Phone":"9058303002"},{"Name":"Nishant Kashyap","so":"Nil","Address":"Nil","Phone":"8958794162"},{"Name":"Kishan Kumar","so":"Nil","Address":"Nil","Phone":"9756153991"}],"retiredGovtSer":[{"Name":"Gaje Singh","so":"Nil","Address":"Nil","Phone":"8006329329"}],"neighbourPolling":[{"Name":"Suresh Chandra Lodhi","so":"Nil","Address":"Nil","Phone":"8958849030"},{"Name":"Dharam Pal","so":"Nil","Address":"Nil","Phone":"9927258009"},{"Name":"Ram Naresh Tiwari","so":"Nil","Address":"Nil","Phone":"7895370526"},{"Name":"Daya Chand","so":"Nil","Address":"Nil","Phone":"8439373374"},{"Name":"Suresh Chandra","so":"Nil","Address":"Nil","Phone":"8266899535"},{"Name":"Ram Dayal Lodhi","so":"Nil","Address":"Nil","Phone":"7217241095"}],"armsLicenseHolder":[{"Name":"Dharmendra rana","so":"Jagveer Singh","Address":"Shiv Shakti Nagar","Phone":"Nil","Weapon":"Rifle"},{"Name":"Mahesh Chandra Sharma","so":"Jagdesh Sharma","Address":"Shiv Shakti Nagar","Phone":"Nil","Weapon":"Revolver"},{"Name":"Tarun Kumar Gupta","so":"Ram Kumar Gupta","Address":"Shiv Shakti Nagar","Phone":"Nil","Weapon":"Pistol"},{"Name":"Mahendra Singh","so":"Bhopal Singh","Address":"Shiv Shakti Nagar","Phone":"9997677785","Weapon":"Revolver"},{"Name":"Krishan Kumar","so":"Kripa Shankar","Address":"Shiv Shakti Nagar","Phone":"9639034272","Weapon":"Revolver"},{"Name":"RajKumari","so":"W/O khamendra Rana","Address":"Shiv Shakti Nagar","Phone":"Nil","Weapon":"Rifle"},{"Name":"Ashish Dhaka","so":"Om Pal Singh Dhaka","Address":"Shiv Shakti Nagar","Phone":"8272836364","Weapon":"Pistol"},{"Name":"Deepak Verma","so":"Dhan Singh Verma","Address":"Shiv Shakti Nagar","Phone":"Nil","Weapon":"Revolver"},{"Name":"Varun Kummar","so":"Parma Nand","Address":"998 Shiv Shakti Nagar","Phone":"9837982362","Weapon":"SBBL"},{"Name":"Sunny Saini","so":"Som Dutt","Address":"Shiv Shakti Nagar","Phone":"9719685302","Weapon":"I.P"}],"chowkidar":[{"Name":"Nil","so":"Nil","Address":"Nil","Phone":"Nil"}],"councellor":[{"Name":"Rajiv Gupta/ Kale ","so":"Nil","Address":"Nil","Phone":"8273894709"},{"Name":"Din  Garg","so":"Nil","Address":"Nil","Phone":"9837415683"}],"historySheeter":[{"Name":"Nil","so":"Nil","Address":"Nil","Status":"Nil","Phone":"Nil"}],"convictedCriminals":[{"Name":"Nil ","so":"Nil","3Status":"Nil","4address":"Nil"}],"crimes5Yrs":[{"Name":"Nil","so":"Nil","crimeno":"Nil","Section":"Nil","Address":"Nil"}],"electioncrimeno":[{"Name":"Nil","so":"Nil","crimeno":"Nil","Section":"Nil","Address":"Nil"}],"politician":[{"Name":"Dharam Pal Singh ","so":"Nil","Address":"Nil","Phone":"9927258009"},{"Name":"Rajiv/ Kale ","so":"Nil","Address":"Nil","Phone":"9897098909"},{"Name":"Dinesh Garg","so":"Nil","Address":"Nil","Phone":"9837415683"}],"boundDownUnder":"Nil","vulnerabilityDetails":"General","warrantedCriminals":[{"Name":"Nil","so":"Nil","Address":"Nil","Phone":"Nil"}],"condition":"Good"},{"stationID":"BM-28","stationName":"Nav Bharat Public School Prem Vihar","latitude":"28.9598","longitude":"77.6889","polingCenterPhoto":"/img/mediPanchayat.png","routes":"/img/3.png","collectionPoint":"/img/3.png","population":"Nil","voters":"2500","villageMohalla":"Ambedkar Nagar, Prem Vihar","path":"#/menu/tab/medicalDetails","respectedPpl":[{"Name":"Rakesh Aggarwal","so":"Nil","Address":"Nil","Phone":"9927832902"},{"Name":"Umesh Kumar Garg","so":"Nil","Address":"Nil","Phone":"9411066508"},{"Name":"Saurav Tyagi","so":"Nil","Address":"Nil","Phone":"9761483662"}],"retiredGovtSer":[{"Name":"Gaje Singh","so":"Nil","Address":"Nil","Phone":"8006329329"}],"neighbourPolling":[{"Name":"Deepak","so":"Nil","Address":"Nil","Phone":"9045924154"},{"Name":"Mahi Pal Singh","so":"Nil","Address":"Nil","Phone":"9045229347"},{"Name":"Harsh","so":"Nil","Address":"Nil","Phone":"9756430459"},{"Name":"Neeraj Jain","so":"Nil","Address":"Nil","Phone":"9568446047"},{"Name":"Satish Chandra Sharma","so":"Nil","Address":"Nil","Phone":"9997536668"}],"armsLicenseHolder":[{"Name":"Indra Jeet Singh","so":"Devi Singh","Address":"Prem Vihar","Phone":"Nil","Weapon":"SBBL"},{"Name":"Ramesh Pal Singh","so":"Raghu Veer","Address":"Prem Vihar","Phone":"8909528501","Weapon":"DBBL"},{"Name":"Subodh Jindal","so":"Hirday Prakash","Address":"Prem Vihar","Phone":"9837790256","Weapon":"Rifle"},{"Name":"Yogendra Singh Rana","so":"Hem Singh","Address":"Prem Vihar","Phone":"9319736743","Weapon":"DBBL/ Pistol"},{"Name":"Hans Kumar Jain","so":"Jai chand Jain","Address":"R.K Puram","Phone":"9411903844","Weapon":"DBBL"},{"Name":"Sanjay Goyal","so":"Mahendra Gopal","Address":"Prem Vihar","Phone":"9456480930","Weapon":"DBBL"},{"Name":"Manoj Kumar","so":"Ranveer Singh","Address":"Prem Vihar","Phone":"9720311892","Weapon":"Revolver"},{"Name":"Neeraj Kumar","so":"Sita Ram","Address":"Prem Vihar","Phone":"9837376338","Weapon":"Revolver"},{"Name":"satendra Kumar","so":"Ghasi Ram","Address":"Prem Vihar","Phone":"9358400510","Weapon":"Revolver"},{"Name":"Ramesh Chand","so":"Chand Sharma","Address":"Prem Vihar","Phone":"9359931028","Weapon":"Pistol"}],"chowkidar":[{"Name":"Nil","so":"Nil","Address":"Nil","Phone":"Nil"}],"councellor":[{"Name":"Rajiv Gupta/ Kale ","so":"Nil","Address":"Nil","Phone":"8273894709"},{"Name":"Dinesh  Garg","so":"Nil","Address":"Nil","Phone":"9837415683"}],"historySheeter":[{"Name":"Ram Babu","so":"Ratan Lal","Address":"Prem Vihar","Status":"Present","Phone":"Nil"}],"convictedCriminals":[{"Name":"Nil ","so":"Nil","3Status":"Nil","4address":"Nil"}],"crimes5Yrs":[{"Name":"Kapil","so":"Pawan Kumar","crimeno":"207/12","Section":"323,324,504,506 IPC","Address":"Prem Vihar"},{"Name":"Yogesh","so":"Shri Chand","crimeno":"39/12","Section":"3,54,504","Address":"107/2816 Prem Vihar"},{"Name":"Rajesh","so":"Kishan Lal","crimeno":"273/13","Section":"354 K (6)","Address":"221 Devta Pur"},{"Name":"Waseem","so":"Sarif","crimeno":"609/14","Section":"25 (A) Act","Address":"Dhilai Wali Gali Bharam Puri"},{"Name":"Unknown","so":"Unknown","crimeno":"48/15","Section":"363 IPC","Address":"Nil"},{"Name":"Vicky Pandey","so":"Vinay","crimeno":"35/16","Section":"147,148,149,452,323,325,","Address":"Madhav Puram"},{"Name":"Manoj","so":"Nil","crimeno":"202/16","Section":"147,323,504,506,452,427,","Address":"Nil"},{"Name":"Pramod","so":"Nil","crimeno":"202/16","Section":"147,323,504,506,452,427,","Address":"Nil"}],"electioncrimeno":[{"Name":"Nil","so":"Nil","crimeno":"Nil","Section":"Nil","Address":"Nil"}],"politician":[{"Name":"Nil","so":"Nil","Address":"Nil","Phone":"Nil"}],"boundDownUnder":"Nil","vulnerabilityDetails":"General","warrantedCriminals":[{"Name":"Nil","so":"Nil","Address":"Nil","Phone":"Nil"}],"condition":"Good"},{"stationID":"BM-29","stationName":"Azad Public school Ganesh Puri Khatta Road","latitude":" 28.9656","longitude":"77.6992","polingCenterPhoto":"/img/mediPanchayat.png","routes":"/img/3.png","collectionPoint":"/img/3.png","population":"Nil","voters":"500","villageMohalla":"Miya Mohd. Nagar , Khatta Road","path":"#/menu/tab/medicalDetails","respectedPpl":[{"Name":"Mohd. Faruk","so":"Harun","Address":"Nil","Phone":"9548215307"},{"Name":"Sahrif","so":"Raseed","Address":"Nil","Phone":"9997436434"},{"Name":"Hanis","so":"Hanif","Address":"Nil","Phone":"9319739554"},{"Name":"Mohd. Mateem","so":"Islamuddin","Address":"Nil","Phone":"8307444951"}],"retiredGovtSer":[{"Name":"Nil","so":"Nil","Address":"Nil","Phone":"Nil"}],"neighbourPolling":[{"Name":"Sharif","so":"Raseed","Address":"Nil","Phone":"9997436434"},{"Name":"Asif","so":"nannu","Address":"Nil","Phone":"9997289562"},{"Name":"Akeel","so":"Bhullu Muneri","Address":"Nil","Phone":"9675788562"},{"Name":"Mohd.Tasin","so":"Ismile","Address":"Nil","Phone":"7417744926"},{"Name":"Mohd. Shakeen","so":"Bhullu","Address":"Nil","Phone":"9319736973"}],"armsLicenseHolder":[{"Name":"Najim","so":"Alauddin","Address":"Miya Mohd. Nagar","Phone":"Nil","Weapon":"DBBL"},{"Name":"Mohd. Mustafa","so":"Bundu Khan","Address":"Sakur Nagar","Phone":"9319705746","Weapon":"Revolver"}],"chowkidar":[{"Name":"Nil","so":"Nil","Address":"Nil","Phone":"Nil"}],"councellor":[{"Name":"Achal Rahul","so":"Nil","Address":"Nil","Phone":"9358782111"},{"Name":"Sangeeta Rahul","so":"Nil","Address":"Nil","Phone":"9358782111"}],"historySheeter":[{"Name":"Yosuf/ Rangau","so":"Abdul Waheed","Address":"Miya Mohd. Nagar","Status":"Nil","Phone":"Nil"}],"convictedCriminals":[{"Name":"Nil ","so":"Nil","3Status":"Nil","4address":"Nil"}],"crimes5Yrs":[{"Name":"Saleem","so":"Unknown","crimeno":"201/12","Section":"452,323,504,506,","Address":"Near Tayal Nursing "},{"Name":"Sajid","so":"Tofiq","crimeno":"492/14","Section":"376,506 D ","Address":"Sakoor Nagar"},{"Name":"Tarikat","so":"Safakat","crimeno":"237/15","Section":"147,148,149,452,504,506,302,307,120 (B),34 IPC","Address":"Baniya Wala Khet Khatta Road"}],"electioncrimeno":[{"Name":"Imran","so":"Ashraf","crimeno":"22/12","Section":"127 (K),123 (2)","Address":"Awad Mansoori Wali Gali P/S Lisadi Gate"}],"politician":[{"Name":"Mohd. Mateem ","so":" Islamuddin ","Address":"Nil","Phone":"8307444951"},{"Name":"Salim ","so":"Ismile ","Address":"Nil","Phone":"9358137811"},{"Name":"Raseed","so":" Raved ","Address":"Nil","Phone":"9997436434"}],"boundDownUnder":"Nil","vulnerabilityDetails":"General","warrantedCriminals":[{"Name":"Nil","so":"Nil","Address":"Nil","Phone":"Nil"}],"condition":"Good"},{"stationID":"BM-30","stationName":"New Public School Raseed Nagar Dhalai Wali Gali Ke samne","latitude":" 28.9648","longitude":"77.7003","polingCenterPhoto":"/img/mediPanchayat.png","routes":"/img/3.png","collectionPoint":"/img/3.png","population":"Nil","voters":"5500","villageMohalla":"Raseed Nagar","path":"#/menu/tab/medicalDetails","respectedPpl":[{"Name":"Wasimuddin","so":"Ajijuddin","Address":"Nil","Phone":"9219568815"},{"Name":"Sharafat","so":"Rafat","Address":"Nil","Phone":"9837165882"},{"Name":"Aftab","so":"Nil","Address":"Nil","Phone":"9520414708"},{"Name":"Nafees","so":"Nil","Address":"Nil","Phone":"8430559814"},{"Name":"Hamraj","so":"HajiTau","Address":"Nil","Phone":"9897292950"}],"retiredGovtSer":[{"Name":"Nil","so":"Nil","Address":"Nil","Phone":"Nil"}],"neighbourPolling":[{"Name":"lani","so":"Nayeem Khan","Address":"Nil","Phone":"9319928014"},{"Name":"Meena","so":"Hamraj Churan Wale","Address":"Nil","Phone":"7055387786"},{"Name":"Wasiuddin","so":"Ajimuddin","Address":"Nil","Phone":"9219568815"},{"Name":"Ayub","so":"Nayeem Khan","Address":"Nil","Phone":"9045681491"},{"Name":"Gulwano","so":"Munne Bhai","Address":"Nil","Phone":"9997794442"},{"Name":"Rahees","so":"Mohd. Yosuf","Address":"Nil","Phone":"8430559814"}],"armsLicenseHolder":[{"Name":"Ali Mohd.","so":"Ali Hasan","Address":"Raseed Nagar","Phone":"9319051437","Weapon":"DBBL"},{"Name":"Alijaan Alwi","so":"Abdul Raseed","Address":"31 Noor Nagar","Phone":"8126432728","Weapon":"DBBL"},{"Name":"Inamulhaq","so":"Abdul Gafoor Kasmi","Address":"Nil","Phone":"9319797935","Weapon":"pistol"},{"Name":"Wasim Aham Khan","so":"Shamim Ahmad","Address":"77 Raseed Nagar","Phone":"9810119410","Weapon":"Rifle"},{"Name":"Hussain Ali","so":"Sayyad Hasan","Address":"161 Raseed Nagar","Phone":"Nil","Weapon":"DBBL"},{"Name":"Mayub Ali Rana","so":"Hanwar Ali","Address":"131 Shakoor Nagar","Phone":"9897323363","Weapon":"DBBL"},{"Name":"Warkat Ali","so":"Abdul Ajij","Address":"1463 New Tara Puri","Phone":"9719275244","Weapon":"SBBL"}],"chowkidar":[{"Name":"Nil","so":"Nil","Address":"Nil","Phone":"Nil"}],"councellor":[{"Name":"Mohd. Sayeed l","so":"Nil","Address":"Nil","Phone":"9897080511"}],"convictedCriminals":[{"Name":"Nil ","so":"Nil","3Status":"Nil","4address":"Nil"}],"crimes5Yrs":[{"Name":"Nil","so":"Nil","crimeno":"Nil","Section":"Nil","Address":"Nil"}],"electioncrimeno":[{"Name":"Imran","so":"Ashraf","crimeno":"22/12","Section":"127 (K),123 (2)","Address":"Awad Mansoori Wali Gali P/S Lisadi Gate"}],"politician":[{"Name":"Aftab ","so":"Nil","Address":"Nil","Phone":"9520414708"},{"Name":"Haidar ","so":"Ali jaan  ","Address":"Nil","Phone":"830722206"},{"Name":"Sharafat ","so":"Rafat Ali ","Address":"Nil","Phone":"9837165882"},{"Name":"Nafees Haidar  ","so":"Munsi Bali ","Address":"Nil","Phone":"8430559814"}],"boundDownUnder":"Nil","vulnerabilityDetails":"Sensitive","warrantedCriminals":[{"Name":"Nil","so":"Nil","Address":"Nil","Phone":"Nil"}],"condition":"Good"},{"stationID":"BM-31","stationName":"Madarsa Hussainaiya Idaytulla Islam Lisadi Road","latitude":"28.96778","longitude":"77.7020","polingCenterPhoto":"/img/mediPanchayat.png","routes":"/img/3.png","collectionPoint":"/img/3.png","population":"Nil","voters":"700","villageMohalla":"Guljare Ibrahim","path":"#/menu/tab/medicalDetails","respectedPpl":[{"Name":"Hafiz chand","so":"IslamUddin","Address":"Nil","Phone":"9897623010"},{"Name":"Hanif Pahelwan","so":"Bundu","Address":"Nil","Phone":"9412669025"},{"Name":"Saleem Siddiqui","so":"Najar","Address":"Nil","Phone":"9458778786"},{"Name":"Taj Mohd.","so":"Fateh","Address":"Nil","Phone":"9319285743"}],"retiredGovtSer":[{"Name":"Nil","so":"Nil","Address":"Nil","Phone":"Nil"}],"neighbourPolling":[{"Name":"Jamil Ahmad","so":"Peer Baksh","Address":"Nil","Phone":"9368820030"},{"Name":"Mohd. Abrar","so":"Haji Hamid","Address":"Nil","Phone":"9760185625"},{"Name":"Mohd. Farq","so":"Mohd. Saddiq","Address":"Nil","Phone":"8392866827"},{"Name":"Mohd. Irshad/Bobby","so":"Mohd. Gulzar","Address":"Nil","Phone":"8368769577"},{"Name":"Taj Mohd.","so":"Fateh","Address":"Nil","Phone":"9319285743"}],"armsLicenseHolder":[{"Name":"Arif Malik","so":"Hasimuddin","Address":"Gulzare Ibrahim","Phone":"9760678308","Weapon":"Rifle"}],"chowkidar":[{"Name":"Nil","so":"Nil","Address":"Nil","Phone":"Nil"}],"councellor":[{"Name":"Sangeeta Rahul ","so":"Nil","Address":"Nil","Phone":"9358782111"},{"Name":"Achal Rahul","so":"Nil","Address":"Nil","Phone":"9358782111"}],"convictedCriminals":[{"Name":"Nil ","so":"Nil","3Status":"Nil","4address":"Nil"}],"crimes5Yrs":[{"Name":"Shabana","2Wo":"Kamil","crimeno":"152.12","Section":"498 (A),307,504,506 IPC","Address":"Sadiqpur loni GZB"},{"Name":"Shah Nawaz Fatima","so":"Mashroof","crimeno":"21/13","Section":"498 (A),325,504,506","Address":"Bhumiya Pul"},{"Name":"Anbar Ahmad","so":"Ahmad Haqim","crimeno":"176/13","Section":"4573,80,411","Address":"Gulzare Ibrahim"},{"Name":"Shri Mati Aftab","2Wo":"Wahed","crimeno":"209/16","Section":"498 (A),323,504,506,307,354,376,(D),377","Address":"Gulzare Ibrahim"}],"electioncrimeno":[{"Name":"Imran","so":"Ashraf","crimeno":"22/12","Section":"127 (K),123 (2)","Address":"Awad Mansoori Wali Gali P/S Lisadi Gate"}],"politician":[{"Name":"Salim Siddiqui ","so":"Nil","Address":"Nil","Phone":"9458778786"},{"Name":"Hafiz ","so":" Islamuddin ","Address":"Nil","Phone":"9897623010"},{"Name":"Jamshed ","so":"Gulzar ","Address":"Nil","Phone":"92580965"}],"boundDownUnder":"Nil","vulnerabilityDetails":"General","warrantedCriminals":[{"Name":"Nil","so":"Nil","Address":"Nil","Phone":"Nil"}],"condition":"Good"},{"stationID":"BM-32","stationName":"Yasin Public School Gali No.1 Kele wali Gali Sakoor nagar Lisadi Road","latitude":"28.9659","longitude":"77.7007","polingCenterPhoto":"/img/mediPanchayat.png","routes":"/img/3.png","collectionPoint":"/img/3.png","population":"Nil","voters":"2700","villageMohalla":"Sakur Nagar 1,2,3","path":"#/menu/tab/medicalDetails","respectedPpl":[{"Name":"Abid rana","so":"Nil","Address":"Nil","Phone":"8533042111"},{"Name":"Chand","so":"Nil","Address":"Nil","Phone":"Nil"},{"Name":"Dr. Murtjaa","so":"Nil","Address":"Nil","Phone":"9897700893"},{"Name":"Tarikat Ali","so":"Nil","Address":"Nil","Phone":"9997344819"}],"retiredGovtSer":[{"Name":"Nil","so":"Nil","Address":"Nil","Phone":"Nil"}],"neighbourPolling":[{"Name":"Nil","so":"Nil","Address":"Nil","Phone":"Nil"}],"armsLicenseHolder":[{"Name":"Mehmood Ali","so":"Abdul Sakoor","Address":"Sakoor Nagar","Phone":"Nil","Weapon":"Rifle/SBBL"},{"Name":"Ashraf","so":"Yosufkhan","Address":"Sakoor Nagar Peer Wali Gali","Phone":"Nil","Weapon":"Revolver"}],"chowkidar":[{"Name":"Reshma","so":"Nil","Address":"Nil","Phone":"Nil"}],"councellor":[{"Name":"Nawab Querashi","so":"Nil","Address":"Nil","Phone":"999788591"},{"Name":"Abad Mansoori","so":"Nil","Address":"Nil","Phone":"Nil"}],"convictedCriminals":[{"Name":"Nil ","so":"Nil","3Status":"Nil","4address":"Nil"}],"crimes5Yrs":[{"Name":"Nil","so":"Nil","crimeno":"Nil","Section":"Nil","Address":"Nil"}],"electioncrimeno":[{"Name":"Imran","so":"Ashraf","crimeno":"22/12","Section":"127 (K),123 (2)","Address":"Awad Mansoori Wali Gali P/S Lisadi Gate"}],"politician":[{"Name":"Kumari Nagina Rajput","so":"Nil","Address":"Nil","Phone":"8126389437"},{"Name":"Saleem ","so":"  Ismile  ","Address":"Nil","Phone":"9358137811"},{"Name":"Raseed ","so":"Rsheed ","Address":"Nil","Phone":"9997436434"}],"boundDownUnder":"Nil","vulnerabilityDetails":"General","warrantedCriminals":[{"Name":"Nil","so":"Nil","Address":"Nil","Phone":"Nil"}],"condition":"Good"}]
